"country","country_code","region","city","id","osm_lat","osm_long","g_lat","g_long"
"Argentina","AR",,"Alta Gracia","83019","-31.6572466","-64.4258502","-31.6545525","-64.430603"
"Argentina","AR",,"Azul","83332","-36.783843492374","-59.8613689442799","-36.7749672","-59.8540382"
"Argentina","AR",,"Bahía Blanca","83339","-38.7176804","-62.2654621","-38.7116776","-62.2680779"
"Argentina","AR",,"Bell Ville","83562","-32.6303533","-62.6889165","-32.6201134","-62.6892624"
"Argentina","AR",,"Buenos Aires","83693","-34.6169869","-58.4460813","-34.6084175","-58.3731613"
"Argentina","AR",,"Campana","83811","-34.1700451","-58.9575804","-34.1674805","-58.9526405"
"Argentina","AR",,"Catamarca","84084","-27.3247603402662","-66.932075418091","-28.4689906","-65.7789716"
"Argentina","AR",,"Chacabuco","84163","-34.6444943","-60.4691688","-34.6359329","-60.4651222"
"Argentina","AR",,"Chivilcoy","84281","-34.8884004350465","-60.032542704071","-34.8972397","-60.018837"
"Argentina","AR",,"Comodoro Rivadavia","84683","-45.8733601","-67.5195695","-45.8679199","-67.5"
"Argentina","AR",,"Concepción del Uruguay","84695","-32.4847678","-58.2319415","-32.4838219","-58.2330284"
"Argentina","AR",,"Concordia","84699","-31.3972539","-58.0173305","-31.3918479","-58.0170605"
"Argentina","AR",,"Corrientes","84826","-28.5912315","-57.9394658","-27.4712257","-58.8395844"
"Argentina","AR",,"Córdoba","84740","-32.1297507435372","-63.7967633581271","-31.3989296","-64.1821289"
"Argentina","AR",,"Dolores","85039","-27.85","-63.35","-36.3145485","-57.6800804"
"Argentina","AR",,"Eldorado","85240","-26.404486","-54.6258412","-26.3999195","-54.626812"
"Argentina","AR",,"Formosa","85853","-24.8945636468611","-59.9334520137571","-26.185201","-58.1753697"
"Argentina","AR",,"General Pico","86079","-35.6635985","-63.754276","-35.6569519","-63.7545471"
"Argentina","AR",,"General Roca","86088","-32.7310158","-61.915915","-39.0267525","-67.5751724"
"Argentina","AR",,"Goya","86200","-29.1453281","-59.2622035","-29.1442242","-59.2643242"
"Argentina","AR",,"Gualeguaychú","86226","-33.0102708","-58.5141836","-33.0150185","-58.5192451"
"Argentina","AR",,"Gualeguay","86227","-33.1464566","-59.3130305","-33.1512413","-59.3344116"
"Argentina","AR",,"Jujuy","86715","-23.3160952247491","-65.7643802343528","-22.6633212","-66.2367172"
"Argentina","AR",,"Junín","86726","-33.15","-68.483333","-34.5822105","-60.9494019"
"Argentina","AR",,"La Plata","87145","-35.6538555316805","-65.1282890418551","-34.9173012","-57.9501305"
"Argentina","AR",,"La Rioja","87199","-29.6359232224535","-67.1844471559934","-29.4128001","-66.8559803"
"Argentina","AR",,"Libertador General San Martín","87540","-23.8084811","-64.7862671","-23.81945","-64.790077"
"Argentina","AR",,"Lincoln","87559","-34.8675352","-61.5288545","-34.8678589","-61.53442"
"Argentina","AR",,"Luján","87833","-34.5668306","-59.109508","-34.565731","-59.1174316"
"Argentina","AR",,"Luján","87835","-34.5668306","-59.109508","-34.565731","-59.1174316"
"Argentina","AR",,"Mar del Plata","87974","-38.0072872","-57.5595802","-37.9798584","-57.5897942"
"Argentina","AR",,"Mendoza","88108","-34.8700721","-68.5479966","-32.890183","-68.8440498"
"Argentina","AR",,"Mercedes","88111","-34.6497581","-59.4318425","-33.690102","-65.465477"
"Argentina","AR",,"Mercedes","88113","-34.6497581","-59.4318425","-33.690102","-65.465477"
"Argentina","AR",,"Mercedes","88115","-34.6497581","-59.4318425","-33.690102","-65.465477"
"Argentina","AR",,"Necochea","88395","-38.5666435","-58.7299373","-38.5544968","-58.7396088"
"Argentina","AR",,"Neuquén","88406","-38.3533413","-69.8210841","-38.9492798","-68.0658112"
"Argentina","AR",,"Nueve de Julio","88472","-35.4468486","-60.8841028","-35.457642","-60.887272"
"Argentina","AR",,"Oberá","88485","-27.4849705","-55.1201879","-27.4815311","-55.1234932"
"Argentina","AR",,"Olavarría","88519","-36.8928868","-60.3200212","-36.8920898","-60.3149414"
"Argentina","AR",,"Paraná","88720","-31.7432607","-60.5171971","-31.7413197","-60.5115471"
"Argentina","AR",,"Pergamino","88860","-33.8963529","-60.5711143","-33.8881416","-60.5693359"
"Argentina","AR",,"Posadas","89027","-27.3665072","-55.8941895","-27.3621374","-55.9008746"
"Argentina","AR",,"Presidencia Roque Sáenz Peña","89111","-26.7941591239158","-60.4377032080927","-26.7906895","-60.4402504"
"Argentina","AR",,"Puerto Madryn","89282","-42.7729674","-65.0366104","-42.7543983","-65.0493088"
"Argentina","AR",,"Punta Alta","89379","-38.8804851","-62.0749748","-38.8760605","-62.0740891"
"Argentina","AR",,"Rafaela","89461","-31.2514022080585","-61.4908113226448","-31.2525979","-61.4916422"
"Argentina","AR",,"Rawson","89523","-43.2999999","-65.1000001","-43.2998581","-65.0994873"
"Argentina","AR",,"Reconquista","89540","-29.1547277","-59.6540859","-29.1448193","-59.6435242"
"Argentina","AR",,"Resistencia","89562","-27.4511223","-58.9865596","-27.451656","-58.986252"
"Argentina","AR",,"Rivadavia","89655","-31.5279813","-68.5977418","-35.4889908","-62.973774"
"Argentina","AR",,"Rosario","89720","-32.9581132","-60.6590224","-32.9507408","-60.6665001"
"Argentina","AR",,"Río Cuarto","89615","-33.1315202","-64.3510601","-33.132019","-64.3496704"
"Argentina","AR",,"Río Gallegos","89622","-51.6207418","-69.2166383","-51.6329918","-69.2276001"
"Argentina","AR",,"Río Tercero","89645","-32.1732942","-64.1127941","-32.1753998","-64.1122055"
"Argentina","AR",,"Salta","89805","-24.2988309099621","-64.8055804360125","-24.7829323","-65.4121552"
"Argentina","AR",,"San Carlos de Bariloche","89886","-41.1334672","-71.3099936","-41.1492882","-71.3012695"
"Argentina","AR",,"San Francisco","89939","-23.616667","-61.65","-31.4249992","-62.0841599"
"Argentina","AR",,"San Juan","90043","-30.7054363","-69.1988222","-31.5272732","-68.5214081"
"Argentina","AR",,"San Lorenzo","90053","-32.7434258","-60.7496742","-32.7502403","-60.7324219"
"Argentina","AR",,"San Luis","90062","-33.7699145369167","-66.0214388682823","-33.2995605","-66.3491821"
"Argentina","AR",,"San Martín","90081","-32.7584915125256","-60.7314483809572","-34.5759506","-58.5372696"
"Argentina","AR",,"San Nicolás","90106","-32.3","-63.866667","-33.3334656","-60.2110291"
"Argentina","AR",,"San Pedro","90124","-33.681176","-59.663826","-33.682003","-59.6651649"
"Argentina","AR",,"San Pedro","90127","-33.681176","-59.663826","-33.682003","-59.6651649"
"Argentina","AR",,"San Rafael","90138","-34.6161749","-68.329908","-34.6131516","-68.341011"
"Argentina","AR",,"San Ramón de la Nueva Orán","90141","-23.1372819","-64.3211746","-23.1286198","-64.3215195"
"Argentina","AR",,"San Vicente","90309","-26.9954611","-54.4865775","-35.0538035","-58.4399208"
"Argentina","AR",,"Santa Fe","90205","-30.3154739","-61.1645076","-31.6323891","-60.6994591"
"Argentina","AR",,"Santa Rosa","90258","-28.0783724228439","-65.3349123418484","-36.6226883","-64.2859268"
"Argentina","AR",,"Santiago del Estero","90283","-27.6431016","-63.5408542","-27.78442","-64.2672806"
"Argentina","AR",,"Tandil","90607","-37.317450532918","-59.1298547636638","-37.3178101","-59.1503906"
"Argentina","AR",,"Tartagal","90625","-24.2231330879437","-62.1490518428798","-22.5203762","-63.7991066"
"Argentina","AR",,"Trelew","90784","-43.2535334","-65.3106947","-43.2491302","-65.3074036"
"Argentina","AR",,"Tres Arroyos","90790","-38.3770869","-60.2753897","-38.3763123","-60.2781296"
"Argentina","AR",,"Tucumán","90848","-26.5643582","-64.882397","-26.9468463","-65.2857082"
"Argentina","AR",,"Ushuaia","90911","-54.8069332","-68.3073246","-54.7916794","-68.229248"
"Argentina","AR",,"Veinticinco de Mayo","90956","-35.428056","-60.174167","-35.431931","-60.176701"
"Argentina","AR",,"Venado Tuerto","90967","-33.7497151","-61.9669444","-33.75","-61.965641"
"Argentina","AR",,"Victoria","90994","-34.4501041","-58.534628","-34.4562893","-58.5466236"
"Argentina","AR",,"Viedma","91000","-40.8124737","-62.9962234","-40.8119087","-62.9962044"
"Argentina","AR",,"Villa Carlos Paz","91055","-31.4216827","-64.4993289","-31.4209385","-64.5001297"
"Argentina","AR",,"Villa Constitución","91076","-33.233339","-60.3333378","-33.2336388","-60.3341713"
"Argentina","AR",,"Villa María","91226","-32.4100747","-63.2405625","-32.4104614","-63.243645"
"Argentina","AR",,"Zárate","91476","-34.1017627","-59.0287794","-34.0988083","-59.0322914"
"Austria","AT",,"Absam","91505","47.3345748220913","11.4983946894507","47.2970904","11.5117744"
"Austria","AT",,"Abtenau","91514","47.5695442076012","13.3356170042106","47.564","13.34519"
"Austria","AT",,"Altach","91714","47.3572061747788","9.64604131301783","47.35356","9.64996"
"Austria","AT",,"Althofen","91782","46.6167284","14.5070007","46.86979","14.4767"
"Austria","AT",,"Altmünster","91798","47.9016069","13.7652213","47.90109","13.76722"
"Austria","AT",,"Amstetten","91863","48.1203262","14.8752424","48.12502","14.86934"
"Austria","AT",,"Anif","91899","47.7489619","13.0626582","47.75149","13.06491"
"Austria","AT",,"Ansfelden","91913","48.2094498","14.2901754","48.20784","14.29082"
"Austria","AT",,"Arnoldstein","91965","46.5486788","13.7071303","46.54992","13.70523"
"Austria","AT",,"Asten","92040","47.7009297","12.1167733","48.21884","14.42019"
"Austria","AT",,"Axams","92175","47.2084384383947","11.2861053508297","47.23036","11.27923"
"Austria","AT",,"Bad Aussee","92206","47.6094355","13.7832722","47.60943","13.78332"
"Austria","AT",,"Bad Goisern","92223","47.6406235","13.6148009","47.64621","13.61584"
"Austria","AT",,"Bad Hall","92224","48.0348017","14.2091385","48.03812","14.20876"
"Austria","AT",,"Bad Hofgastein","92226","47.1703104","13.1060635","47.17245","13.09813"
"Austria","AT",,"Bad Ischl","92227","47.7116204","13.6239333","47.71239","13.62096"
"Austria","AT",,"Bad Sankt Leonhard","92236","46.9348709","14.8570245","46.96201","14.79502"
"Austria","AT",,"Bad Vöslau","92244","47.9655519","16.2148073","47.96482","16.21385"
"Austria","AT",,"Baden","92210","48.0085749","16.2334951","48.00214","16.23091"
"Austria","AT",,"Bergheim","92353","48.3599992","14.0502683","47.84652","13.03567"
"Austria","AT",,"Berndorf","92366","47.9437223","16.1034434","47.93543","16.12358"
"Austria","AT",,"Bischofshofen","92442","47.4167454","13.2168008","47.41725","13.21944"
"Austria","AT",,"Bludenz","92479","47.1548119854423","9.86681034826908","47.15991","9.80821"
"Austria","AT",,"Braunau","92573","48.2552311135978","13.0289470726509","48.25573","13.04432"
"Austria","AT",,"Bregenz","92583","47.5085063880934","9.73153504947915","47.50075","9.74231"
"Austria","AT",,"Bruck an der Leitha","92665","48.0251291434535","16.7770568392117","48.02375","16.77534"
"Austria","AT",,"Bruck an der Mur","92666","47.4121987","15.2721668","47.40993","15.26861"
"Austria","AT",,"Bärnbach","92276","47.0696267","15.1267538","47.07115","15.12841"
"Austria","AT",,"Deutsch-Wagram","92906","48.2959872","16.5568452","48.29898","16.56466"
"Austria","AT",,"Deutschlandsberg","92901","46.8184067","15.212387","46.81595","15.21338"
"Austria","AT",,"Dornbirn","93093","47.4167074","9.7330619","47.4124","9.74379"
"Austria","AT",,"Ebbs","93196","47.612819270233","12.2436444555408","47.62946","12.21444"
"Austria","AT",,"Ebensee","93217","47.8131995","13.7729855","47.80739","13.77842"
"Austria","AT",,"Ebenthal","93218","46.6072286","14.3554356","48.43626","16.786"
"Austria","AT",,"Eberndorf","93232","46.5905601","14.639694","46.59037","14.6417"
"Austria","AT",,"Ebreichsdorf","93251","47.962254","16.4029664","47.96312","16.40237"
"Austria","AT",,"Eisenerz","93439","47.5420402","14.885636","47.5425","14.8889"
"Austria","AT",,"Eisenstadt","93450","47.84621","16.5237586","47.84637","16.52796"
"Austria","AT",,"Engerwitzdorf","93542","48.3443639","14.4421986","48.34333","14.44226"
"Austria","AT",,"Enns","93553","48.2141482","14.4793948","48.21309","14.47515"
"Austria","AT",,"Feldbach","93779","46.8818574","15.8466838","46.95279","15.88784"
"Austria","AT",,"Feldkirchen an der Donau","93785","48.3451766","14.0533583","48.34428","14.05221"
"Austria","AT",,"Feldkirchen","93788","46.7205396","14.0987985","46.72674","14.08946"
"Austria","AT",,"Feldkirch","93792","47.254678079467","9.58015545093436","47.24128","9.6019"
"Austria","AT",,"Ferlach","93814","46.5265324","14.3006203","46.52686","14.29894"
"Austria","AT",,"Finkenstein","93856","46.5623498","13.8708621","46.56126","13.87099"
"Austria","AT",,"Fohnsdorf","93931","47.2073941","14.6779341","47.20762","14.67553"
"Austria","AT",,"Frankenburg","93972","46.8271602","14.0719776","48.0678","13.49137"
"Austria","AT",,"Freistadt","94038","48.5112961","14.5047566","48.50217","14.50201"
"Austria","AT",,"Friesach","94077","47.1707585","15.3372212","46.95149","14.41155"
"Austria","AT",,"Frohnleiten","94098","47.2715315","15.3260206","47.26922","15.32225"
"Austria","AT",,"Fucking","94130","48.0674106","12.8623448","48.06733","12.86327"
"Austria","AT",,"Fügen","94132","47.3473206714897","11.8532758235586","47.34698","11.84941"
"Austria","AT",,"Fürstenfeld","94157","47.0499925","16.0816815","47.04795","16.08013"
"Austria","AT",,"Gallneukirchen","94236","48.3531392","14.4164196","48.35338","14.41664"
"Austria","AT",,"Garsten","94287","48.0222203","14.4077971","48.023031","14.4043324"
"Austria","AT",,"Gleisdorf","94515","47.1067722","15.7058606","47.10682","15.7085"
"Austria","AT",,"Gloggnitz","94528","47.6758242","15.9373378","47.67446","15.94245"
"Austria","AT",,"Gmunden","94545","47.7498064","13.7512827","47.91839","13.79933"
"Austria","AT",,"Gmünd","94547","48.7729954","14.9856354","48.77156","14.98511"
"Austria","AT",,"Gratkorn","94802","47.1339397","15.3392677","47.13486","15.34025"
"Austria","AT",,"Graz","94809","47.0751307712328","15.4393464345286","47.070714","15.439504"
"Austria","AT",,"Grieskirchen","94851","48.235011","13.826192","48.23587","13.82617"
"Austria","AT",,"Grödig","94879","47.7401445","13.0394938","47.73841","13.03823"
"Austria","AT",,"Guntramsdorf","95232","48.0486963196906","16.3235725679638","48.04848","16.30659"
"Austria","AT",,"Gänserndorf","94263","48.3405245","16.7166514","48.34067","16.71754"
"Austria","AT",,"Götzis","94706","47.3368253923993","9.66169001514336","47.33469","9.64671"
"Austria","AT",,"Haag","95287","48.1125464","14.5683304","48.1140858","14.5673899"
"Austria","AT",,"Hainburg","95404","48.4150252","14.6181432","48.1449979","16.942022"
"Austria","AT",,"Hallein","95435","47.6850291","13.0996778","47.68248","13.10037"
"Austria","AT",,"Hall","95441","47.587122429553","14.1404508924072",,
"Austria","AT",,"Hard","95487","47.4967824874679","9.6765786932486","47.48492","9.69407"
"Austria","AT",,"Heidenreichstein","95655","48.866264","15.1229651","48.86571","15.12025"
"Austria","AT",,"Hermagor","95737","46.6268076","13.3702382","46.62529","13.37277"
"Austria","AT",,"Herzogenburg","95752","48.2843295","15.6946065","48.28693","15.69168"
"Austria","AT",,"Himberg","95794","47.7874509","15.9237699","48.07329","16.43847"
"Austria","AT",,"Hohenems","96088","47.3671129272803","9.70529158593895","47.36081","9.68671"
"Austria","AT",,"Hollabrunn","96113","48.5830556","16.0830556","48.56911","16.07764"
"Austria","AT",,"Hopfgarten","96181","47.1540857024494","14.7721753389443","47.43098","12.14989"
"Austria","AT",,"Horn","96210","48.6625858","15.6536046","48.66607","15.65716"
"Austria","AT",,"Höchst","95989","47.4905699153174","9.61613728582795","47.45928","9.6356"
"Austria","AT",,"Hörbranz","96190","47.5530027708847","9.75649750960042","47.55568","9.75217"
"Austria","AT",,"Hörsching","96214","48.226675","14.1787491","48.22696","14.17586"
"Austria","AT",,"Imst","96331","47.0833333","10.8666667","47.24013","10.73954"
"Austria","AT",,"Innsbruck","96407","47.2654296","11.3927685","47.2692124","11.4041024"
"Austria","AT",,"Jenbach","96497","47.4013191468894","11.7398295844515","47.39187","11.77811"
"Austria","AT",,"Jennersdorf","96499","46.9376401","16.1424422","46.93712","16.12961"
"Austria","AT",,"Judenburg","96538","47.2513125","14.5332604","47.16826","14.65811"
"Austria","AT",,"Kapfenberg","96683","47.4405481","15.2901669","47.44348","15.29015"
"Austria","AT",,"Kindberg","96858","47.5049711","15.4498601","47.50545","15.44915"
"Austria","AT",,"Kirchbichl","96891","47.5088062969253","12.1032476491603","47.51774","12.09625"
"Austria","AT",,"Kitzbühel","96940","47.4474064787125","12.4141775490959","47.44499","12.39143"
"Austria","AT",,"Klagenfurt","96951","46.6247222","14.3052778","46.62794","14.30899"
"Austria","AT",,"Klosterneuburg","97195","48.3022827","16.3269263","48.30989","16.32465"
"Austria","AT",,"Knittelfeld","97210","47.2134435","14.832071","47.21595","14.82719"
"Austria","AT",,"Korneuburg","97334","48.3440605","16.3334321","48.34472","16.33149"
"Austria","AT",,"Kottingbrunn","97372","47.9513322","16.2286025","47.9517544","16.229466"
"Austria","AT",,"Kremsmünster","97459","48.0533652","14.128766","48.0545","14.12665"
"Austria","AT",,"Krems","97457","47.0417233397827","15.1800504907175","48.40999","15.60384"
"Austria","AT",,"Krieglach","97494","47.5452307","15.5594435","47.50287","15.63949"
"Austria","AT",,"Kuchl","97591","47.6258369","13.1451024","47.6257","13.14746"
"Austria","AT",,"Kufstein","97596","47.5000434","12.0327121","47.58237","12.16275"
"Austria","AT",,"Köflach","97238","47.0644688","15.0848146","47.06185","15.08268"
"Austria","AT",,"Laakirchen","97649","47.982565","13.8225337","47.97878","13.82048"
"Austria","AT",,"Laa","97651","47.6424444","16.0858265","48.7196","16.38721"
"Austria","AT",,"Landeck","97753","47.0659841","10.4645767","47.14057","10.56558"
"Austria","AT",,"Langenlois","97797","48.472601","15.676295","48.47245","15.69121"
"Austria","AT",,"Langenzersdorf","97806","48.3096359","16.3572556","48.3039772","16.3602232"
"Austria","AT",,"Lauterach","97900","47.4675098276643","9.71257675018077","47.47448","9.73073"
"Austria","AT",,"Leibnitz","97944","46.780203","15.5401738","46.79043","15.56207"
"Austria","AT",,"Lenzing","98002","47.4466787","12.8166576","47.97485","13.60981"
"Austria","AT",,"Leoben","98007","47.4166667","14.9166667","47.37639","15.09113"
"Austria","AT",,"Leonding","98012","48.2793314","14.2487457","48.2793205","14.2537942"
"Austria","AT",,"Lienz","98104","48.3058611","14.2865751","46.82769","12.76272"
"Austria","AT",,"Liezen","98118","47.5000878","14.2333772","47.56741","14.24315"
"Austria","AT",,"Linz","98177","48.3058611","14.2865751","48.30694","14.28583"
"Austria","AT",,"Lochau","98210","47.5210346415456","9.76719002103636","47.52967","9.75128"
"Austria","AT",,"Lustenau","98332","47.425540334589","9.67340188214877","47.42077","9.65875"
"Austria","AT",,"Marchtrenk","98472","48.1908002","14.1117332","48.19051","14.12021"
"Austria","AT",,"Maria Enzersdorf","98492","48.0972063","16.2841779","48.0963877","16.2852598"
"Austria","AT",,"Matrei","98573","47.122137","11.4489464","47.00044","12.53892"
"Austria","AT",,"Mattersburg","98581","47.7333347","16.4000068","47.73625","16.39663"
"Austria","AT",,"Melk","98688","48.2272028","15.3369983","48.22647","15.34996"
"Austria","AT",,"Micheldorf","98736","46.6891022","14.1510804","46.91323","14.43045"
"Austria","AT",,"Mistelbach","98788","48.5693997","16.5712174","48.56743","16.5722"
"Austria","AT",,"Mittelberg","98799","47.3297717856403","10.1533100919532","47.32266","10.15303"
"Austria","AT",,"Mittersill","98895","47.2351196845632","12.4848447784593","47.27949","12.47925"
"Austria","AT",,"Moosburg","98991","47.4466479","10.6286147","46.65917","14.17721"
"Austria","AT",,"Mödling","98933","48.0855922","16.2833526","48.08255","16.2869"
"Austria","AT",,"Mürzzuschlag","99181","47.5499988","15.5999935","47.60687","15.67171"
"Austria","AT",,"Nenzing","99252","47.1376181677701","9.67299499039824","47.18818","9.70642"
"Austria","AT",,"Neudörfl","99296","47.6678548","15.5810047","47.79591","16.2976"
"Austria","AT",,"Neulengbach","99360","48.1970124","15.907098","48.19781","15.90078"
"Austria","AT",,"Neunkirchen","99385","47.725877","16.0802909","47.72607","16.08121"
"Austria","AT",,"Neusiedl am See","99409","47.9491855","16.8425149","47.94736","16.84537"
"Austria","AT",,"Nüziders","99644","47.1771663312316","9.82123316470685","47.1707909","9.8018616"
"Austria","AT",,"Oberndorf","100058","48.6702573","15.2467693","47.94194","12.94282"
"Austria","AT",,"Oberwart","100280","47.2861513","16.2124214","47.29482","16.19914"
"Austria","AT",,"Pasching","100554","48.2576453","14.2044214","48.259","14.20453"
"Austria","AT",,"Paternion","100565","46.7118514","13.6370454","46.71094","13.63982"
"Austria","AT",,"Perchtoldsdorf","100632","48.1192521","16.2651702","48.12054","16.26929"
"Austria","AT",,"Perg","100638","48.2500698","14.6339455","48.24992","14.63474"
"Austria","AT",,"Pinkafeld","100839","47.37254","16.1234157","47.374","16.12597"
"Austria","AT",,"Pottendorf","101072","47.9099285","16.3877431","47.91149","16.38802"
"Austria","AT",,"Poysdorf","101091","48.6673933","16.6296903","48.66781","16.62808"
"Austria","AT",,"Pressbaum","101156","48.1799751","16.0768417","48.18025","16.07844"
"Austria","AT",,"Purgstall","101249","47.5504205","16.2095111","48.05771","15.14068"
"Austria","AT",,"Purkersdorf","101252","48.2075594","16.1771904","48.20918","16.17529"
"Austria","AT",,"Radstadt","101350","47.3845254","13.4680612","47.3861","13.46593"
"Austria","AT",,"Rankweil","101445","47.2764029571114","9.6283289201288","47.27069","9.64287"
"Austria","AT",,"Reichenau","101583","46.8532568","13.8951253","47.69833","15.83513"
"Austria","AT",,"Retz","101743","48.7556972","15.9559053","48.75838","15.95505"
"Austria","AT",,"Reutte","101750","47.4166667","10.55","47.48879","10.71865"
"Austria","AT",,"Ried","101788","47.2012484","10.6748786","48.21272","13.49272"
"Austria","AT",,"Rottenmann","102043","47.524226","14.3585643","47.52236","14.35792"
"Austria","AT",,"Rum","102085","47.2976744294692","11.4337124027434","47.282893","11.4531361"
"Austria","AT",,"Rust","102105","47.8005831","16.6752821","47.80238","16.67218"
"Austria","AT",,"Saalfelden","102124","47.4272994","12.83699295","47.42741","12.8411"
"Austria","AT",,"Salzburg","102183","47.587122429553","14.1404508924072","47.80949","13.05501"
"Austria","AT",,"Sankt Andrä","102214","46.7661111","14.8236111","46.76854","14.8221"
"Austria","AT",,"Sankt Florian","102261","48.2072861","14.3816038","48.20426","14.36785"
"Austria","AT",,"Sankt Georgen","102293","47.2881926","12.8729828","48.27176","14.45041"
"Austria","AT",,"Sankt Jakob","102320","46.668019","14.7161235","46.54661","14.05982"
"Austria","AT",,"Sankt Johann im Pongau","102333","47.3475215","13.2026781","47.34892","13.20419"
"Austria","AT",,"Sankt Pölten","102551","48.2047416","15.6248785","48.20353","15.63817"
"Austria","AT",,"Sankt Valentin","102606","48.1744429","14.5322201","48.17533","14.52485"
"Austria","AT",,"Sankt Veit","102620","48.0394009","14.8357308","46.76748","14.36151"
"Austria","AT",,"Scharnstein","102744","47.904491","13.9609752","47.9047","13.96322"
"Austria","AT",,"Schladming","102845","47.3940415","13.6867878","47.39377","13.68669"
"Austria","AT",,"Schrems","103051","48.7934868","15.0722362","48.79368","15.06616"
"Austria","AT",,"Schruns","103066","47.0711490416806","9.94574505954216","47.07996","9.92031"
"Austria","AT",,"Schwaz","103161","47.3501812","11.7095569","47.3502","11.70584"
"Austria","AT",,"Schwechat","103163","48.1398531","16.4786511","48.141","16.4771"
"Austria","AT",,"Schärding","102736","48.4569975","13.4318","48.46051","13.43268"
"Austria","AT",,"Seeboden","103216","46.8186905","13.5170622","46.81807","13.51647"
"Austria","AT",,"Seekirchen","103228","47.9026020285256","13.1120588731484","47.89535","13.12104"
"Austria","AT",,"Seewalchen","103241","47.9045768","13.1351423","47.95163","13.58416"
"Austria","AT",,"Sieghartskirchen","103361","48.2560122","16.0117674","48.25207","16.01448"
"Austria","AT",,"Sierning","103372","48.044724","14.3091999","48.04406","14.30901"
"Austria","AT",,"Spittal","103547","46.8985972500178","13.2713338032573","46.79968","13.4928"
"Austria","AT",,"Steyregg","103797","48.2854468","14.3718463","48.28347","14.37189"
"Austria","AT",,"Steyr","103801","48.054397480749","14.4206928039918","48.05009","14.41827"
"Austria","AT",,"Stockerau","103847","48.3846124","16.2076303","48.38615","16.21667"
"Austria","AT",,"Strasshof","103915","48.2782377","13.7523962","48.31624","16.6357"
"Austria","AT",,"Tamsweg","104081","47.1242014","13.8113706","47.12955","13.81036"
"Austria","AT",,"Telfs","104145","47.3237794679191","11.096681250558","47.30723","11.0683"
"Austria","AT",,"Ternitz","104154","47.7166667","16.0333333","47.71309","16.03134"
"Austria","AT",,"Thalgau","104170","47.8415757","13.253956","47.84167","13.25335"
"Austria","AT",,"Timelkam","104286","48.0015216","13.6125109","48.00186","13.60568"
"Austria","AT",,"Traiskirchen","104356","48.0138114","16.2954192","48.01598","16.29343"
"Austria","AT",,"Traismauer","104357","48.3499661856746","15.7472173795955","48.3498601","15.7441879"
"Austria","AT",,"Traun","104376","48.2211206","14.2374246","48.2211607","14.2370272"
"Austria","AT",,"Trofaiach","104421","47.4256001","15.0091479","47.42587","15.00934"
"Austria","AT",,"Tulln","104465","48.3267140407983","16.0591690691549","48.33163","16.06074"
"Austria","AT",,"Velden am Wörthersee","105124","46.6136299","14.0406239","46.6245592","14.154422"
"Austria","AT",,"Vienna","105166","48.2084672","16.3730907","48.2081743","16.3738189"
"Austria","AT",,"Villach","105176","46.6167284","13.8500268","46.60856","13.85062"
"Austria","AT",,"Voitsberg","105206","47.0502522","15.1000174","47.0504","15.14661"
"Austria","AT",,"Vomp","105231","47.4106585588793","11.5402792827597","47.3442896","11.6885596"
"Austria","AT",,"Vorchdorf","105235","48.0034223","13.9242469","48.00339","13.92583"
"Austria","AT",,"Vöcklabruck","105188","48.0078592","13.6460347","48.00334","13.65613"
"Austria","AT",,"Vöcklamarkt","105190","48.0022211","13.4850818","48.00161","13.48283"
"Austria","AT",,"Völkermarkt","105218","46.6602638","14.6342458","46.66207","14.63359"
"Austria","AT",,"Völs","105228","47.2523084394947","11.3213877511386","47.25187","11.32862"
"Austria","AT",,"Waidhofen","105360","48.815029","15.283908","47.96023","14.77283"
"Austria","AT",,"Wattens","105515","47.2732013004517","11.5982081942396","47.29479","11.58935"
"Austria","AT",,"Weiz","105711","47.2143411306156","15.6264669008465","47.21717","15.62297"
"Austria","AT",,"Wels","105715","48.1565725","14.024503","48.16542","14.03664"
"Austria","AT",,"Wernberg","105750","46.624741","13.9321561","46.62427","13.94111"
"Austria","AT",,"Wiener Neudorf","105827","48.083286","16.3142531","48.0853521","16.3198999"
"Austria","AT",,"Wiener Neustadt","105828","47.8131761","16.2440318","47.80279","16.23318"
"Austria","AT",,"Wilhelmsburg","105915","48.1047739","15.6044902","48.10511","15.5999"
"Austria","AT",,"Wolfsberg","106113","48.4350456","14.7648727","46.8401","14.84277"
"Austria","AT",,"Wolfurt","106129","47.464857932364","9.74903154205678","47.4666667","9.9"
"Austria","AT",,"Wolkersdorf","106134","48.3829773","16.5181068","48.3845","16.5148"
"Austria","AT",,"Wörgl","106162","47.4791713921987","12.0795683295634","47.48554","12.06448"
"Austria","AT",,"Ybbs","106231","48.1840795320613","15.0770806314447","48.17645","15.08266"
"Austria","AT",,"Zell am See","106307","47.3249578204316","12.8175624785312","47.32352","12.79685"
"Austria","AT",,"Zeltweg","106337","47.1912045","14.7549244","47.18964","14.75283"
"Austria","AT",,"Zirl","106386","47.302852662791","11.2733573023232","47.2743","11.23806"
"Austria","AT",,"Zistersdorf","106390","48.5449267","16.7636651","48.5423","16.76059"
"Austria","AT",,"Zwettl","106457","48.6052245","15.1678582","48.6058022","15.1662133"
"Australia","AU","Australian Capital Territory","Braddon","2673614","-35.2707799","149.1356921","-35.263432","149.133064"
"Australia","AU","Australian Capital Territory","Calwell","2673703","-35.4404191670111","149.107073676491","-35.4356544","149.1127341"
"Australia","AU","Australian Capital Territory","Canberra","108111","-35.2820708","149.1286673","-35.2819998","149.1286843"
"Australia","AU","Australian Capital Territory","Conder","2675066","-35.4598326","149.0987492","-35.456673","149.0935008"
"Australia","AU","Australian Capital Territory","Dickson","2673639","-35.2527861","149.1417216","-35.2506967","149.1405356"
"Australia","AU","Australian Capital Territory","Gungahlin","2674216","-35.1808441","149.1354362","-35.1847075","149.1325384"
"Australia","AU","Australian Capital Territory","Macquarie","2673719","-35.2506582","149.0660052","-35.2477877","149.0593653"
"Australia","AU","Australian Capital Territory","Rivett","2674169","-35.3477709","149.0382403","-35.3474202","149.0358822"
"Australia","AU","Australian Capital Territory","Wanniassa","2673590","-35.4029814","149.0925211","-35.4016906","149.0987563"
"Australia","AU","New South Wales","Adamstown","2673603","-32.9391667","151.7255556","-32.9369086","151.7253137"
"Australia","AU","New South Wales","Albury","106523","-36.0802823","146.9169858","-36.0807785","146.9164693"
"Australia","AU","New South Wales","Armidale","106691","-30.4700201760712","151.648568536942","-30.5143425","151.6669644"
"Australia","AU","New South Wales","Ashtonfield","2673578","-32.7816667","151.6011111","-32.7732038","151.6073045"
"Australia","AU","New South Wales","Ballina","106865","-28.8634654","153.5619701","-28.8684827","153.560001"
"Australia","AU","New South Wales","Batemans Bay","107003","-35.7072183","150.178289","-35.7084199","150.1776133"
"Australia","AU","New South Wales","Belmore South","2673609",,,"-33.9179852","151.088586"
"Australia","AU","New South Wales","Beverly Hills","2673592","-33.9483333","151.0844444","-33.9510131","151.0823723"
"Australia","AU","New South Wales","Bidwill","2673610","-33.73","150.8219444","-33.7321233","150.8225092"
"Australia","AU","New South Wales","Birrong","2673611","-33.8920266740055","151.019182141349","-33.890626","151.0223952"
"Australia","AU","New South Wales","Booragul","2673612","-32.9747222","151.610556","-32.9743023","151.6087461"
"Australia","AU","New South Wales","Bowral","107575","-34.4816626","150.4177868","-34.4791552","150.4177969"
"Australia","AU","New South Wales","Broadmeadow","2673619","-32.9235354367835","151.730638602451","-32.9236287","151.729021"
"Australia","AU","New South Wales","Broken Hill","107705","-31.9584258","141.4650344","-31.9558583","141.4651361"
"Australia","AU","New South Wales","Buronga","2673622","-34.1705534","142.173329","-34.1698523","142.1834753"
"Australia","AU","New South Wales","Busby","2673623","-33.915","150.8844444","-33.9106663","150.8767705"
"Australia","AU","New South Wales","Byron Bay","108018","-28.6434398","153.6140262","-28.6441616","153.6123788"
"Australia","AU","New South Wales","Cabramatta","2673589","-33.8974635431299","150.935008418872","-33.895169","150.9365308"
"Australia","AU","New South Wales","Casino","108242","-28.8640919","153.0482959","-28.8642401","153.0456834"
"Australia","AU","New South Wales","Cecil Hills","2673704","-33.89","150.8511111","-33.8871161","150.8485907"
"Australia","AU","New South Wales","Cessnock","108290","-32.8333333","151.3561111","-32.8345782","151.3564619"
"Australia","AU","New South Wales","Cherrybrook","2673574","-33.7227778","151.0461111","-33.7210747","151.0438446"
"Australia","AU","New South Wales","Chester Hill","2675078","-33.8816667","151.0011111","-33.8830809","151.0012741"
"Australia","AU","New South Wales","Clarenza","2673631","-29.7146343","152.9798482","-29.7204197","152.9638506"
"Australia","AU","New South Wales","Coffs Harbour","108499","-30.2962407","153.1135293","-30.2963121","153.1156722"
"Australia","AU","New South Wales","Cooma","108636","-36.23563","149.1264221","-36.2352845","149.1252802"
"Australia","AU","New South Wales","Cootamundra","108676","-34.6403451","148.0183095","-34.6389301","148.0243821"
"Australia","AU","New South Wales","Corowa","108729","-35.9941667","146.3844444","-35.9975292","146.3912105"
"Australia","AU","New South Wales","Cowra","108770","-33.889316412983","148.659070728352","-33.8347103","148.6912183"
"Australia","AU","New South Wales","Darlinghurst","2673636","-33.8782871","151.2208135","-33.8806799","151.2186198"
"Australia","AU","New South Wales","Dee Why","2673637","-33.753151","151.2855383","-33.7535622","151.2861399"
"Australia","AU","New South Wales","Deniliquin","109073","-35.5311401","144.9653374","-35.52314","144.9823858"
"Australia","AU","New South Wales","Dubbo","109246","-32.2478964","148.6026502","-32.2438146","148.6094976"
"Australia","AU","New South Wales","Eagle Vale","2673641","-34.0373542763966","150.813235077773","-34.0311407","150.8158633"
"Australia","AU","New South Wales","Erskine Park","2673646","-33.804649820332","150.804262219904","-33.8048794","150.8036923"
"Australia","AU","New South Wales","Five Dock","2673648","-33.8690024","151.1290231","-33.8674861","151.1300906"
"Australia","AU","New South Wales","Forbes","109721","-33.3839663","148.0096888","-33.3853703","148.0080124"
"Australia","AU","New South Wales","Frenchs Forest","2673652","-33.7479954","151.2292718","-33.7500484","151.2262442"
"Australia","AU","New South Wales","Glebe","2674413","-36.6816667","149.8511111","-33.8811282","151.1883183"
"Australia","AU","New South Wales","Glenmore Park","2673657","-33.7901008640991","150.676855948219","-33.7819733","150.6658699"
"Australia","AU","New South Wales","Goulburn","110168","-34.7523871","149.7198009","-34.7548346","149.7186486"
"Australia","AU","New South Wales","Grafton","110194","-29.6912217","152.9337861","-29.6911226","152.9331993"
"Australia","AU","New South Wales","Greystanes","2673662","-33.8262187","150.9414378","-33.829593","150.9529029"
"Australia","AU","New South Wales","Griffith","110285","-34.2878405","146.0468933","-34.2872974","146.0458369"
"Australia","AU","New South Wales","Gunnedah","110341","-30.9756835","150.2497873","-30.97681","150.2516925"
"Australia","AU","New South Wales","Harden","2673663","-34.55386","148.3690541","-34.5537055","148.3651795"
"Australia","AU","New South Wales","Hawkesbury","2674219","-33.5992943834773","150.76299480441","-33.5535705","151.2393885"
"Australia","AU","New South Wales","Hoxton Park","2673669","-33.9307087031406","150.856412096083","-33.9271427","150.8578189"
"Australia","AU","New South Wales","Inverell","110741","-29.7739386298449","151.113733503327","-29.7762792","151.1134357"
"Australia","AU","New South Wales","Jesmond","2673591","-32.901923448245","151.692644808497","-32.9025718","151.6909085"
"Australia","AU","New South Wales","Kellyville","2674127","-33.6819255518284","150.937735838393","-33.7121854","150.9575318"
"Australia","AU","New South Wales","Kemps Creek","2674128","-33.8316629","150.7844359","-33.8799928","150.7887647"
"Australia","AU","New South Wales","Kempsey","111065","-30.9620775262261","152.709682456362","-31.0800609","152.8415928"
"Australia","AU","New South Wales","Kiama","111119","-34.6718879","150.8554408","-34.6702661","150.8543867"
"Australia","AU","New South Wales","Kingsgrove","2673588","-33.9388726790272","151.099729797016","-33.9421744","151.1014508"
"Australia","AU","New South Wales","Kurri Kurri","111399","-32.8175039","151.4833649","-32.8171902","151.4837321"
"Australia","AU","New South Wales","Lake Munmorah","2675064","-33.1936111","151.5719444","-33.1941119","151.5703578"
"Australia","AU","New South Wales","Leeton","111591","-34.5512685","146.404712","-34.5513933","146.4066521"
"Australia","AU","New South Wales","Lismore","111694","-28.8066667","153.2858333","-28.8065079","153.2769412"
"Australia","AU","New South Wales","Lithgow","111698","-33.481536","150.1564887","-33.4809335","150.1574085"
"Australia","AU","New South Wales","Lord Howe Island","2674405",,,"-31.5406931","159.0781863"
"Australia","AU","New South Wales","Macquarie Fields","2673593","-33.99","150.8844444","-33.9861229","150.8912747"
"Australia","AU","New South Wales","McGraths Hill","2673722","-33.6123567014954","150.841841080888","-33.6166818","150.8350533"
"Australia","AU","New South Wales","Medowie","112155","-32.7480988012433","151.860652634057","-32.7407806","151.8636304"
"Australia","AU","New South Wales","Milperra","2673727","-33.9391147708587","150.981936467018","-33.9379619","150.9889526"
"Australia","AU","New South Wales","Milsons Point","2673728","-33.8458234","151.2118734","-33.8462085","151.2113341"
"Australia","AU","New South Wales","Minto Heights","2673810","-34.0347222","150.8741667","-34.0517908","150.8501664"
"Australia","AU","New South Wales","Mittagong","112377","-34.4500664","150.4473469","-34.4505301","150.4479905"
"Australia","AU","New South Wales","Mollymook","2674406","-35.3316667","150.4677778","-35.3396668","150.4730198"
"Australia","AU","New South Wales","Moorebank","2675065","-33.9450393036853","150.936559749469","-33.9338954","150.9483855"
"Australia","AU","New South Wales","Moree","112559","-29.4641831","149.8421765","-29.4643519","149.8415113"
"Australia","AU","New South Wales","Moss Vale","112615","-34.5486089","150.37271","-34.5488147","150.3741987"
"Australia","AU","New South Wales","Mount Riverview","2674407","-33.7316997","150.6307053","-33.7318398","150.6300277"
"Australia","AU","New South Wales","Mudgee","112799","-32.5980702","149.5886383","-32.5905208","149.5887613"
"Australia","AU","New South Wales","Murwillumbah","112916","-28.3267617","153.3971541","-28.3269383","153.3958572"
"Australia","AU","New South Wales","Muswellbrook","112921","-32.2687522","150.8929012","-32.2651665","150.888323"
"Australia","AU","New South Wales","Nambucca Heads","112979","-30.6449458","152.9924524","-30.6422966","153.0030524"
"Australia","AU","New South Wales","Narrabri","113050","-30.3265989","149.7865443","-30.3250572","149.7829808"
"Australia","AU","New South Wales","Nelson Bay","113116","-32.7218138","152.1440889","-32.7216599","152.1436581"
"Australia","AU","New South Wales","Newcastle","113153","-32.9272881","151.7812534","-32.926696","151.7788922"
"Australia","AU","New South Wales","Newtown","2674151","-33.8984941165772","151.179434755089","-33.8965493","151.1799632"
"Australia","AU","New South Wales","North Richmond","2673735","-33.5816667","150.717778","-33.5814297","150.7211623"
"Australia","AU","New South Wales","Oakville","2673737","-33.6233333","150.8677778","-33.6396922","150.8847896"
"Australia","AU","New South Wales","Orange","113527","-33.2820463","149.0971567","-33.2652106","149.0812173"
"Australia","AU","New South Wales","Oxford Falls","2673739","-33.7399943","151.2427674","-33.7393226","151.2446587"
"Australia","AU","New South Wales","Panania","2673740","-33.9483333","151.0011111","-33.9550307","150.9983426"
"Australia","AU","New South Wales","Parkes","2674156","-33.1368067","148.1754823","-33.1378642","148.1748388"
"Australia","AU","New South Wales","Petersham","2673682","-33.8949943655518","151.155192813942","-33.8963363","151.1532549"
"Australia","AU","New South Wales","Petersham","2673742","-33.8949943655518","151.155192813942","-33.8963363","151.1532549"
"Australia","AU","New South Wales","Port Macquarie","113948","-31.4530054726506","152.897545703852","-31.4312703","152.9081313"
"Australia","AU","New South Wales","Queanbeyan","114058","-35.3538856","149.2323111","-35.3549182","149.2312511"
"Australia","AU","New South Wales","Raymond Terrace","114127","-32.7610569","151.7462299","-32.7620986","151.7431641"
"Australia","AU","New South Wales","Sawtell","114487","-30.3692043","153.1006337","-30.3699007","153.0996884"
"Australia","AU","New South Wales","Singleton","114611","-32.5664043","151.1733972","-32.5619694","151.1753157"
"Australia","AU","New South Wales","St Johns Park","2673692","-33.8834228810515","150.902226402952","-33.8775776","150.8990124"
"Australia","AU","New South Wales","Summer Hill","2674184","-33.8919836154273","151.137893285915","-33.8914591","151.1382498"
"Australia","AU","New South Wales","Sydney","114925","-33.8593820941071","151.20794707754","-33.873651","151.2068896"
"Australia","AU","New South Wales","Tamworth","115005","-31.0917974","150.931072","-31.091085","150.9303741"
"Australia","AU","New South Wales","Taree","115052","-31.912864","152.4608481","-31.9115673","152.460695"
"Australia","AU","New South Wales","Tumut","115497","-35.3521274724997","148.219652906608","-35.3010668","148.2239419"
"Australia","AU","New South Wales","Ulladulla","115565","-35.362156","150.4751647","-35.3569772","150.4739904"
"Australia","AU","New South Wales","Varroville","2674195","-34.0066667","150.8177778","-34.0087908","150.8247314"
"Australia","AU","New South Wales","Vincentia","2674408","-35.0703092","150.675186","-35.070043","150.6758482"
"Australia","AU","New South Wales","Wagga Wagga","115751","-35.1149957","147.3677739","-35.1155492","147.3694772"
"Australia","AU","New South Wales","Warners Bay","2675081","-32.9702419214701","151.656507514885","-32.9735346","151.6438138"
"Australia","AU","New South Wales","Wellington","116079","-32.5542815","148.9515327","-32.5556186","148.9427754"
"Australia","AU","New South Wales","Willoughby","2674223","-33.8063889","151.2002778","-33.8052288","151.1993606"
"Australia","AU","New South Wales","Winmalee","2673743","-33.6856036","150.5868226","-33.6708194","150.6092575"
"Australia","AU","New South Wales","Wollongong","116352","-34.4593779484322","150.936011955275","-34.424984","150.8931239"
"Australia","AU","New South Wales","Woolloomooloo","1406195","-33.8708240480398","151.216456639313","-33.869235","151.2201715"
"Australia","AU","New South Wales","Young","116783","-34.3103512","148.2971801","-34.3142198","148.2977066"
"Australia","AU","Northern Territory","Alice Springs","106540","-23.6983884","133.8812885","-23.7002104","133.8806114"
"Australia","AU","Northern Territory","Alyangula","106582","-13.84914","136.42058","-13.8510313","136.4198914"
"Australia","AU","Northern Territory","Darwin","109019","-12.4123318444774","130.8810395624","-12.4628198","130.8417694"
"Australia","AU","Northern Territory","Humpty Doo","2675199","-12.5800242926535","131.127753096121","-12.5743124","131.1015062"
"Australia","AU","Northern Territory","Katherine","111027","-14.4656649","132.2631058","-14.4649669","132.2642561"
"Australia","AU","Northern Territory","Maningrida","111982","-12.0508472","134.223625","-12.0484282","134.2294757"
"Australia","AU","Northern Territory","Nhulunbuy","113199","-12.1804346","136.7759913","-12.1819096","136.7802429"
"Australia","AU","Northern Territory","Palmerston","113596","-12.4880972","131.0116806","-12.481647","130.984783"
"Australia","AU","Northern Territory","Port Keats","113939","-14.25","129.529007","-14.250637","129.549659"
"Australia","AU","Northern Territory","Tennant Creek","115137","-19.6472917","134.1899692","-19.6458495","134.1912458"
"Australia","AU","Queensland","Airlie Beach","2674224","-20.2696543","148.7170364","-20.2687204","148.7184564"
"Australia","AU","Queensland","Alexandra Hills","2673604","-27.5322888900904","153.229135801075","-27.5219805","153.220953"
"Australia","AU","Queensland","Ashmore","2673605","-27.9903306072759","153.375638100457","-27.9864232","153.3807186"
"Australia","AU","Queensland","Atherton","106729","-17.2674058","145.4761663","-17.2668147","145.4760787"
"Australia","AU","Queensland","Ayr","106771","-19.575949","147.4066139","-19.5758409","147.4050228"
"Australia","AU","Queensland","Biloela","107242","-24.3994345","150.5130848","-24.4012233","150.5126372"
"Australia","AU","Queensland","Blackwater","107319","-23.5791","148.8836043","-23.5755145","148.8886132"
"Australia","AU","Queensland","Bongaree","107433","-27.0799914677418","153.167850862554","-27.0815508","153.158444"
"Australia","AU","Queensland","Bowen","107557","-20.0142147","148.2463186","-20.0121951","148.2462909"
"Australia","AU","Queensland","Bracken Ridge","2673613","-27.3197706271757","153.034244798068","-27.327033","153.0263477"
"Australia","AU","Queensland","Brassall","2673615","-27.5906004202909","152.740614871972","-27.5975531","152.7454998"
"Australia","AU","Queensland","Bray Park","2674403","-27.2923807454967","152.967834029922","-27.2970052","152.9756436"
"Australia","AU","Queensland","Bridgeman Downs","2673696","-27.3515996233096","152.994724963378","-27.3553046","152.9958084"
"Australia","AU","Queensland","Brisbane","107683","-27.4689806","153.023503","-27.4709331","153.0235024"
"Australia","AU","Queensland","Buderim","107804","-26.687798","153.0495946","-26.6847592","153.0537382"
"Australia","AU","Queensland","Bundaberg","107870","-24.8653253","152.3516785","-24.8649629","152.348653"
"Australia","AU","Queensland","Burpengary","107949","-27.1566105","152.9696319","-27.1537701","152.9754309"
"Australia","AU","Queensland","Caboolture","108025","-27.082946","152.9537179","-27.0834686","152.9516891"
"Australia","AU","Queensland","Cairns","108033","-16.9243043","145.7832994","-16.9233991","145.773851"
"Australia","AU","Queensland","Calamvale","2673624","-27.6227980172442","153.047781725732","-27.6233464","153.0474342"
"Australia","AU","Queensland","Caloundra","108060","-26.8053732","153.1328533","-26.8042574","153.1244868"
"Australia","AU","Queensland","Cannon Hill","2673626","-27.4721878439039","153.094616711399","-27.4713496","153.0999006"
"Australia","AU","Queensland","Charters Towers","108316","-20.0743199","146.2613499","-20.0759043","146.2573203"
"Australia","AU","Queensland","Chermside West","2673572","-27.3793434","153.0186899","-27.3837017","153.0164799"
"Australia","AU","Queensland","Chermside","2673573","-27.3863441","153.0313687","-27.3854227","153.0301776"
"Australia","AU","Queensland","Clayfield","2673633","-27.4190794981074","153.054418536297","-27.4187031","153.0553331"
"Australia","AU","Queensland","Cooloola Cove","2674409","-25.9743589254959","152.990229011981","-25.9702899","152.9869919"
"Australia","AU","Queensland","Coolum Beach","108633","-26.5300191","153.0897663","-26.5284468","153.0906847"
"Australia","AU","Queensland","Cornubia","2673634","-27.6687965","153.2014437","-27.6697428","153.203761"
"Australia","AU","Queensland","Dalby","108939","-27.1822593","151.2634168","-27.1832863","151.2637479"
"Australia","AU","Queensland","Deception Bay","109046","-27.1890541","153.022843","-27.1962398","153.0298315"
"Australia","AU","Queensland","Elanora","2673644","-28.1357649013407","153.449307250161","-28.1382769","153.4619817"
"Australia","AU","Queensland","Emerald","109475","-23.525992","148.161755","-23.5260032","148.1622346"
"Australia","AU","Queensland","Enoggera","2674225","-27.4281662169552","152.974807491277","-27.4224792","152.9907732"
"Australia","AU","Queensland","Ferny Grove","2673571","-27.4034218858349","152.927520093303","-27.401445","152.9364092"
"Australia","AU","Queensland","Flagstone","2674096","-27.8160216","152.9652865","-27.6191268","152.1020432"
"Australia","AU","Queensland","Forest Lake","2673649","-27.6228769","152.9702476","-27.6236519","152.9692508"
"Australia","AU","Queensland","Gatton","109837","-27.5566111","152.278446","-27.5587714","152.27574"
"Australia","AU","Queensland","Gladstone","109948","-23.8438495","151.2568723","-23.849","151.263"
"Australia","AU","Queensland","Gold Coast","110074","-28.0020594","153.41546","-28.0410141","153.297505"
"Australia","AU","Queensland","Goondiwindi","110120","-28.5470523","150.3075193","-28.5472061","150.3074519"
"Australia","AU","Queensland","Gympie","110378","-26.1903375","152.6635864","-26.1902977","152.6653914"
"Australia","AU","Queensland","Hervey Bay","2673666","-25.2985784","152.8535216","-25.2896192","152.8309158"
"Australia","AU","Queensland","Holland Park","2675161","-27.5184922066677","153.07011000937","-27.5171093","153.0697025"
"Australia","AU","Queensland","Hyde Park","2673670","-19.2758088455664","146.796700014491","-19.2769861","146.7959252"
"Australia","AU","Queensland","Inala","2673671","-27.59854","152.972007","-27.5966743","152.9729551"
"Australia","AU","Queensland","Indooroopilly","2673672","-27.5014579","152.9745281","-27.4978313","152.9725538"
"Australia","AU","Queensland","Ingham","110716","-18.6485882","146.162795","-18.6511106","146.1546225"
"Australia","AU","Queensland","Innisfail","110734","-17.5241143","146.0338249","-17.5246806","146.0323287"
"Australia","AU","Queensland","Kelvin Grove","2673676","-27.4494263","153.011342","-27.451044","153.0110931"
"Australia","AU","Queensland","Kingaroy","111171","-26.5431908","151.8387338","-26.5408702","151.8393195"
"Australia","AU","Queensland","Logan Central","2674683","-27.6435908825607","153.107123036424","-27.6410017","153.1074195"
"Australia","AU","Queensland","Mackay","111882","-21.1415238","149.1867614","-21.1412101","149.1856253"
"Australia","AU","Queensland","Mansfield","2673721","-27.5314948","153.1015318","-27.5395551","153.1000516"
"Australia","AU","Queensland","Mareeba","112027","-16.9914838","145.4170362","-16.9911644","145.4223803"
"Australia","AU","Queensland","Maryborough","112082","-25.5286790504257","152.699841113473","-25.5371225","152.701553"
"Australia","AU","Queensland","Merrimac","2673724","-28.0499586926285","153.371878393479","-28.0409571","153.3751473"
"Australia","AU","Queensland","Miami","2673725","-28.0682155197781","153.435849833885","-28.0731517","153.4440146"
"Australia","AU","Queensland","Moranbah","2673731","-22.0011601","148.0418313","-22.0009139","148.0457654"
"Australia","AU","Queensland","Morayfield","112553","-27.1112738","152.948739","-27.1054534","152.948145"
"Australia","AU","Queensland","Mount Isa","112706","-20.7289496","139.4932055","-20.7245148","139.49472"
"Australia","AU","Queensland","Nambour","112977","-26.6264438","152.9590131","-26.6293532","152.9593597"
"Australia","AU","Queensland","Nerang","113123","-27.9682682247105","153.303165345672","-27.9989389","153.3388564"
"Australia","AU","Queensland","Rockhampton","114246","-23.3782409","150.5131869","-23.3776546","150.5099759"
"Australia","AU","Queensland","Roma","114284","-26.5631769010523","148.803992390097","-26.5717657","148.7904026"
"Australia","AU","Queensland","Sheldon","2673580","-27.5844496196939","153.200558789174","-27.5633548","153.1988835"
"Australia","AU","Queensland","Spring Hill","2673691","-27.4614416","153.025734","-27.4611828","153.0243661"
"Australia","AU","Queensland","Toowong","2673708","-27.4857407","152.9915943","-27.4853201","152.9905756"
"Australia","AU","Queensland","Toowoomba","115368","-27.5648552","151.9542619","-27.5643334","151.9539909"
"Australia","AU","Queensland","Torquay","115377","-25.2913480963093","152.871316537328","-25.2842918","152.8713698"
"Australia","AU","Queensland","Townsville","115404","-19.256934","146.8239533","-19.2576223","146.8178787"
"Australia","AU","Queensland","Varsity Lakes","2674227","-28.0888576805907","153.41090019975","-28.0859948","153.4223528"
"Australia","AU","Queensland","Victoria Point","115715","-27.5843003","153.300364","-27.5860349","153.3072094"
"Australia","AU","Queensland","Warwick","115976","-28.2166899","152.0274742","-28.2143733","152.0351449"
"Australia","AU","Queensland","Yeppoon","116729","-23.1348035","150.7436625","-23.1278884","150.7453662"
"Australia","AU","South Australia","Adelaide","106494","-34.9271097","138.6006603","-34.9287264","138.5999453"
"Australia","AU","South Australia","Athelstone","2673566","-34.8714810120252","138.705453929182","-34.8704533","138.7017795"
"Australia","AU","South Australia","Banksia Park","2673607","-34.8124329016093","138.737938450836","-34.807779","138.72419"
"Australia","AU","South Australia","Christies Downs","2673629","-35.1367559229929","138.497705271815","-35.1270527","138.503245"
"Australia","AU","South Australia","Cumberland Park","2673635","-34.9720369237644","138.58669465309","-34.966923","138.5889875"
"Australia","AU","South Australia","Erindale","2673645","-34.9287399100772","138.664157866846","-34.9259558","138.6625908"
"Australia","AU","South Australia","Evanston","2673647","-34.6188857","138.7316862","-34.6110119","138.7374691"
"Australia","AU","South Australia","Gawler","109840","-34.5989403","138.7478687","-34.59954","138.7491411"
"Australia","AU","South Australia","Glen Osmond","2673656","-34.9593503","138.6435815","-34.9596178","138.6413976"
"Australia","AU","South Australia","Glenunga","2673658","-34.9506230938541","138.639153075122","-34.9499573","138.6387728"
"Australia","AU","South Australia","Henley Beach","2673587","-34.9205604","138.4944038","-34.9206915","138.4946694"
"Australia","AU","South Australia","Highgate","2673667","-34.9615986043629","138.621980035969","-34.9599269","138.6259448"
"Australia","AU","South Australia","Kensington Park","2673575","-34.9234779","138.6552672","-34.9264005","138.650281"
"Australia","AU","South Australia","Kwinana","111404","-35.170497602797","138.473789798733","-32.235151","115.8425402"
"Australia","AU","South Australia","Magill","2673720","-34.9122661","138.6747396","-34.9126256","138.6758675"
"Australia","AU","South Australia","Marryatville","2674146","-34.9285465021224","138.645877024688","-34.9266961","138.6497003"
"Australia","AU","South Australia","Medindie","2673723","-34.8967908","138.605232","-34.8960086","138.6006332"
"Australia","AU","South Australia","Mitchell Park","2673730","-35.0067422041441","138.562573887074","-35.0105401","138.5623064"
"Australia","AU","South Australia","Mount Barker","112628","-35.0641302","138.8586385","-35.0672411","138.8587342"
"Australia","AU","South Australia","Mount Gambier","112689","-37.8301386","140.7842627","-37.8294444","140.7827778"
"Australia","AU","South Australia","Murray Bridge","112896","-35.1199938","139.2783817","-35.1197018","139.2747261"
"Australia","AU","South Australia","North Adelaide","2673553","-34.9082135","138.5956112","-34.9062759","138.5941616"
"Australia","AU","South Australia","Novar Gardens","2673736","-34.9659795571186","138.531641430855","-34.9731192","138.5368882"
"Australia","AU","South Australia","Paralowie","2674154","-34.7563126","138.6203625","-34.7645822","138.6076388"
"Australia","AU","South Australia","Port Augusta","113916","-32.4889103203351","137.782874207939","-32.4924399","137.7628176"
"Australia","AU","South Australia","Port Lincoln","113946","-34.7211905","135.8592218","-34.7195321","135.8574623"
"Australia","AU","South Australia","Port Pirie","113956","-33.178190905723","138.009136007514","-33.1770846","138.0100573"
"Australia","AU","South Australia","Roxby Downs","2675159","-30.560121","136.8952736","-30.5608506","136.8984985"
"Australia","AU","South Australia","Victor Harbor","115711","-35.5564109","138.623695","-35.5532268","138.6229492"
"Australia","AU","South Australia","Whyalla","116199","-33.0381092","137.5801318","-33.0343994","137.5849148"
"Australia","AU","South Australia","Wynn Vale","2674230","-34.7995496717051","138.687197774188","-34.7990578","138.6861202"
"Australia","AU","Tasmania","Burnie","107944","-41.0532293251074","145.905793086665","-41.0524649","145.9068513"
"Australia","AU","Tasmania","Devonport","109116","-41.1772935133851","146.343910206532","-41.1783532","146.3609534"
"Australia","AU","Tasmania","Geilston Bay","2673654","-42.8292589196187","147.341103784972","-42.8362257","147.3509628"
"Australia","AU","Tasmania","Hobart","110576","-42.8821547912967","147.327807090472","-42.8819032","147.3238148"
"Australia","AU","Tasmania","Launceston","111553","-41.4335794045618","147.144624065529","-41.4370868","147.1393767"
"Australia","AU","Tasmania","Mowbray Heights","2673732","-41.4026745","147.1340214","-42.0409059","146.8087322"
"Australia","AU","Tasmania","New Norfolk","113179","-42.7796116579239","147.056568341753","-42.7806827","147.0636496"
"Australia","AU","Tasmania","Ulverstone","115576","-41.1568882","146.1699451","-41.1573911","146.1720764"
"Australia","AU","Victoria","Ararat","106657","-37.2843443","142.930621","-37.2822621","142.9299786"
"Australia","AU","Victoria","Bairnsdale","106809","-37.8254509","147.6304752","-37.8245772","147.6317185"
"Australia","AU","Victoria","Balaclava","2674410","-37.8702843930992","144.994850635586","-37.8690816","144.9955037"
"Australia","AU","Victoria","Balaclava","2674411","-37.8702843930992","144.994850635586","-37.8690816","144.9955037"
"Australia","AU","Victoria","Ballarat","106856","-37.5622632","143.8607215","-37.5621071","143.8561493"
"Australia","AU","Victoria","Balwyn North","2673616","-37.7919319690171","145.084016823549","-37.7918124","145.0936473"
"Australia","AU","Victoria","Balwyn","2673606","-37.8098053431896","145.080497397973","-37.8127921","145.0808684"
"Australia","AU","Victoria","Benalla","107119","-36.548971","145.9883521","-36.5514956","145.9817019"
"Australia","AU","Victoria","Bendigo","107134","-36.7588767","144.2825931","-36.7587112","144.2837459"
"Australia","AU","Victoria","Black Rock","107307","-37.9752575","145.0160084","-37.973949","145.01651"
"Australia","AU","Victoria","Black Rock","2534487","-37.9752575","145.0160084","-37.973949","145.01651"
"Australia","AU","Victoria","Blackburn","2673699","-37.8216605030581","145.152199477881","-37.8194637","145.1534068"
"Australia","AU","Victoria","Braybrook","2673608","-37.7867253662439","144.854817941503","-37.7805098","144.8571677"
"Australia","AU","Victoria","Brighton East","2673618","-37.915169","145.0139495","-37.9026094","145.0189024"
"Australia","AU","Victoria","Bundoora","2673621","-37.6984739","145.0596571","-37.69706","145.0590021"
"Australia","AU","Victoria","Burwood East","2673880","-37.8535441258048","145.150321475019","-37.8517888","145.1526131"
"Australia","AU","Victoria","Caroline Springs","2673627","-37.7462954","144.727405","-37.7464691","144.7358054"
"Australia","AU","Victoria","Castlemaine","108254","-37.0583169446585","144.218836167202","-37.0644398","144.2172001"
"Australia","AU","Victoria","Clifton Hill","2674231","-37.7885314","144.9919286","-37.788513","144.99176"
"Australia","AU","Victoria","Clifton Springs","108432","-38.1558821","144.5705873","-38.1570443","144.5558205"
"Australia","AU","Victoria","Colac","108504","-38.3376374","143.586153","-38.3400445","143.5844382"
"Australia","AU","Victoria","Craigieburn","108781","-37.599474","144.9379477","-37.5984433","144.9418164"
"Australia","AU","Victoria","Cranbourne","108787","-38.1106549","145.2836547","-38.1083474","145.2844247"
"Australia","AU","Victoria","Crib Point","108810","-38.3539669","145.1985881","-38.3653944","145.2045925"
"Australia","AU","Victoria","Delahey","2673638","-37.7199073","144.7812475","-37.7230622","144.7679354"
"Australia","AU","Victoria","East Kew","2673642","-37.7926961","145.0578071","-37.8068202","145.0310067"
"Australia","AU","Victoria","Endeavour Hills","2674092","-37.9774353","145.2585918","-37.9758866","145.2577854"
"Australia","AU","Victoria","Ferntree Gully","2674412","-37.8827608","145.2958494","-37.883583","145.295395"
"Australia","AU","Victoria","Fitzroy","2673568","-37.8004603","144.9773239","-37.7987007","144.9786869"
"Australia","AU","Victoria","Frankston North","2673651","-38.1213345397538","145.155210810586","-38.123741","145.147934"
"Australia","AU","Victoria","Gardenvale","2673653","-37.8980510595338","145.009252956658","-37.8979802","145.0091884"
"Australia","AU","Victoria","Geelong","109850","-38.1496881","144.3615609","-38.1485437","144.3613479"
"Australia","AU","Victoria","Greensborough","2673661","-37.6979136","145.1075935","-37.7046192","145.1030275"
"Australia","AU","Victoria","Hamilton","110412","-37.7435744","142.0243127","-37.7444183","142.021946"
"Australia","AU","Victoria","Hampton","2673815","-37.9352426","145.0052398","-37.937298","145.002518"
"Australia","AU","Victoria","Hastings","110462","-38.3076696","145.1904768","-38.307583","145.190201"
"Australia","AU","Victoria","Hawthorn East","2673594","-37.8311918091931","145.049708843147","-37.8239564","145.0463443"
"Australia","AU","Victoria","Healesville","110491","-37.6537218","145.5161533","-37.6538286","145.5170063"
"Australia","AU","Victoria","Heyfield","2675133","-37.9816865","146.7847464","-37.9826115","146.7850242"
"Australia","AU","Victoria","Horsham","110634","-36.7148099","142.2018105","-36.7131358","142.1999045"
"Australia","AU","Victoria","Kyabram","111407","-36.3131874","145.0480905","-36.3135222","145.0477249"
"Australia","AU","Victoria","Lakes Entrance","111480","-37.881599","147.9776544","-37.8795844","147.9916047"
"Australia","AU","Victoria","Lara","111535","-38.0235179","144.4076729","-38.0235922","144.4078657"
"Australia","AU","Victoria","Leopold","111617","-38.1863737","144.4686539","-38.1938428","144.4681527"
"Australia","AU","Victoria","Macleod","2674143","-37.7208504612909","145.069836968002","-37.726738","145.070251"
"Australia","AU","Victoria","Maryborough","112083","-37.0518427169915","143.742622641427","-37.046538","143.7369631"
"Australia","AU","Victoria","Melbourne","112172","-37.8220407943999","144.969801387265","-37.8131869","144.9629796"
"Australia","AU","Victoria","Melton","112179","-37.6834377","144.5828612","-37.682979","144.5804663"
"Australia","AU","Victoria","Mildura","112282","-34.1847265","142.1624972","-34.2063006","142.1358321"
"Australia","AU","Victoria","Mill Park","2673726","-37.666856","145.0598556","-37.667861","145.0622519"
"Australia","AU","Victoria","Mont Albert North","2673678","-37.8033152","145.1107226","-37.8014989","145.1083908"
"Australia","AU","Victoria","Morwell","112603","-38.2365734","146.3993983","-38.2333333","146.4"
"Australia","AU","Victoria","Niddrie","2673734","-37.7402869","144.8856712","-37.7364624","144.8896249"
"Australia","AU","Victoria","Ormond","2673564","-37.903827245657","145.041385387737","-37.9037922","145.0412058"
"Australia","AU","Victoria","Pakenham","113576","-38.0775824","145.4818373","-38.078518","145.482727"
"Australia","AU","Victoria","Parkville","2674157","-37.7870378407942","144.951525593163","-37.7945414","144.9567011"
"Australia","AU","Victoria","Pascoe Vale","2673741","-37.7268622","144.9394288","-37.730366","144.92868"
"Australia","AU","Victoria","Portland","113944","-38.3456231","141.6042304","-38.3463453","141.6042096"
"Australia","AU","Victoria","Princes Hill","2673684","-37.7825573","144.9672162","-37.7816273","144.9676602"
"Australia","AU","Victoria","Sale","114421","-38.1054104","147.0646345","-38.1077151","147.0640833"
"Australia","AU","Victoria","Skye","2674233","-38.1054482","145.2075394","-38.1197382","145.211488"
"Australia","AU","Victoria","Somerville","114661","-38.2232345","145.1781202","-38.22382","145.177643"
"Australia","AU","Victoria","Stawell","114779","-37.0586869","142.7745476","-37.0563701","142.7804418"
"Australia","AU","Victoria","Sunbury","114879","-37.5768637","144.731388","-37.5794919","144.7288981"
"Australia","AU","Victoria","Swan Hill","114909","-35.3393279","143.5592026","-35.3405225","143.5614347"
"Australia","AU","Victoria","Taylors Hill","2674190","-37.7153413288932","144.752880476561","-37.709504","144.7549461"
"Australia","AU","Victoria","Thornbury","2675190","-37.758166310192","145.006389711772","-37.7540674","145.0012255"
"Australia","AU","Victoria","Toorak","2673583","-37.8424873","145.018124","-37.841228","145.009521"
"Australia","AU","Victoria","Traralgon","115418","-38.1951506","146.538022","-38.1971087","146.534618"
"Australia","AU","Victoria","Vermont South","2673709","-37.8544505494459","145.187752538221","-37.8573447","145.1829212"
"Australia","AU","Victoria","Wangaratta","115863","-36.3562509","146.3230914","-36.3543294","146.3256568"
"Australia","AU","Victoria","Warragul","115932","-38.1588674","145.933629","-38.1611548","145.9318239"
"Australia","AU","Victoria","Warragul","2674202","-38.1588674","145.933629","-38.1611548","145.9318239"
"Australia","AU","Victoria","Warrnambool","115967","-38.3557526130059","142.477236713344","-38.3827659","142.4844995"
"Australia","AU","Victoria","Wodonga","116336","-36.1211043","146.8909734","-36.122487","146.8878851"
"Australia","AU","Victoria","Wonthaggi","116393","-38.6043007","145.5908329","-38.6059367","145.588532"
"Australia","AU","Western Australia","Albany","106514","-35.0212993","117.8839055","-35.0238227","117.8847286"
"Australia","AU","Western Australia","Australind","106752","-33.2817039387928","115.728571548754","-33.2788544","115.7159455"
"Australia","AU","Western Australia","Ballajura","2673873","-31.8402630800706","115.89584148495","-31.8399909","115.8948188"
"Australia","AU","Western Australia","Beldon","2673702","-31.7746379501541","115.762877611056","-31.7704003","115.7646559"
"Australia","AU","Western Australia","Broome","107732","-17.9640268","122.2176092","-17.9512214","122.2443272"
"Australia","AU","Western Australia","Bunbury","107869","-33.3403542","115.6336365","-33.3270685","115.6391736"
"Australia","AU","Western Australia","Busselton","107985","-33.6464014","115.3410552","-33.6499446","115.3446115"
"Australia","AU","Western Australia","Canning Vale","2673625","-32.0643812","115.9120144","-32.0709598","115.8938833"
"Australia","AU","Western Australia","Carine","2673600","-31.8539782","115.775931","-31.8484029","115.7839733"
"Australia","AU","Western Australia","Carnarvon","108198","-24.8826103","113.6576408","-24.8826946","113.6570204"
"Australia","AU","Western Australia","Casuarina","2673628","-32.2445816","115.8845871","-32.230393","115.8713028"
"Australia","AU","Western Australia","Churchlands","2673630","-31.9216362014689","115.793589895969","-31.9301422","115.8025902"
"Australia","AU","Western Australia","Clarkson","2673632","-31.6829088","115.7220326","-31.6814538","115.714638"
"Australia","AU","Western Australia","Collie","108531","-33.3591223","116.1536169","-33.3588705","116.1540412"
"Australia","AU","Western Australia","Dampier","108966","-20.6615138","116.707707","-20.6637988","116.7084604"
"Australia","AU","Western Australia","Duncraig","2673640","-31.8314627","115.7788108","-31.8341204","115.7835905"
"Australia","AU","Western Australia","East Perth","2673700","-31.9497761","115.8750833","-31.9584883","115.8716195"
"Australia","AU","Western Australia","Edgewater","2673643","-31.7549672782667","115.784009653295","-31.7732591","115.7890062"
"Australia","AU","Western Australia","Esperance","109527","-33.8592856","121.8936147","-33.8594128","121.8932484"
"Australia","AU","Western Australia","Forrestfield","2673650","-31.9806038713423","116.007230797878","-31.9892323","116.009782"
"Australia","AU","Western Australia","Geraldton","109879","-28.77035","114.6147159","-28.7732192","114.6096326"
"Australia","AU","Western Australia","Glen Forrest","2673655","-31.919498113017","116.107103367324","-31.9095264","116.104256"
"Australia","AU","Western Australia","Hamilton Hill","2673584","-32.0845811636022","115.776282878386","-32.0755421","115.7796338"
"Australia","AU","Western Australia","Hillarys","2673668","-31.8097006","115.7487831","-31.7982298","115.7454452"
"Australia","AU","Western Australia","Kalamunda","2673674","-31.9719985","116.0573705","-31.9733853","116.0601384"
"Australia","AU","Western Australia","Karratha","2673705","-20.734908","116.8441917","-20.7366148","116.8467646"
"Australia","AU","Western Australia","Karrinyup","2673675","-31.8723380802569","115.776819941367","-31.8755261","115.7780026"
"Australia","AU","Western Australia","Koondoola","2673579","-31.8414220859269","115.866483771699","-31.8414719","115.8600455"
"Australia","AU","Western Australia","Kununurra","111382","-15.7727999","128.7403459","-15.7735463","128.739196"
"Australia","AU","Western Australia","Leederville","2675114","-31.9319110663893","115.841134228742","-31.9363895","115.8419536"
"Australia","AU","Western Australia","Lesmurdie","2673582","-32.0011906089706","116.0481463084","-31.9994649","116.052301"
"Australia","AU","Western Australia","Mandurah","111963","-32.5299472","115.7190078","-32.5366794","115.7426282"
"Australia","AU","Western Australia","Mirrabooka","2673729","-31.8596323717591","115.865779669297","-31.8562732","115.8683876"
"Australia","AU","Western Australia","Morley","2673595","-31.8877649903672","115.909886982621","-31.8982423","115.8950739"
"Australia","AU","Western Australia","Mount Lawley","2673706","-31.9309321252127","115.874982801527","-31.9340637","115.8716858"
"Australia","AU","Western Australia","Murdoch","2673733","-32.0698630403987","115.837570534797","-32.065155","115.8389539"
"Australia","AU","Western Australia","Northam","113273","-31.6528025","116.6724738","-31.6545305","116.6705166"
"Australia","AU","Western Australia","Ocean Reef","2673738","-31.7569941","115.7380757","-31.7529019","115.7376057"
"Australia","AU","Western Australia","Paraburdoo","2675131","-23.1998971986908","117.671472819493","-23.2002588","117.6714422"
"Australia","AU","Western Australia","Perth","113752","-31.9560175429561","115.847168091454","-31.9528536","115.8573389"
"Australia","AU","Western Australia","Point Samson","113872","-20.6304515","117.194867","-20.6288928","117.1944475"
"Australia","AU","Western Australia","Port Hedland","113934","-20.3111814","118.5801181","-20.3116266","118.5752577"
"Australia","AU","Western Australia","Roebourne","114269","-20.7723709","117.145828","-20.7691657","117.146574"
"Australia","AU","Western Australia","Rossmoyne","2674172","-32.0414229","115.8667142","-32.0386567","115.8679972"
"Australia","AU","Western Australia","Salter Point","2673581","-32.0231836194356","115.865235256679","-32.0220234","115.8707317"
"Australia","AU","Western Australia","Secret Harbour","2673689","-32.4015377","115.7523757","-32.4090774","115.7471544"
"Australia","AU","Western Australia","South Hedland","2673707","-20.4089088","118.5983238","-20.4094123","118.6004335"
"Australia","AU","Western Australia","Tom Price","2673693","-22.693894","117.7961309","-22.6940873","117.7950553"
"Australia","AU","Western Australia","Waikiki","2673597","-32.315657853845","115.754276324304","-32.3134204","115.7456818"
"Australia","AU","Western Australia","Wembley Downs","2673577","-31.9184694799769","115.777282847403","-31.9110431","115.7740679"
"Australia","AU","Western Australia","Wickham","2675052","-20.6759495","117.1382883","-20.6749365","117.1424374"
"Australia","AU","Western Australia","Winthrop","2673710","-32.0524221","115.8279248","-32.0580895","115.8315168"
"Belgium","BE",,"Aalst","170978","50.9447809245372","4.06875784057697","50.9378101","4.0409517"
"Belgium","BE",,"Aalter","170982","51.0782997085706","3.44517126080531","51.087349","3.448371"
"Belgium","BE",,"Aarschot","171003","50.9890780375194","4.86447801348878","50.9859959","4.8365218"
"Belgium","BE",,"Aartselaar","171009","51.1318508133448","4.38248374892861","51.1338889","4.3847222"
"Belgium","BE",,"Alken","171128","50.8782132620735","5.29084044870465","50.87609","5.30767"
"Belgium","BE",,"Alveringem","171158","50.9757772117369","2.67776695475757","51.0124765","2.7097057"
"Belgium","BE",,"Amay","171166","50.5497761","5.3240992","50.5482","5.30956"
"Belgium","BE",,"Amel","171172","50.3540423","6.1699765","50.3542193","6.1699174"
"Belgium","BE",,"Andenne","171191","50.4900943","5.1043923","50.4888889","5.0955556"
"Belgium","BE",,"Anderlues","171195","50.4079969","4.2696102","50.4066667","4.2711111"
"Belgium","BE",,"Anhée","171210","50.310778","4.8796936","50.31064","4.87829"
"Belgium","BE",,"Ans","171218","50.6624326","5.5190612","50.6625","5.52"
"Belgium","BE",,"Anthisnes","171226","50.481662","5.5225261","50.483333","5.516667"
"Belgium","BE",,"Antoing","171228","50.5659819","3.4515305","50.56717","3.45696"
"Belgium","BE",,"Antwerp","171230","51.2296782197712","4.71990556180885","51.2192159","4.4028818"
"Belgium","BE",,"Anzegem","171235","50.8307395623183","3.45396186842921","50.8331","3.47832"
"Belgium","BE",,"Ardooie","171264","50.9795215","3.196951","50.97676","3.19918"
"Belgium","BE",,"Arendonk","171269","51.3199391","5.0859079","51.322049","5.0863348"
"Belgium","BE",,"Arlon","171276","49.6809710365981","5.77403937820232","49.6833333","5.8"
"Belgium","BE",,"Assenede","171313","51.2271502522074","3.71480263606593","51.22649","3.75098"
"Belgium","BE",,"Assesse","171316","50.3710276","5.026829","50.368924","5.019639"
"Belgium","BE",,"Asse","171307","50.9072862402325","4.21533338153614","50.909373","4.2005478"
"Belgium","BE",,"As","171287","51.0087499940992","5.58446864794675","51.00793","5.58414"
"Belgium","BE",,"Ath","171324","50.6311349","3.7769485","50.6304302","3.776992"
"Belgium","BE",,"Attert","171331","49.7491017","5.7880698","49.75054","5.7863"
"Belgium","BE",,"Aubange","171334","49.5694493","5.804441","49.5666667","5.8"
"Belgium","BE",,"Aubel","171337","50.7041498","5.8585553","50.7021296","5.8592295"
"Belgium","BE",,"Avelgem","171434","50.7776190610103","3.45366955608945","50.77597","3.44532"
"Belgium","BE",,"Awans","171450","50.6669712","5.4620018","50.6669444","5.4633333"
"Belgium","BE",,"Aywaille","171458","50.4734827","5.6742167","50.47318","5.67584"
"Belgium","BE",,"Baarle-Hertog","171473","51.4165054868077","4.90524839296546","51.4069842","4.8933004"
"Belgium","BE",,"Baelen","171499","51.158596955971","5.18342410975294","50.6301763","5.9692046"
"Belgium","BE",,"Balen","171533","51.158596955971","5.18342410975294","51.1708903","5.1668282"
"Belgium","BE",,"Bassenge","171637","50.7583596","5.6094772","50.755662","5.5959255"
"Belgium","BE",,"Bastogne","171658","50.0009951","5.7153203","50.0041667","5.72"
"Belgium","BE",,"Beaumont","171711","50.2355294","4.2383115","50.23722","4.23985"
"Belgium","BE",,"Beauraing","171714","50.1104131","4.9566613","50.1088889","4.9561111"
"Belgium","BE",,"Beauvechain","171725","50.7760489057109","4.76478581879129","50.781842","4.769919"
"Belgium","BE",,"Beernem","171770","51.1507167596562","3.33667531396807","51.14352","3.3399"
"Belgium","BE",,"Beersel","171773","50.7503901692156","4.30191384127896","50.7669262","4.3084744"
"Belgium","BE",,"Beerse","171771","51.3142247219483","4.82323989177107","51.32096","4.851822"
"Belgium","BE",,"Begijnendijk","171792","51.0070858807226","4.78465048169515","51.0186111","4.785"
"Belgium","BE",,"Bekkevoort","171822","50.9344072762496","4.97800316682061","50.9333333","4.9666667"
"Belgium","BE",,"Beloeil","171868","50.5479197","3.7361279","50.5487594","3.7352249"
"Belgium","BE",,"Beringen","171959","51.0654508143175","5.23605066913777","51.050797","5.229321"
"Belgium","BE",,"Berlaar","171973","51.1071641175273","4.65616761524173","51.1163889","4.6566667"
"Belgium","BE",,"Berlare","171976","51.0362628605441","3.97930279292273","51.0174273","4.0058218"
"Belgium","BE",,"Berloz","171982","50.6977331","5.2146261","50.69875","5.21265"
"Belgium","BE",,"Bernissart","171986","50.475502","3.6504677","50.4743736","3.6504695"
"Belgium","BE",,"Bertem","171992","50.8537885696714","4.60972304964106","50.8644751","4.6303588"
"Belgium","BE",,"Bertogne","172002","50.0842908","5.6675577","50.0833333","5.6666667"
"Belgium","BE",,"Bertrix","172004","49.8546564","5.2529266","49.8544444","5.2522222"
"Belgium","BE",,"Beveren","172056","51.2544813872429","4.23658478689929","51.2166667","4.25"
"Belgium","BE",,"Bever","172050","50.7107030639125","3.9324244935325","50.71687","3.94067"
"Belgium","BE",,"Beyne-Heusay","172070","50.6220566","5.6534141","50.6216012","5.6558548"
"Belgium","BE",,"Bierbeek","172089","50.8301201136393","4.76735101019664","50.8279","4.75981"
"Belgium","BE",,"Bilzen","172136","50.8721979333039","5.5337904760527","50.8718971","5.5167162"
"Belgium","BE",,"Binche","172137","50.413878","4.1675091","50.411134","4.169462"
"Belgium","BE",,"Bièvre","172117","49.9436459","5.0166542","49.9402778","5.015"
"Belgium","BE",,"Blankenberge","172188","51.3006166804149","3.14009824369833","51.3123743","3.1327685"
"Belgium","BE",,"Blegny","172207","50.6727185","5.7252372","50.67353","5.72525"
"Belgium","BE",,"Bocholt","172265","51.1869846227421","5.56382440457363","51.17291","5.57899"
"Belgium","BE",,"Boechout","172279","51.1656575029486","4.51690072541236","51.15886","4.49172"
"Belgium","BE",,"Bonheiden","172431","51.0207767234242","4.57078009169617","51.02221","4.54803"
"Belgium","BE",,"Boom","172464","51.0935615129955","4.37279663056905","51.091541","4.368926"
"Belgium","BE",,"Boortmeerbeek","172475","50.9800805206515","4.56081180780476","50.978693","4.572164"
"Belgium","BE",,"Borgloon","172490","50.8048288552715","5.3409801049426","50.80613","5.34302"
"Belgium","BE",,"Bornem","172506","51.0953499411478","4.24278706154687","51.0996057","4.2404586"
"Belgium","BE",,"Borsbeek","172512","51.1914412151653","4.48773678761092","51.194179","4.481594"
"Belgium","BE",,"Bouillon","172654","49.794594","5.0689689","49.79607","5.072403"
"Belgium","BE",,"Boussu","172694","50.4333918","3.7957791","50.431179","3.797873"
"Belgium","BE",,"Boutersem","172701","50.8348793510655","4.84256246757231","50.8333333","4.8333333"
"Belgium","BE",,"Braine-le-Château","172758","50.6795979653507","4.28420198345859","50.6802986","4.2689347"
"Belgium","BE",,"Braine-le-Comte","172759","50.610613","4.13631","50.608334","4.141006"
"Belgium","BE",,"Braives","172760","50.6300711","5.1435257","50.6166667","5.1333333"
"Belgium","BE",,"Brasschaat","172781","51.3095685346739","4.50048603070535","51.29227","4.49419"
"Belgium","BE",,"Brecht","172788","51.3359479551026","4.62831389484","51.3496533","4.6377227"
"Belgium","BE",,"Bredene","172792","51.2375464607412","2.97683522945122","51.2336111","2.9755556"
"Belgium","BE",,"Bree","172798","51.1418538305833","5.63249022165199","51.14099","5.59802"
"Belgium","BE",,"Brugelette","172911","50.5954253","3.8546563","50.596165","3.858146"
"Belgium","BE",,"Brugge","172915","51.2082547","3.2261479","51.2108365","3.2248692"
"Belgium","BE",,"Brunehaut","172958","50.4498386","3.68220775","50.522371","3.392571"
"Belgium","BE",,"Brussels","172964","50.8465142","4.351733","50.8503396","4.3517103"
"Belgium","BE",,"Buggenhout","173009","51.0118325679806","4.19902063033827","51.014359","4.204424"
"Belgium","BE",,"Bullingen","173036","50.4069129","6.2575982","50.40314","6.27891"
"Belgium","BE",,"Burdinne","173051","50.5812607","5.072436","50.58411","5.07643"
"Belgium","BE",,"Butgenbach","173089","50.4267259","6.2053573","50.4266339","6.2042885"
"Belgium","BE",,"Celles","173213","50.2312617","5.0058339","50.7125367","3.4574924"
"Belgium","BE",,"Cerfontaine","173226","50.2593185109361","4.02448168740923","50.1692339","4.4106574"
"Belgium","BE",,"Chapelle-lez-Herlaimont","173297","50.4716393","4.2796419","50.4666667","4.2833333"
"Belgium","BE",,"Charleroi","173307","50.4120332","4.4436244","50.4108095","4.444643"
"Belgium","BE",,"Chastre","173319","50.6080835","4.636678","50.6","4.6333333"
"Belgium","BE",,"Chaudfontaine","173333","50.5847922","5.6469688","50.5833333","5.6333333"
"Belgium","BE",,"Chaumont-Gistoux","173338","50.684066","4.697288","50.67687","4.71943"
"Belgium","BE",,"Chimay","173402","50.0408498825923","4.32425531656678","50.048362","4.320321"
"Belgium","BE",,"Chiny","173404","49.7390673","5.3420528","49.7405487","5.3427691"
"Belgium","BE",,"Chièvres","173400","50.587693","3.810128","50.583986","3.806936"
"Belgium","BE",,"Châtelet","173327","50.4044945","4.5237213","50.403156","4.527303"
"Belgium","BE",,"Ciney","173416","50.2949558","5.0974251","50.2956548","5.1008264"
"Belgium","BE",,"Clavier","173436","50.411577","5.357887","50.4114801","5.3635498"
"Belgium","BE",,"Colfontaine","173497","50.4056635","3.8513958","50.4","3.85"
"Belgium","BE",,"Comblain-au-Pont","173511","50.475603","5.5747506","50.47539","5.57475"
"Belgium","BE",,"Courcelles","173630","50.4601576","4.3763406","50.463298","4.3740548"
"Belgium","BE",,"Court-Saint-Étienne","173641","50.6265284125226","4.56252537444934","50.6422504","4.5680813"
"Belgium","BE",,"Couvin","173654","50.0379125078946","4.48094960799721","50.05197","4.49457"
"Belgium","BE",,"Crisnée","173683","50.715885","5.397318","50.71714","5.39812"
"Belgium","BE",,"Dalhem","173782","50.7139262","5.723075","50.712909","5.729181"
"Belgium","BE",,"Damme","173785","51.2521900985317","3.32750543647987","51.250818","3.287712"
"Belgium","BE",,"Daverdisse","173811","50.0217646","5.1184644","50.021171","5.115578"
"Belgium","BE",,"De Haan","173874","51.2596011216152","3.04755106984876","51.271947","3.040091"
"Belgium","BE",,"De Panne","174077","51.0788333149053","2.58975881321821","51.09692","2.58331"
"Belgium","BE",,"De Pinte","174082","50.9859199969493","3.66920579994617","50.991095","3.650462"
"Belgium","BE",,"Deerlijk","173863","50.842472089893","3.36597048329594","50.85098","3.353722"
"Belgium","BE",,"Deinze","173913","50.9903604247402","3.51645980778574","50.98788","3.52449"
"Belgium","BE",,"Denderleeuw","174016","50.886477055727","4.05809273276134","50.88452","4.07622"
"Belgium","BE",,"Dendermonde","174017","51.0274855445311","4.0903816515861","51.02873","4.09874"
"Belgium","BE",,"Dentergem","174068","50.96478","3.4179961","50.9636458","3.4186283"
"Belgium","BE",,"Dessel","174138","51.2414757742471","5.12248512981718","51.238107","5.116973"
"Belgium","BE",,"Destelbergen","174151","51.0556572","3.7979776","51.054075","3.800096"
"Belgium","BE",,"Diepenbeek","174243","50.9113704755673","5.41745738662354","50.91083","5.41336"
"Belgium","BE",,"Diest","174252","51.001892831146","5.06917050770658","50.98965","5.05016"
"Belgium","BE",,"Diksmuide","174269","51.0476349081863","2.85428536109594","51.0317064","2.8639865"
"Belgium","BE",,"Dilbeek","174271","50.8533511916072","4.23381750226968","50.84719","4.25777"
"Belgium","BE",,"Dinant","174274","50.1675769438153","5.02358994497957","50.260494","4.9127457"
"Belgium","BE",,"Dison","174279","50.611374","5.854735","50.6139839","5.8845239"
"Belgium","BE",,"Doische","174291","50.1441903862736","4.69892001394734","50.1362261","4.7461199"
"Belgium","BE",,"Donceel","174300","50.647765","5.320632","50.6463528","5.3206722"
"Belgium","BE",,"Dour","174359","50.3978815","3.7806897","50.39633","3.781435"
"Belgium","BE",,"Drogenbos","174433","50.7936315165937","4.30871868166226","50.7833333","4.3166667"
"Belgium","BE",,"Duffel","174468","51.0956544916735","4.51404026959359","51.095286","4.5099"
"Belgium","BE",,"Durbuy","174498","50.3518383","5.4577616","50.35306","5.45604"
"Belgium","BE",,"Edegem","174527","51.1561735640935","4.43295849056072","51.152982","4.4380338"
"Belgium","BE",,"Eeklo","174566","51.1942577327934","3.56237541857036","51.187908","3.561291"
"Belgium","BE",,"Ellezelles","174701","50.7338701","3.6802062","50.7340811","3.6784533"
"Belgium","BE",,"Enghien","174763","50.6927553","4.0406912","50.6947421","4.0418582"
"Belgium","BE",,"Engis","174764","50.582433","5.4043113","50.5666667","5.4"
"Belgium","BE",,"Erquelinnes","174814","50.3099778","4.1200251","50.3073558","4.1113839"
"Belgium","BE",,"Esneux","174836","50.5311049","5.5687822","50.5350096","5.568372"
"Belgium","BE",,"Essen","174853","51.4494956983318","4.46588166898033","51.4616667","4.4558333"
"Belgium","BE",,"Estaimpuis","174859","50.7059794","3.2640184","50.70444","3.26435"
"Belgium","BE",,"Eupen","174877","50.6304004","6.0313186","50.6292029","6.0337111"
"Belgium","BE",,"Evergem","174890","51.1432807377323","3.70806760444293","51.1099708","3.7067221"
"Belgium","BE",,"Faimes","174935","50.665246","5.262322","50.66183","5.26009"
"Belgium","BE",,"Farciennes","174962","50.427224","4.5530018","50.42994","4.5415"
"Belgium","BE",,"Fauvillers","174992","49.8509306","5.665031","49.851562","5.6627735"
"Belgium","BE",,"Ferrières","175031","50.3999541","5.605138","50.40087","5.611004"
"Belgium","BE",,"Fexhe-le-Haut-Clocher","175038","50.6660321","5.398197","50.664991","5.400518"
"Belgium","BE",,"Fleurus","175081","50.4823502","4.5504994","50.4822605","4.5511869"
"Belgium","BE",,"Flobecq","175087","50.737398","3.7381016","50.7367","3.73852"
"Belgium","BE",,"Floreffe","175095","50.4348064","4.758878","50.43405","4.75922"
"Belgium","BE",,"Florennes","175096","50.2514227","4.6030187","50.2505512","4.6051131"
"Belgium","BE",,"Florenville","175098","49.6981125","5.3097847","49.6977116","5.3119224"
"Belgium","BE",,"Fléron","175078","50.6168354","5.6832219","50.6205901","5.6862156"
"Belgium","BE",,"Frameries","175267","50.4095261","3.8929528","50.4","3.9"
"Belgium","BE",,"Galmaarden","175381","50.7528858345025","3.98778466563372","50.753641","3.971298"
"Belgium","BE",,"Gavere","175415","50.9288746097291","3.68564949275739","50.92634","3.663113"
"Belgium","BE",,"Gedinne","175426","49.9792667","4.9388966","49.98081","4.93707"
"Belgium","BE",,"Geel","175428","51.1664895448336","4.98484178724075","51.164768","4.989791"
"Belgium","BE",,"Geer","175443","50.6686017","5.1708379","50.6701762","5.1828092"
"Belgium","BE",,"Geetbets","175451","50.8916067577309","5.13145116092298","50.894268","5.1126993"
"Belgium","BE",,"Gembloux","175491","50.5605492","4.6921459","50.561293","4.701531"
"Belgium","BE",,"Genappe","175508","50.6101430608625","4.45602759171909","50.611566","4.451384"
"Belgium","BE",,"Genk","175542","50.9673437700449","5.49470884277211","50.96613","5.5021"
"Belgium","BE",,"Gent","175555","51.0744256489161","3.72553054454865","51.05665","3.72"
"Belgium","BE",,"Geraardsbergen","175561","50.7796990083482","3.90387898603402","50.7704243","3.8723864"
"Belgium","BE",,"Gerpinnes","175591","50.3377968","4.527588","50.3373282","4.5277925"
"Belgium","BE",,"Gesves","175597","50.4028535","5.0776175","50.4024613","5.0755536"
"Belgium","BE",,"Gingelom","175651","50.7373858647683","5.1693594050375","50.74713","5.138654"
"Belgium","BE",,"Gistel","175656","51.1511064244424","2.94318451213917","51.1565817","2.9692226"
"Belgium","BE",,"Glabbeek","175667","50.8670417676612","4.94926381736572","50.86895","4.95747"
"Belgium","BE",,"Gooik","175736","50.7808664847754","4.0957924274928","50.7952811","4.1180489"
"Belgium","BE",,"Gouvy","175789","50.1896308","5.9541614","50.1833333","5.9333333"
"Belgium","BE",,"Grez-Doiceau","175933","50.738692","4.6964219","50.7386097","4.6974205"
"Belgium","BE",,"Grimbergen","175945","50.944731833843","4.37660016771368","50.93358","4.3732"
"Belgium","BE",,"Grobbendonk","175963","51.1799768444035","4.73929359142438","51.188785","4.735852"
"Belgium","BE",,"Haacht","176148","50.9640406235577","4.64108474146672","50.9766667","4.6372222"
"Belgium","BE",,"Haaltert","176161","50.8846773283557","3.99320431656091","50.9","4.0"
"Belgium","BE",,"Habay","176182","49.71822","5.6327706","49.73","5.6166667"
"Belgium","BE",,"Halen","176272","50.9502789761588","5.09408598263051","50.9485","5.11117"
"Belgium","BE",,"Halle","176290","50.7263379172532","4.23720265344325","50.733333","4.233333"
"Belgium","BE",,"Hamme","176329","51.0779732790613","4.13993914697467","51.09106","4.14086"
"Belgium","BE",,"Hamoir","176333","50.4255373","5.5324861","50.4267955","5.5315795"
"Belgium","BE",,"Hamois","176336","50.3408694","5.1594475","50.3333333","5.15"
"Belgium","BE",,"Hannut","176370","50.6705907","5.0795524","50.671001","5.078567"
"Belgium","BE",,"Harelbeke","176401","50.8636754246028","3.30698687861794","50.85667","3.31061"
"Belgium","BE",,"Hasselt","176441","50.9353400757904","5.30808224778534","50.93069","5.33248"
"Belgium","BE",,"Hastière","176445","50.2184247","4.8240095","50.2166667","4.8166667"
"Belgium","BE",,"Havelange","176539","50.3870946","5.23958","50.3833333","5.2333333"
"Belgium","BE",,"Heers","176593","50.7538451351171","5.3117648482044","50.75368","5.30209"
"Belgium","BE",,"Heist-op-den-Berg","176699","51.0715040499143","4.73595378637385","51.07443","4.72952"
"Belgium","BE",,"Hemiksem","176757","51.1437376686105","4.34027527530931","51.14518","4.33834"
"Belgium","BE",,"Hensies","176781","50.4328388","3.6847215","50.432779","3.684904"
"Belgium","BE",,"Herbeumont","176793","49.7815364","5.2377736","49.780231","5.242033"
"Belgium","BE",,"Herentals","176814","51.1639983845346","4.82797373882764","51.1768541","4.8355946"
"Belgium","BE",,"Herenthout","176818","51.1390713439066","4.7600887151451","51.1394506","4.7564892"
"Belgium","BE",,"Herent","176816","50.9106276038897","4.64666343437431","50.908172","4.670524"
"Belgium","BE",,"Herk-de-Stad","176831","50.9374868401116","5.17786900412191","50.939241","5.168733"
"Belgium","BE",,"Herne","176853","50.7228721913496","4.03645648013353","50.7241667","4.0338889"
"Belgium","BE",,"Herselt","176869","51.0476020827975","4.88304562945718","51.05102","4.882259"
"Belgium","BE",,"Herstal","176871","50.6702128","5.6403722","50.6625","5.6233333"
"Belgium","BE",,"Herstappe","176872","50.7273829","5.4260923","50.72653","5.426"
"Belgium","BE",,"Herve","176882","50.6393646","5.7938577","50.6403","5.79448"
"Belgium","BE",,"Herzele","176885","50.8703832354551","3.89255818898295","50.881332","3.889665"
"Belgium","BE",,"Hoegaarden","177087","50.779136525908","4.87649454778721","50.775085","4.889302"
"Belgium","BE",,"Hoeilaart","177090","50.7609945927932","4.45083215289409","50.7674863","4.4740458"
"Belgium","BE",,"Hoeselt","177116","50.8452427159439","5.47259252470082","50.846032","5.49051"
"Belgium","BE",,"Holsbeek","177218","50.9297434697326","4.80196525935952","50.92113","4.75696"
"Belgium","BE",,"Hooglede","177328","50.98957368483","3.08236521286453","50.97866","3.08199"
"Belgium","BE",,"Hoogstraten","177340","51.440532337746","4.76390026807168","51.4021866","4.7619387"
"Belgium","BE",,"Hotton","177395","50.2688011","5.4463304","50.26728","5.44568"
"Belgium","BE",,"Houffalize","177406","50.1347831","5.7878989","50.1322172","5.7895852"
"Belgium","BE",,"Houthulst","177461","50.9701198983366","2.89582282757057","50.9773679","2.9456829"
"Belgium","BE",,"Houyet","177479","50.1900646","5.0051364","50.1854752","5.009969"
"Belgium","BE",,"Hove","177482","51.1471832324695","4.48234890497883","51.1539","4.47104"
"Belgium","BE",,"Huldenberg","177522","50.7898141031643","4.61190543110354","50.7885995","4.5880687"
"Belgium","BE",,"Hulshout","177539","51.0630434465427","4.81206488244168","51.075","4.7891667"
"Belgium","BE",,"Huy","177588","50.5215385","5.2357453","50.5186111","5.2327778"
"Belgium","BE",,"Héron","176858","50.5509483","5.0954386","50.547004","5.100039"
"Belgium","BE",,"Ichtegem","177599","51.112765466125","3.03092067747347","51.09289","3.013877"
"Belgium","BE",,"Ieper","177603","50.8545760807268","2.86649054839436","50.8512778","2.8841944"
"Belgium","BE",,"Incourt","177627","50.6918287","4.7989821","50.69188","4.7966"
"Belgium","BE",,"Ingelmunster","177634","50.9206975","3.2547785","50.92325","3.26284"
"Belgium","BE",,"Ittre","177664","50.6425009801143","4.25762182549805","50.643741","4.264491"
"Belgium","BE",,"Izegem","177670","50.9212120081022","3.20548762110377","50.92019","3.214185"
"Belgium","BE",,"Jabbeke","177675","51.1885938739385","3.096438286896","51.18297","3.09493"
"Belgium","BE",,"Jalhay","177679","50.5604662","5.9641345","50.5588226","5.9662952"
"Belgium","BE",,"Jodoigne","177734","50.7218206","4.8709616","50.72336","4.87115"
"Belgium","BE",,"Juprelle","177761","50.7106926","5.5290689","50.706706","5.532798"
"Belgium","BE",,"Jurbise","177763","50.5326131","3.9119144","50.5328889","3.9107946"
"Belgium","BE",,"Kalmthout","177811","51.3988600173658","4.46872845017401","51.38298","4.47518"
"Belgium","BE",,"Kampenhout","177834","50.9412554806966","4.56062818815348","50.941837","4.5551"
"Belgium","BE",,"Kapelle-op-den-Bos","177870","51.0037262460614","4.35472494255482","51.009329","4.363771"
"Belgium","BE",,"Kapellen","177865","51.3339117704819","4.44368196215904","51.313213","4.433553"
"Belgium","BE",,"Kaprijke","177887","51.2080545147486","3.6272370948856","51.21611","3.619758"
"Belgium","BE",,"Kasterlee","177905","51.2433368516533","4.94227637344734","51.2408333","4.9666667"
"Belgium","BE",,"Keerbergen","177941","51.0051738480121","4.6543136790885","51.0057936","4.6320416"
"Belgium","BE",,"Kemis","2674414",,,,
"Belgium","BE",,"Kinrooi","178082","51.1529647491646","5.76018005450551","51.14552","5.74113"
"Belgium","BE",,"Knesselare","178272","51.1327422523392","3.45147755118419","51.139163","3.416034"
"Belgium","BE",,"Knokke-Heist","178282","51.3311638674722","3.30881110191856","51.3413889","3.2869444"
"Belgium","BE",,"Koekelare","178302","51.089091162876","2.96386306942794","51.089265","2.977801"
"Belgium","BE",,"Koksijde","178325","51.1098387202627","2.68214185296536","51.1055159","2.6501419"
"Belgium","BE",,"Kontich","178359","51.123653104062","4.44458805559901","51.131279","4.44784"
"Belgium","BE",,"Kortemark","178394","51.0247487599703","3.00173826740272","51.0286111","3.0444444"
"Belgium","BE",,"Kortenaken","178395","50.8932900093894","5.02317368407046","50.9","5.05"
"Belgium","BE",,"Kortenberg","178396","50.8898510069241","4.56883273329962","50.88838","4.54408"
"Belgium","BE",,"Kortessem","178404","50.8530038441336","5.40597410428312","50.85888","5.38947"
"Belgium","BE",,"Kortrijk","178410","50.7995306868277","3.2642760430615","50.82333","3.25882"
"Belgium","BE",,"Kraainem","178437","50.8454821312142","4.47136784538738","50.8610856","4.4592974"
"Belgium","BE",,"Kruibeke","178500","51.1577302911681","4.29177601895888","51.1686111","4.3091667"
"Belgium","BE",,"Kruishoutem","178521","50.9079822055534","3.53061408534406","50.906603","3.524811"
"Belgium","BE",,"Kuurne","178558","50.8587286369782","3.27148421774912","50.85397","3.287"
"Belgium","BE",,"La Bruyère","178669","50.51166","4.809054","50.55","4.8"
"Belgium","BE",,"La Hulpe","178852","50.7362996112216","4.46484227514126","50.7309955","4.4856707"
"Belgium","BE",,"La Louvière","178887","50.4792339","4.1859322","50.4747995","4.1837388"
"Belgium","BE",,"La Roche-en-Ardenne","179079","50.1817961","5.5766377","50.181616","5.5759208"
"Belgium","BE",,"Laarne","178612","51.029657","3.8504738","51.0304538","3.8535988"
"Belgium","BE",,"Lanaken","178940","50.8993166882921","5.64446379670705","50.8925","5.6497222"
"Belgium","BE",,"Landen","178951","50.7549217377201","5.06150058674072","50.754608","5.079366"
"Belgium","BE",,"Lebbeke","179186","50.9925168102322","4.11898200140643","51.0","4.1166667"
"Belgium","BE",,"Ledegem","179253","50.8718245465317","3.14903671024704","50.852727","3.131533"
"Belgium","BE",,"Lede","179255","50.966099058642","3.94560322044377","50.96642","3.97737"
"Belgium","BE",,"Lendelede","179406","50.8861562","3.2383718","50.8858333","3.2372222"
"Belgium","BE",,"Lennik","179414","50.8131941827555","4.16398795786202","50.8122","4.16778"
"Belgium","BE",,"Lens","179416","50.5570816","3.9005461","50.55786","3.89985"
"Belgium","BE",,"Leopoldsburg","179422","51.117122604341","5.25040321220188","51.1169444","5.2558333"
"Belgium","BE",,"Lessines","179711","50.7127786","3.8300647","50.7116667","3.83"
"Belgium","BE",,"Leuven","179789","50.8790366","4.7014682","50.877571","4.704328"
"Belgium","BE",,"Libin","179825","49.9809464","5.2569017","49.9815451","5.2572"
"Belgium","BE",,"Lichtervelde","179838","51.0274096","3.1402247","51.0277074","3.1439095"
"Belgium","BE",,"Liedekerke","179841","50.8665561888062","4.09304420077534","50.86891","4.08729"
"Belgium","BE",,"Lierneux","179853","50.28574","5.7920929","50.2848031","5.7950312"
"Belgium","BE",,"Lier","2674420","51.1183428991283","4.57388339204466","51.1302138","4.5715092"
"Belgium","BE",,"Lille","179883","51.255838173115","4.83434631671131","51.2420452","4.8232254"
"Belgium","BE",,"Limbourg","179896","50.9966723465267","5.42092956375746","50.6122306","5.9403028"
"Belgium","BE",,"Lincent","179907","50.711613","5.0318166","50.71275","5.03614"
"Belgium","BE",,"Linkebeek","179924","50.7677927347015","4.34551091283903","50.7666667","4.3333333"
"Belgium","BE",,"Lint","179933","51.1276964595939","4.49785417590906","51.127649","4.496904"
"Belgium","BE",,"Liège","179846","50.6338712758291","5.59111278903929","50.6325574","5.5796662"
"Belgium","BE",,"Lobbes","179968","50.3464258","4.2652515","50.3520052","4.2665184"
"Belgium","BE",,"Lochristi","179975","51.1030408590284","3.85702801045504","51.0967808","3.8348791"
"Belgium","BE",,"Lokeren","179998","51.1132653886184","3.96137578607953","51.1023413","3.9940663"
"Belgium","BE",,"Lommel","180020","51.2255226208325","5.3024854736292","51.2304193","5.3110063"
"Belgium","BE",,"Londerzeel","180027","51.0105858430673","4.27656111541539","51.00311","4.3026"
"Belgium","BE",,"Lontzen","180055","50.6804233","6.0073447","50.68113","6.00716"
"Belgium","BE",,"Lovendegem","180124","51.1010887844214","3.62571746465705","51.096129","3.608534"
"Belgium","BE",,"Lubbeek","180142","50.8820243566486","4.82879785767773","50.8833333","4.8333333"
"Belgium","BE",,"Lummen","180165","50.9954515462758","5.18313357478113","50.9861111","5.1908333"
"Belgium","BE",,"Léglise","179333","49.8003582","5.5381496","49.8000238","5.5376254"
"Belgium","BE",,"Maaseik","180207","51.0878090468161","5.71518899000337","51.0983909","5.7837625"
"Belgium","BE",,"Maasmechelen","180209","50.9688992241967","5.67766359781944","50.96432","5.69511"
"Belgium","BE",,"Machelen","180217","50.9027019130304","4.44401503339062","50.9102778","4.4366667"
"Belgium","BE",,"Maldegem","180291","51.1981295224533","3.45043928289939","51.2088889","3.4463889"
"Belgium","BE",,"Malmédy","180315","50.4241041","6.0264668","50.427219","6.025745"
"Belgium","BE",,"Manage","180329","50.503934","4.233854","50.499402","4.237712"
"Belgium","BE",,"Manhay","180344","50.2920719","5.6770679","50.2908885","5.6614499"
"Belgium","BE",,"Marche-en-Famenne","180369","50.2240814","5.3428796","50.2282896","5.3441606"
"Belgium","BE",,"Marchin","180377","50.4800424","5.221715","50.466725","5.242713"
"Belgium","BE",,"Martelange","180446","49.8367212","5.7379661","49.8166667","5.7333333"
"Belgium","BE",,"Mechelen","180520","51.0286096951867","4.45023832553057","51.02511","4.47658"
"Belgium","BE",,"Meerhout","180553","51.1245114938713","5.07368880479369","51.1313889","5.0786111"
"Belgium","BE",,"Meise","180625","50.9611082431407","4.31567765791394","50.9529168","4.3115653"
"Belgium","BE",,"Meix-devant-Virton","180627","49.6056441","5.4791383","49.60505","5.47575"
"Belgium","BE",,"Melle","180653","50.9968862710713","3.7963782910932","51.0029","3.8017"
"Belgium","BE",,"Menen","180675","50.7925890443523","3.15511334200462","50.79343","3.12263"
"Belgium","BE",,"Merbes-le-Château","180685","50.3235989","4.1647368","50.32433","4.16479"
"Belgium","BE",,"Merchtem","180689","50.95124189145","4.24723800967837","50.95","4.2333333"
"Belgium","BE",,"Merelbeke","180693","50.974390882287","3.74074101680559","50.992535","3.743923"
"Belgium","BE",,"Merksplas","180704","51.3704888021257","4.87008764734373","51.35805","4.86339"
"Belgium","BE",,"Mesen","180720","50.759836121102","2.8975936887057","50.7641667","2.8988889"
"Belgium","BE",,"Messancy","180728","49.5969716","5.8154094","49.59377","5.81455"
"Belgium","BE",,"Mettet","180738","50.3212094","4.6584949","50.321735","4.663451"
"Belgium","BE",,"Meulebeke","180741","50.9498382","3.2888527","50.9497222","3.2869444"
"Belgium","BE",,"Middelkerke","180794","51.1524988858597","2.84019322474402","51.1847222","2.8191667"
"Belgium","BE",,"Modave","180849","50.4416137","5.3017936","50.446358","5.294768"
"Belgium","BE",,"Moerbeke","180857","51.1822082619569","3.94506701191013","51.173409","3.94401"
"Belgium","BE",,"Mol","180964","51.2338413284993","5.15284023498928","51.191087","5.1170647"
"Belgium","BE",,"Momignies","180973","50.0025692160416","4.21744889152175","50.0262706","4.1661787"
"Belgium","BE",,"Mons","180998","50.4545055","3.9531146","50.4542408","3.956659"
"Belgium","BE",,"Mont-Saint-Guibert","181066","50.6367296","4.6123141","50.63443","4.61055"
"Belgium","BE",,"Moorslede","181089","50.8808792507442","3.07892761450383","50.891147","3.0632369"
"Belgium","BE",,"Morlanwelz","181111","50.4509843","4.2523562","50.44888","4.24026"
"Belgium","BE",,"Mortsel","181124","51.1746226213097","4.46110423346698","51.1666667","4.45"
"Belgium","BE",,"Mouscron","181171","50.7433351","3.2139093","50.743754","3.220815"
"Belgium","BE",,"Musson","181238","49.5596012","5.7056107","49.55884","5.70505"
"Belgium","BE",,"Namur","181274","50.25611413395","4.85271929716076","50.465328","4.867665"
"Belgium","BE",,"Nandrin","181275","50.506355","5.4190411","50.50745","5.42009"
"Belgium","BE",,"Nassogne","181284","50.1285667","5.3420786","50.12894","5.34176"
"Belgium","BE",,"Nazareth","181296","50.9570675207761","3.61012391339556","50.960611","3.598468"
"Belgium","BE",,"Neerpelt","181369","51.2289507243282","5.45965297570439","51.2277778","5.4422222"
"Belgium","BE",,"Neufchâteau","181429","50.7195828","5.7764464","49.8417539","5.434177"
"Belgium","BE",,"Nevele","181458","51.0578190210703","3.5536888310007","51.0343466","3.5478736"
"Belgium","BE",,"Niel","181472","51.1072544719843","4.33550953849227","51.108922","4.334816"
