"country","country_code","region","city","id","osm_lat","osm_long","g_lat","g_long"
"United States of America","US","Michigan","Lapeer","2468240","43.0514161","-83.3188341",,
"United States of America","US","Michigan","Lincoln Park","2468295","42.2505943","-83.1785361",,
"United States of America","US","Michigan","Livonia","2468310","42.3971726243827","-83.3733273763063",,
"United States of America","US","Michigan","Madison Heights","2468350","42.5072913516729","-83.1033565625476",,
"United States of America","US","Michigan","Marquette","2468386","46.5506544753831","-87.3959871279666",,
"United States of America","US","Michigan","Marysville","2468394","42.908956237876","-82.480514358283",,
"United States of America","US","Michigan","Melvindale","2468441","42.2825383","-83.175203",,
"United States of America","US","Michigan","Midland","2468471","43.6233460607562","-84.2319683357733",,
"United States of America","US","Michigan","Monroe","2468504","41.9164343","-83.3977101",,
"United States of America","US","Michigan","Mount Clemens","2468527","42.5975899444439","-82.8820601329063",,
"United States of America","US","Michigan","Mount Pleasant","2468530","43.597646","-84.7668495",,
"United States of America","US","Michigan","Muskegon Heights","2468544","43.2023676569948","-86.2420790957918",,
"United States of America","US","Michigan","Muskegon","2468543","43.2341813","-86.2483921",,
"United States of America","US","Michigan","New Baltimore","2468569","42.683985276886","-82.7384424876629",,
"United States of America","US","Michigan","Niles","2468593","41.8297694","-86.2541768",,
"United States of America","US","Michigan","Northview","2468627","43.0427381133181","-85.6016206233129",,
"United States of America","US","Michigan","Norton Shores","2468631","43.1620062504348","-86.2520046126801",,
"United States of America","US","Michigan","Novi","2468638","42.48059","-83.4754913",,
"United States of America","US","Michigan","Oak Park","2468644","42.4649263135452","-83.1824271605967",,
"United States of America","US","Michigan","Oakland Township","2674325","42.7550985577527","-83.1565994316361",,
"United States of America","US","Michigan","Okemos","2468665","42.7112694287241","-84.4145521093096",,
"United States of America","US","Michigan","Owosso","2468710","42.9955849863857","-84.1763037432702",,
"United States of America","US","Michigan","Pontiac","2468844","42.6493216522074","-83.2878067767484",,
"United States of America","US","Michigan","Port Huron","2468851","42.9815877","-82.440466",,
"United States of America","US","Michigan","Portage","2468856","42.2000288196121","-85.5905451495234",,
"United States of America","US","Michigan","Redford","2468911","42.3833698","-83.2965971",,
"United States of America","US","Michigan","River Rouge","2468939","42.2731218078856","-83.1245500943368",,
"United States of America","US","Michigan","Riverview","2468943","42.1729228512861","-83.1935496844971",,
"United States of America","US","Michigan","Rochester Hills","2468951","42.6645250355979","-83.1563060340189",,
"United States of America","US","Michigan","Rochester","2468950","42.680588","-83.1338214",,
"United States of America","US","Michigan","Rogers Township","2673687",,,,
"United States of America","US","Michigan","Romulus","2468969","42.2222614","-83.3965995",,
"United States of America","US","Michigan","Roseville","2468982","42.5074193686302","-82.9369801580374",,
"United States of America","US","Michigan","Royal Oak","2468989","42.4894801","-83.1446485",,
"United States of America","US","Michigan","Saginaw","2469005","43.4200387","-83.9490365",,
"United States of America","US","Michigan","Saint Clair Shores","2673820","42.4932630417681","-82.8922074529676",,
"United States of America","US","Michigan","Shelby Township","2673695","42.67143911025","-83.0349647782054",,
"United States of America","US","Michigan","South Lyon","2469155","42.4612885811067","-83.652582560857",,
"United States of America","US","Michigan","Southfield","2469163","42.4765065098684","-83.260532117023",,
"United States of America","US","Michigan","Southgate","2469164","42.2047068535597","-83.2056945812832",,
"United States of America","US","Michigan","Sterling Heights","2469204","42.5803122","-83.0302033",,
"United States of America","US","Michigan","Sturgis","2469226","41.800468052076","-85.4187551254739",,
"United States of America","US","Michigan","Taylor","2469264","42.2260518731788","-83.2688108785225",,
"United States of America","US","Michigan","Traverse City","2469310","44.7630567","-85.6206317",,
"United States of America","US","Michigan","Trenton","2469313","42.1394859","-83.1782587",,
"United States of America","US","Michigan","Troy","2469321","42.5817416676192","-83.1457563004972",,
"United States of America","US","Michigan","Union","2674326","41.7861603","-85.8677756",,
"United States of America","US","Michigan","Walker","2469401","42.9856908893389","-85.7442965100739",,
"United States of America","US","Michigan","Warren","2469413","42.4934233511689","-83.0270062256644",,
"United States of America","US","Michigan","Waterford","2469417","42.7022527","-83.402718",,
"United States of America","US","Michigan","Waverly","2469431","42.8019681","-86.0872633",,
"United States of America","US","Michigan","Wayne","2469433","42.2774476870181","-83.3877187827814",,
"United States of America","US","Michigan","West Bloomfield Township","2673569","42.5688923295925","-83.3836479112518",,
"United States of America","US","Michigan","Westland","2469465","42.3192234559971","-83.3805421767285",,
"United States of America","US","Michigan","Wixom","2469527","42.5243069284961","-83.5347107344571",,
"United States of America","US","Michigan","Woodhaven","2469537","42.1389303","-83.2415951",,
"United States of America","US","Michigan","Wyandotte","2469551","42.2142064","-83.1499239",,
"United States of America","US","Michigan","Wyoming","2469553","42.8909935064044","-85.706745485494",,
"United States of America","US","Michigan","Ypsilanti","2469560","42.2436980690608","-83.6207261328621",,
"United States of America","US","Minnesota","Albert Lea","2470200","43.6480127","-93.3682656",,
"United States of America","US","Minnesota","Alexandria","2470209","45.8852397","-95.3775379",,
"United States of America","US","Minnesota","Andover","2470225","45.2570883099428","-93.3264022770687",,
"United States of America","US","Minnesota","Anoka","2470234","45.1977428","-93.3871758",,
"United States of America","US","Minnesota","Apple Valley","2470237","44.7319094","-93.21772",,
"United States of America","US","Minnesota","Austin","2470268","43.6666296","-92.9746367",,
"United States of America","US","Minnesota","Bemidji","2470338","47.4820311544802","-94.8818529579894",,
"United States of America","US","Minnesota","Blaine","2470383","45.1607987","-93.2349489",,
"United States of America","US","Minnesota","Bloomington","2470388","44.8305796375012","-93.3151298226108",,
"United States of America","US","Minnesota","Brainerd","2470410","46.3580221","-94.2008288",,
"United States of America","US","Minnesota","Brooklyn Center","2470430","45.0680843041963","-93.3161068755849",,
"United States of America","US","Minnesota","Brooklyn Park","2470431","45.1004807","-93.3443585",,
"United States of America","US","Minnesota","Buffalo","2470449","45.1787360638503","-93.8661269661195",,
"United States of America","US","Minnesota","Burnsville","2470455","44.7677424","-93.2777226",,
"United States of America","US","Minnesota","Champlin","2470519","45.1702744055816","-93.3904565574263",,
"United States of America","US","Minnesota","Chanhassen","2470521","44.8543467741588","-93.5622157798687",,
"United States of America","US","Minnesota","Chaska","2470523","44.7894072","-93.6021791",,
"United States of America","US","Minnesota","Cloquet","2470556","46.7220991650364","-92.4923807874882",,
"United States of America","US","Minnesota","Columbia Heights","2470574","45.0535636604486","-93.2501285856664",,
"United States of America","US","Minnesota","Coon Rapids","2470587","45.1199652","-93.2877277",,
"United States of America","US","Minnesota","Cottage Grove","2470599","44.8162374944969","-92.9272229035617",,
"United States of America","US","Minnesota","Crystal","2470621","45.037652480095","-93.3598371137318",,
"United States of America","US","Minnesota","Duluth","2470698","46.7819339104834","-92.1195156599032",,
"United States of America","US","Minnesota","Eagan","2470713","44.818173","-93.1659179",,
"United States of America","US","Minnesota","East Bethel","2470718","45.3555393407395","-93.2035247848346",,
"United States of America","US","Minnesota","Eden Prairie","2470731","44.8546856","-93.470786",,
"United States of America","US","Minnesota","Edina","2470735","44.891352503718","-93.3602269422034",,
"United States of America","US","Minnesota","Elk River","2470750","45.3313212696097","-93.5669658571664",,
"United States of America","US","Minnesota","Fairmont","2470799","43.6440358104052","-94.4618117252388",,
"United States of America","US","Minnesota","Faribault","2470803","44.2949637","-93.268827",,
"United States of America","US","Minnesota","Farmington","2470805","44.6573504372366","-93.1689850678844",,
"United States of America","US","Minnesota","Fergus Falls","2470811","46.2830152","-96.0775581",,
"United States of America","US","Minnesota","Forest Lake","2470837","45.2535920725084","-92.9581210917638",,
"United States of America","US","Minnesota","Fridley","2470867","45.0842184753541","-93.2595705146439",,
"United States of America","US","Minnesota","Golden Valley","2470917","44.9900946853437","-93.3590190014655",,
"United States of America","US","Minnesota","Ham Lake","2470984","45.2502429","-93.2499508",,
"United States of America","US","Minnesota","Hastings","2471008","44.7319105195356","-92.854046866736",,
"United States of America","US","Minnesota","Hibbing","2471042","47.4271546","-92.9376887",,
"United States of America","US","Minnesota","Hopkins","2471072","44.925942831614","-93.4058570659853",,
"United States of America","US","Minnesota","Hugo","2471082","45.159967","-92.9932734",,
"United States of America","US","Minnesota","Hutchinson","2471089","44.8857086929162","-94.3769235858701",,
"United States of America","US","Minnesota","Inver Grove Heights","2471103","44.8245558318226","-93.0595543152736",,
"United States of America","US","Minnesota","Lakeville","2471221","44.6496868","-93.24272",,
"United States of America","US","Minnesota","Lewiston","2471267","43.9846785","-91.8695909",,
"United States of America","US","Minnesota","Lino Lakes","2471278","45.167898002592","-93.0829691144652",,
"United States of America","US","Minnesota","Little Canada","2471283","45.0244102398587","-93.086322012463",,
"United States of America","US","Minnesota","Mahtomedi","2471331","45.0616929555937","-92.9661774863507",,
"United States of America","US","Minnesota","Mankato","2471347","44.1635775","-93.9993996",,
"United States of America","US","Minnesota","Maple Grove","2471353","45.0759797","-93.4561052",,
"United States of America","US","Minnesota","Maplewood","2471361","44.984035562026","-93.0247354967579",,
"United States of America","US","Minnesota","Marshall","2471372","44.4469033","-95.7883541",,
"United States of America","US","Minnesota","Mendota Heights","2471406","44.8813161909274","-93.1404250604386",,
"United States of America","US","Minnesota","Minneapolis","2471428","44.9772995","-93.2654692",,
"United States of America","US","Minnesota","Minnetonka","2471434","44.9127229","-93.499059",,
"United States of America","US","Minnesota","Monticello","2471449","45.2977843668948","-93.798259352638",,
"United States of America","US","Minnesota","Moorhead","2471451","46.8483806307168","-96.7309068024115",,
"United States of America","US","Minnesota","Mounds View","2471464","45.1071198536752","-93.2077489224536",,
"United States of America","US","Minnesota","Mound","2471463","44.9324574626386","-93.6598579398491",,
"United States of America","US","Minnesota","Mount Desert","2674485",,,,
"United States of America","US","Minnesota","New Brighton","2471491","45.0658081457869","-93.2060978665421",,
"United States of America","US","Minnesota","New Hope","2471495","45.0380201","-93.3866185",,
"United States of America","US","Minnesota","New Ulm","2471504","44.3124626","-94.4605287",,
"United States of America","US","Minnesota","North Branch","2471526","45.513730537389","-92.9601165370612",,
"United States of America","US","Minnesota","North Mankato","2471527","44.1802548518606","-94.0361925619745",,
"United States of America","US","Minnesota","North Saint Paul","2471531","45.0136856734787","-92.9994969359223",,
"United States of America","US","Minnesota","Northfield","2471536","44.4582842","-93.1614681",,
"United States of America","US","Minnesota","Oakdale","2471552","44.9630216","-92.9649361",,
"United States of America","US","Minnesota","Owatonna","2471601","44.0838517","-93.226044",,
"United States of America","US","Minnesota","Plymouth","2471675","45.0065149","-93.46651",,
"United States of America","US","Minnesota","Prior Lake","2471697","44.7258911026744","-93.4395046205163",,
"United States of America","US","Minnesota","Ramsey","2471709","45.2611","-93.45",,
"United States of America","US","Minnesota","Red Wing","2471726","44.5624676","-92.5338013",,
"United States of America","US","Minnesota","Richfield","2471743","44.8766431","-93.2877877",,
"United States of America","US","Minnesota","Robbinsdale","2471760","45.0261114866598","-93.333115741227",,
"United States of America","US","Minnesota","Rochester","2471763","44.0073325","-92.4691187",,
"United States of America","US","Minnesota","Rosemount","2471783","44.7466003999353","-93.0661025262735",,
"United States of America","US","Minnesota","Roseville","2471787","45.0155105054204","-93.1544471386552",,
"United States of America","US","Minnesota","Saint Cloud","2471828","45.5608005","-94.1624889",,
"United States of America","US","Minnesota","Saint Louis Park","2471839","44.9487991794193","-93.3650136493592",,
"United States of America","US","Minnesota","Saint Michael","2471844","45.201371542108","-93.6919870400684",,
"United States of America","US","Minnesota","Saint Paul","2471847","44.9477393783447","-93.1039975536809",,
"United States of America","US","Minnesota","Saint Peter","2471850","44.3294346556864","-93.9643219074313",,
"United States of America","US","Minnesota","Sartell","2471866","45.6216319","-94.2069365",,
"United States of America","US","Minnesota","Sauk Rapids","2471868","45.5980560507097","-94.1543912882427",,
"United States of America","US","Minnesota","Savage","2471870","44.7545067624817","-93.3634344624046",,
"United States of America","US","Minnesota","Shakopee","2471892","44.7980186","-93.5268986",,
"United States of America","US","Minnesota","Shoreview","2471909","45.0842181918796","-93.1358547869987",,
"United States of America","US","Minnesota","South Saint Paul","2471949","44.8874047065104","-93.0408011918373",,
"United States of America","US","Minnesota","Starbuck","2675057","45.6120664722969","-95.5333196772747",,
"United States of America","US","Minnesota","Stillwater","2471988","45.0567206380241","-92.8282873961691",,
"United States of America","US","Minnesota","Vadnais Heights","2472079","45.0574659","-93.0738306",,
"United States of America","US","Minnesota","Waconia","2472104","44.8410711447521","-93.7939924089843",,
"United States of America","US","Minnesota","Waseca","2472133","44.0826793180848","-93.502278234653",,
"United States of America","US","Minnesota","West Fargo","2472168","46.876633","-96.8725834",,
"United States of America","US","Minnesota","West Saint Paul","2472173","44.9018505403443","-93.0857427439147",,
"United States of America","US","Minnesota","White Bear Lake","2472188","45.0653271238018","-93.0149437314987",,
"United States of America","US","Minnesota","Willmar","2472205","45.1219075","-95.0433424",,
"United States of America","US","Minnesota","Winona","2472219","44.049963","-91.6393152",,
"United States of America","US","Minnesota","Woodbury","2472234","44.9055170984271","-92.9229656600245",,
"United States of America","US","Minnesota","Worthington","2472239","43.6279157955107","-95.5984979903463",,
"United States of America","US","Minnesota","Zimmerman","2673565","45.4410387560722","-93.5976537553061",,
"United States of America","US","Mississippi","Bay Saint Louis","2472384","30.3196062267667","-89.3556434763432",,
"United States of America","US","Mississippi","Biloxi","2472456","30.4348574770643","-88.9475516715417",,
"United States of America","US","Mississippi","Brandon","2472526","32.2776906114847","-89.9901122230646",,
"United States of America","US","Mississippi","Brookhaven","2472541","31.5790588","-90.4406506",,
"United States of America","US","Mississippi","Canton","2472608","32.6126381","-90.0367512",,
"United States of America","US","Mississippi","Clarksdale","2472690","34.1971321775547","-90.5729362176295",,
"United States of America","US","Mississippi","Cleveland","2472705","33.7431201213285","-90.729012773406",,
"United States of America","US","Mississippi","Clinton","2472711","32.3415342","-90.3217585",,
"United States of America","US","Mississippi","Columbus","2472736","33.5086785272267","-88.4135950967406",,
"United States of America","US","Mississippi","Corinth","2472755","34.9342548","-88.5222702",,
"United States of America","US","Mississippi","Gautier","2473114","30.4093537101891","-88.6561222989589",,
"United States of America","US","Mississippi","Greenville","2473180","33.3850266298605","-91.0514162938095",,
"United States of America","US","Mississippi","Greenwood","2473181","33.5162315","-90.1795281",,
"United States of America","US","Mississippi","Grenada","2473183","33.7690049","-89.8084192",,
"United States of America","US","Mississippi","Gulfport","2473192","30.4210139619901","-89.0691763273925",,
"United States of America","US","Mississippi","Hattiesburg","2473237","31.3067856655588","-89.3156722354306",,
"United States of America","US","Mississippi","Horn Lake","2473323","34.9512014068688","-90.0501298300769",,
"United States of America","US","Mississippi","Indianola","2473360","33.4491818702366","-90.6446579897749",,
"United States of America","US","Mississippi","Jackson","2473380","32.2990384","-90.1847691",,
"United States of America","US","Mississippi","Laurel","2473505","31.7400609951236","-89.1326062633223",,
"United States of America","US","Mississippi","Long Beach","2473569","30.3504460599916","-89.1664747759552",,
"United States of America","US","Mississippi","Madison","2473618","32.4579598882875","-90.1127337681323",,
"United States of America","US","Mississippi","Meridian","2473720","32.3770428286231","-88.6973556051149",,
"United States of America","US","Mississippi","Moss Point","2473790","30.4240554528694","-88.5288260954825",,
"United States of America","US","Mississippi","Natchez","2473822","31.5485333629085","-91.3880463998119",,
"United States of America","US","Mississippi","Ocean Springs","2473901","30.4064114269207","-88.7950383954884",,
"United States of America","US","Mississippi","Olive Branch","2473918","34.9607282464684","-89.8484716135484",,
"United States of America","US","Mississippi","Oxford","2473941","34.3614893670755","-89.5292865303922",,
"United States of America","US","Mississippi","Pascagoula","2473961","30.3667558334567","-88.5481620859188",,
"United States of America","US","Mississippi","Pearl","2473974","32.2745601452846","-90.0950234776324",,
"United States of America","US","Mississippi","Picayune","2474007","30.5280581657004","-89.6776379312634",,
"United States of America","US","Mississippi","Ridgeland","2474156","32.4222085904595","-90.1449293587136",,
"United States of America","US","Mississippi","Southaven","2474369","34.9528894676841","-89.9764367058762",,
"United States of America","US","Mississippi","Starkville","2474399","33.4612817161896","-88.8297132208428",,
"United States of America","US","Mississippi","Tupelo","2474540","34.2638186174881","-88.7298214810101",,
"United States of America","US","Mississippi","Vicksburg","2474596","32.3526457","-90.8778821",,
"United States of America","US","Mississippi","West Point","2474670","33.6076186","-88.6503255",,
"United States of America","US","Mississippi","Yazoo City","2474743","32.8551326","-90.4056469",,
"United States of America","US","Missouri","Affton","2474777","38.5498238195737","-90.3261811714012",,
"United States of America","US","Missouri","Arnold","2474879","38.4328317","-90.3776187",,
"United States of America","US","Missouri","Ballwin","2474946","38.5950182","-90.5469133",,
"United States of America","US","Missouri","Bellefontaine Neighbors","2475009","38.7403281","-90.2265001",,
"United States of America","US","Missouri","Belton","2475016","38.8119527","-94.5318982",,
"United States of America","US","Missouri","Berkeley","2475034","38.7441067870548","-90.3362042800558",,
"United States of America","US","Missouri","Blue Springs","2475105","39.0126828122665","-94.272387619079",,
"United States of America","US","Missouri","Bolivar","2475114","37.6061534688375","-93.417739312798",,
"United States of America","US","Missouri","Bridgeton","2475178","38.7671832298211","-90.4276211216518",,
"United States of America","US","Missouri","Cape Girardeau","2475314","37.3097089759225","-89.5582016601197",,
"United States of America","US","Missouri","Carthage","2475338","37.176447","-94.3102228",,
"United States of America","US","Missouri","Chesterfield","2475422","38.6560565","-90.5742029",,
"United States of America","US","Missouri","Clayton","2475459","38.6442709152504","-90.3300642112756",,
"United States of America","US","Missouri","Clinton","2475480","38.371550686581","-93.7678280923755",,
"United States of America","US","Missouri","Columbia","2475511","38.9481027000031","-92.3268153902929",,
"United States of America","US","Missouri","Crestwood","2475590","38.5569031661362","-90.3782696480732",,
"United States of America","US","Missouri","Creve Coeur","2475592","38.6621226437516","-90.4432378581688",,
"United States of America","US","Missouri","DeSoto","2673769","38.7125763400698","-90.6721048928717",,
"United States of America","US","Missouri","Ellisville","2475855","38.5938485","-90.5874773",,
"United States of America","US","Missouri","Excelsior Springs","2475921","39.3389720144408","-94.2378773426767",,
"United States of America","US","Missouri","Farmington","2475951","37.7829644719596","-90.4301788325146",,
"United States of America","US","Missouri","Ferguson","2475966","38.7442175","-90.3053915",,
"United States of America","US","Missouri","Festus","2475971","38.2206143214606","-90.4092680776448",,
"United States of America","US","Missouri","Florissant","2475998","38.7996452836006","-90.3278044988665",,
"United States of America","US","Missouri","Fort Leonard Wood","2674486","37.7057563096347","-92.1571421081965",,
"United States of America","US","Missouri","Fulton","2476071","38.8467082","-91.9479586",,
"United States of America","US","Missouri","Gladstone","2476140","39.2038918","-94.554677",,
"United States of America","US","Missouri","Grandview","2476196","38.8858407","-94.5330096",,
"United States of America","US","Missouri","Hannibal","2476304","39.7093667931391","-91.3928516941583",,
"United States of America","US","Missouri","Harrisonville","2476323","38.6530040720073","-94.3466679332102",,
"United States of America","US","Missouri","Hazelwood","2476357","38.7931294186652","-90.3902015400698",,
"United States of America","US","Missouri","Independence","2476542","39.0911161","-94.4155068",,
"United States of America","US","Missouri","Jackson","2476574","37.3793617803498","-89.6526506573722",,
"United States of America","US","Missouri","Jefferson City","2476596","38.5767026","-92.1735165",,
"United States of America","US","Missouri","Jennings","2476601","38.7230293203335","-90.2642499418741",,
"United States of America","US","Missouri","Joplin","2476616","37.0809450831302","-94.5055993486811",,
"United States of America","US","Missouri","Kansas City","2476632","39.0994728","-94.5813298",,
"United States of America","US","Missouri","Kennett","2476651","36.2403743480405","-90.0482311689577",,
"United States of America","US","Missouri","Kirksville","2476688","40.1985131089999","-92.5752528981051",,
"United States of America","US","Missouri","Kirkwood","2476689","38.5788859284045","-90.4202402676532",,
"United States of America","US","Missouri","Lake Saint Louis","2476746","38.797552","-90.7856848",,
"United States of America","US","Missouri","Lebanon","2476798","37.6805968","-92.6637865",,
"United States of America","US","Missouri","Lemay","2476811","38.533386","-90.2792814",,
"United States of America","US","Missouri","Liberty","2476832","39.2417267616029","-94.4188690322378",,
"United States of America","US","Missouri","Manchester","2476957","38.9630036248303","-94.4969565015836",,
"United States of America","US","Missouri","Maplewood","2476969","38.6120723780009","-90.3239818313835",,
"United States of America","US","Missouri","Marshall","2476986","39.114436546969","-93.2010163376724",,
"United States of America","US","Missouri","Maryland Heights","2476999","38.7131073","-90.4298401",,
"United States of America","US","Missouri","Maryville","2477001","40.3437481162267","-94.8704931518177",,
"United States of America","US","Missouri","Mehlville","2477059","38.5083865","-90.3228941",,
"United States of America","US","Missouri","Mexico","2477084","39.1636167444907","-91.8708331902695",,
"United States of America","US","Missouri","Moberly","2477148","39.4172272677641","-92.4364582473226",,
"United States of America","US","Missouri","Murphy","2477226","38.4921919680049","-90.4856569167113",,
"United States of America","US","Missouri","Neosho","2477258","36.8441369436111","-94.3749246018261",,
"United States of America","US","Missouri","Nixa","2477320","37.0433863","-93.294353",,
"United States of America","US","Missouri","Oakville","2477378","38.4700533","-90.3045605",,
"United States of America","US","Missouri","Overland","2477459","38.7011626","-90.3623381",,
"United States of America","US","Missouri","Ozark","2477470","37.0361433925168","-93.2147501859893",,
"United States of America","US","Missouri","Point Lookout","2673781","38.2816759115783","-93.4862697918045",,
"United States of America","US","Missouri","Poplar Bluff","2477639","36.7630449461235","-90.4121018608645",,
"United States of America","US","Missouri","Raymore","2477732","38.801953","-94.4527294",,
"United States of America","US","Missouri","Raytown","2477733","38.9943757295376","-94.4640789805106",,
"United States of America","US","Missouri","Republic","2477761","37.1398603811884","-93.4457339059919",,
"United States of America","US","Missouri","Richmond Heights","2477778","38.6282707","-90.3191285",,
"United States of America","US","Missouri","Rolla","2477839","37.9450521968006","-91.7613940758563",,
"United States of America","US","Missouri","Saint Ann","2477894","38.7272735","-90.3831719",,
"United States of America","US","Missouri","Saint Charles","2477899","38.7961912658894","-90.5156327359063",,
"United States of America","US","Missouri","Saint Joseph","2477909","39.7598249489555","-94.8209285825663",,
"United States of America","US","Missouri","Saint Louis","2477910","38.6264972","-90.1993244",,
"United States of America","US","Missouri","Saint Peters","2477915","38.7825702692769","-90.6059052232734",,
"United States of America","US","Missouri","Sappington","2477946","38.5369976","-90.3798401",,
"United States of America","US","Missouri","Sedalia","2477982","38.7044609","-93.2282613",,
"United States of America","US","Missouri","Sikeston","2478050","36.8767198","-89.5878663",,
"United States of America","US","Missouri","Spanish Lake","2478110","38.7882976157769","-90.2078832763273",,
"United States of America","US","Missouri","Springfield","2478130","37.2153307","-93.2982521",,
"United States of America","US","Missouri","Town and Country","2478329","38.6122751","-90.4634532",,
"United States of America","US","Missouri","University City","2478381","38.665645509451","-90.3314861111934",,
"United States of America","US","Missouri","Warrensburg","2478469","38.7627893","-93.7360498",,
"United States of America","US","Missouri","Washington","2478474","38.5516424974028","-91.0150570927572",,
"United States of America","US","Missouri","Webb City","2478488","37.1425857264921","-94.4704917966515",,
"United States of America","US","Missouri","Webster Groves","2478491","38.5866006663641","-90.3543883083405",,
"United States of America","US","Missouri","Wentzville","2478501","38.8164968677005","-90.8669029171615",,
"United States of America","US","Missouri","West Plains","2478518","36.7378279504502","-91.8679756742404",,
"United States of America","US","Missouri","Wildwood","2478566","38.5795893","-90.6294468",,
"United States of America","US","Montana","Anaconda","2478692","46.1285369","-112.9422641",,
"United States of America","US","Montana","Belgrade","2478754","45.7832025958348","-111.176081030316",,
"United States of America","US","Montana","Billings","2478797","45.7898435783689","-108.548725303404",,
"United States of America","US","Montana","Bozeman","2478840","45.6829526149561","-111.053964687074",,
"United States of America","US","Montana","Butte","2478878","45.9838436","-112.5007277",,
"United States of America","US","Montana","Dillon","2479059","45.2163106","-112.6375201",,
"United States of America","US","Montana","Glendive","2479248","47.1052899","-104.7124597",,
"United States of America","US","Montana","Great Falls","2479270","47.4886039417978","-111.290091498453",,
"United States of America","US","Montana","Hamilton","2479295","46.2529180657559","-114.159396743157",,
"United States of America","US","Montana","Havre","2479311","48.549999","-109.6840887",,
"United States of America","US","Montana","Helena","2479318","46.5927122","-112.036109",,
"United States of America","US","Montana","Kalispell","2479411","48.2022563","-114.3167117",,
"United States of America","US","Montana","Laurel","2479470","45.6733928976615","-108.770299815264",,
"United States of America","US","Montana","Lewistown","2479486","47.0624732","-109.428238",,
"United States of America","US","Montana","Livingston","2479501","45.6624354","-110.5610396",,
"United States of America","US","Montana","Miles City","2479589","46.4083362","-105.8405582",,
"United States of America","US","Montana","Missoula","2479602","46.8825432432687","-114.011231953608",,
"United States of America","US","Montana","Orchard Homes","2479696","46.8762253665461","-114.036826213168",,
"United States of America","US","Montana","Polson","2479757","47.6895191014676","-114.144377449187",,
"United States of America","US","Montana","Sidney","2479949","47.7140694057755","-104.16930102343",,
"United States of America","US","Montana","Whitefish","2480197","48.4099506","-114.3342212",,
"United States of America","US","Nebraska","Beatrice","2480332","40.2705538811585","-96.7461390903792",,
"United States of America","US","Nebraska","Bellevue","2480342","41.1589773873591","-95.9332009116569",,
"United States of America","US","Nebraska","Columbus","2480471","41.4353928586766","-97.3555629323452",,
"United States of America","US","Nebraska","Fremont","2480625","41.4412021822204","-96.4909503696082",,
"United States of America","US","Nebraska","Grand Island","2674327","40.924608447784","-98.3581602201792",,
"United States of America","US","Nebraska","Hastings","2480695","40.5861246","-98.388393",,
"United States of America","US","Nebraska","Kearney","2480786","40.699457","-99.0814767",,
"United States of America","US","Nebraska","La Vista","2480817","41.1823492837308","-96.0594662109829",,
"United States of America","US","Nebraska","Lexington","2480841","40.7786697762072","-99.7463939788253",,
"United States of America","US","Nebraska","Lincoln","2480845","40.8099528801383","-96.6807392764449",,
"United States of America","US","Nebraska","Norfolk","2480992","42.0348863474828","-97.4209302594873",,
"United States of America","US","Nebraska","North Platte","2480997","41.1269967330756","-100.763912953896",,
"United States of America","US","Nebraska","Omaha","2481022","41.2639341055802","-96.0379385724734",,
"United States of America","US","Nebraska","Papillion","2481051","41.1529974360929","-96.0443344058645",,
"United States of America","US","Nebraska","Scottsbluff","2481193","41.8676019170241","-103.661932070842",,
"United States of America","US","Nebraska","South Sioux City","2481233","42.4636136915514","-96.4147815201129",,
"United States of America","US","Nevada","Boulder City","2481473","35.9785912","-114.8324851",,
"United States of America","US","Nevada","Carson City","2481500","39.1510755039001","-119.747830780497",,
"United States of America","US","Nevada","Elko","2481588","41.145998066131","-115.357509048194",,
"United States of America","US","Nevada","Fallon","2481597","39.4738129","-118.7783956",,
"United States of America","US","Nevada","Fernley","2481601","39.56547478702","-119.193614378681",,
"United States of America","US","Nevada","Henderson","2481657","36.0391456","-114.9819235",,
"United States of America","US","Nevada","Las Vegas","2481714","36.2265384501485","-115.261742971713",,
"United States of America","US","Nevada","North Las Vegas","2481804","36.1988597","-115.1175031",,
"United States of America","US","Nevada","Pahrump","2481821","36.2083012","-115.9839128",,
"United States of America","US","Nevada","Paradise","2481826","36.0971963","-115.1466753",,
"United States of America","US","Nevada","Reno","2481868","39.5295269","-119.813779",,
"United States of America","US","Nevada","Sparks","2481928","39.5349169","-119.7526936",,
"United States of America","US","Nevada","Spring Valley","2481930","36.0987680590014","-115.262730325003",,
"United States of America","US","Nevada","Sun Valley","2481949","39.6106045815473","-119.776416512262",,
"United States of America","US","Nevada","Sunrise Manor","2481953","36.2110819","-115.0730563",,
"United States of America","US","Nevada","West Wendover","2482020","40.7406693504755","-114.078344592505",,
"United States of America","US","Nevada","Winchester","2482027","36.1299779","-115.1188894",,
"United States of America","US","Nevada","Winnemucca","2482028","40.9675906219935","-117.724941161818",,
"United States of America","US","New Hampshire","Alton","2482043","43.490484509985","-71.2460276745403",,
"United States of America","US","New Hampshire","Amherst","2482046","42.8614748","-71.6253487",,
"United States of America","US","New Hampshire","Atkinson","2482055","42.8369591863019","-71.1599572496154",,
"United States of America","US","New Hampshire","Auburn","2482059","42.9903794654849","-71.343987373259",,
"United States of America","US","New Hampshire","Barnstead","2482068","43.3514552045728","-71.2552989252631",,
"United States of America","US","New Hampshire","Barrington","2482070","43.2136670503279","-71.0423130126346",,
"United States of America","US","New Hampshire","Bedford","2482077","42.9464737","-71.5159015",,
"United States of America","US","New Hampshire","Belmont","2482079","43.4684934407775","-71.4743865705149",,
"United States of America","US","New Hampshire","Berlin","2482083","44.4686696","-71.1850768",,
"United States of America","US","New Hampshire","Bow","2673771","43.1309241531773","-71.5308424560403",,
"United States of America","US","New Hampshire","Brookline","2482118","42.7462155897841","-71.6708050600423",,
"United States of America","US","New Hampshire","Candia","2482135","43.0594347766408","-71.3099284763842",,
"United States of America","US","New Hampshire","Charlestown","2482155","43.2367224957604","-72.4238429675527",,
"United States of America","US","New Hampshire","Chester","2482162","42.9567525","-71.2572846",,
"United States of America","US","New Hampshire","Claremont","2482171","43.3789798103191","-72.3368355595259",,
"United States of America","US","New Hampshire","Concord","2482187","43.207106","-71.5370216",,
"United States of America","US","New Hampshire","Conway","2482194","43.9792376","-71.1203476",,
"United States of America","US","New Hampshire","Danville","2482219","42.9286859083718","-71.1210746833187",,
"United States of America","US","New Hampshire","Derry","2482227","42.8808677","-71.3264492",,
"United States of America","US","New Hampshire","Dover","2482239","43.1978624","-70.8736698",,
"United States of America","US","New Hampshire","Durham","2482249","43.1340949","-70.9265127",,
"United States of America","US","New Hampshire","Enfield","2482303","43.6447148740043","-72.1479601843658",,
"United States of America","US","New Hampshire","Epping","2482305","43.0500866270567","-71.0746357724121",,
"United States of America","US","New Hampshire","Epsom","2482306","43.2151723372805","-71.3382178141871",,
"United States of America","US","New Hampshire","Exeter","2482310","42.981477","-70.9478343",,
"United States of America","US","New Hampshire","Farmington","2482314","43.3634003479753","-71.0765867777481",,
"United States of America","US","New Hampshire","Franklin","2482333","43.4442432","-71.6472988",,
"United States of America","US","New Hampshire","Gilford","2482348","43.5579740703316","-71.3850347292916",,
"United States of America","US","New Hampshire","Goffstown","2482360","43.0203609","-71.600349",,
"United States of America","US","New Hampshire","Hampstead","2482389","42.882188676906","-71.1702444147472",,
"United States of America","US","New Hampshire","Hampton","2482390","42.9390247058734","-70.8352001042581",,
"United States of America","US","New Hampshire","Hancock","2674108","42.9757501031233","-71.9957756324796",,
"United States of America","US","New Hampshire","Hanover","2482397","43.7033073","-72.2885663",,
"United States of America","US","New Hampshire","Haverhill","2482405","42.7762015","-71.0772796",,
"United States of America","US","New Hampshire","Henniker","2482412","43.1735592000171","-71.8228060018514",,
"United States of America","US","New Hampshire","Hillsborough","2482424","43.1488459554721","-71.9469658244367",,
"United States of America","US","New Hampshire","Hollis","2482429","42.7494073392534","-71.5837766672387",,
"United States of America","US","New Hampshire","Hooksett","2482433","43.0710939252231","-71.4371273889511",,
"United States of America","US","New Hampshire","Hopkinton","2482434","43.1978822828749","-71.6971429156332",,
"United States of America","US","New Hampshire","Hudson","2482439","42.7639186408595","-71.4070909451223",,
"United States of America","US","New Hampshire","Jaffrey","2482448","42.8292426912951","-72.0596190570092",,
"United States of America","US","New Hampshire","Keene","2482460","42.933597","-72.2784264",,
"United States of America","US","New Hampshire","Kingston","2482469","42.9156095414956","-71.0663266907816",,
"United States of America","US","New Hampshire","Laconia","2482471","43.5278546","-71.470351",,
"United States of America","US","New Hampshire","Lebanon","2482485","43.6458194","-72.2495442",,
"United States of America","US","New Hampshire","Lee","2482486","43.1196447303952","-71.006917933457",,
"United States of America","US","New Hampshire","Litchfield","2482495","42.843219475246","-71.4548562540909",,
"United States of America","US","New Hampshire","Littleton","2482498","44.3061725","-71.7700885",,
"United States of America","US","New Hampshire","Londonderry","2482503","42.8650869","-71.3739532",,
"United States of America","US","New Hampshire","Loudon","2482508","43.3214257584463","-71.4407090987742",,
"United States of America","US","New Hampshire","Manchester","2482525","42.9956397","-71.4547891",,
"United States of America","US","New Hampshire","Meredith","2482547","43.6575747","-71.500352",,
"United States of America","US","New Hampshire","Merrimack","2482552","42.8650864","-71.4934004",,
"United States of America","US","New Hampshire","Milford","2482556","42.8182927177904","-71.6740808589565",,
"United States of America","US","New Hampshire","Milton","2482560","43.4495348821091","-71.0077401493438",,
"United States of America","US","New Hampshire","Moultonborough","2482568","43.7547966","-71.3967392",,
"United States of America","US","New Hampshire","Nashua","2482576","42.7653662","-71.467566",,
"United States of America","US","New Hampshire","New Boston","2482579","42.9775515029921","-71.6858412006102",,
"United States of America","US","New Hampshire","New Ipswich","2482584","42.7481421","-71.8542429",,
"United States of America","US","New Hampshire","New London","2482586","43.4186924380996","-71.9902848709135",,
"United States of America","US","New Hampshire","Newmarket","2482593","43.0691471551369","-70.9514799102746",,
"United States of America","US","New Hampshire","Newport","2482594","43.3719975373391","-72.1747705067051",,
"United States of America","US","New Hampshire","Newton","2482595","42.8685062077466","-71.0434974005729",,
"United States of America","US","New Hampshire","North Hampton","2482612","42.9784897009822","-70.8284269313272",,
"United States of America","US","New Hampshire","Northfield","2482638","43.4111107576952","-71.5721190336955",,
"United States of America","US","New Hampshire","Ossipee","2482656","43.685355","-71.1167341",,
"United States of America","US","New Hampshire","Pelham","2482670","42.7335163126882","-71.3241245646037",,
"United States of America","US","New Hampshire","Pembroke","2482671","43.1803100773597","-71.4497227506596",,
"United States of America","US","New Hampshire","Peterborough","2482679","42.8706392","-71.9517459",,
"United States of America","US","New Hampshire","Pittsfield","2482691","43.2940601295966","-71.3095672575897",,
"United States of America","US","New Hampshire","Plaistow","2482695","42.8364781","-71.0947805",,
"United States of America","US","New Hampshire","Plymouth","2482696","43.7570166","-71.6881337",,
"United States of America","US","New Hampshire","Portsmouth","2482700","43.0717552","-70.7625532",,
"United States of America","US","New Hampshire","Raymond","2482717","43.0321824884245","-71.1993821269108",,
"United States of America","US","New Hampshire","Rindge","2482722","42.7523257504991","-72.0105218197687",,
"United States of America","US","New Hampshire","Rochester","2482731","43.3045261","-70.9756186",,
"United States of America","US","New Hampshire","Rye","2482746","43.0012419482283","-70.7211790816768",,
"United States of America","US","New Hampshire","Salem","2482752","42.7884226","-71.2008933",,
"United States of America","US","New Hampshire","Sandown","2482761","42.928698","-71.1870053",,
"United States of America","US","New Hampshire","Seabrook","2482772","42.8869228085873","-70.8605687148964",,
"United States of America","US","New Hampshire","Somersworth","2482795","43.2534197910584","-70.8854173428749",,
"United States of America","US","New Hampshire","Stratham","2482849","43.0158381352223","-70.9006028454583",,
"United States of America","US","New Hampshire","Swanzey","2482857","42.8624952915451","-72.2960077679557",,
"United States of America","US","New Hampshire","Wakefield","2482897","42.506484","-71.0728306",,
"United States of America","US","New Hampshire","Weare","2482910","43.0812346986406","-71.7218137149634",,
"United States of America","US","New Hampshire","Windham","2482980","42.8076687987067","-71.2993547219174",,
"United States of America","US","New Hampshire","Wolfeboro","2482987","43.5839671","-71.2072903",,
"United States of America","US","New Jersey","Aberdeen Township","2674690","40.4297851828328","-74.2223828233526",,
"United States of America","US","New Jersey","Asbury Park","2483063","40.2203907","-74.0120817",,
"United States of America","US","New Jersey","Atlantic City","2483068","39.3773215272984","-74.4512438267033",,
"United States of America","US","New Jersey","Audubon","2483072","39.8905885294795","-75.0722319741021",,
"United States of America","US","New Jersey","Avenel","2483077","40.5803818","-74.2851469",,
"United States of America","US","New Jersey","Bayonne","2483119","40.6648883094845","-74.109327373611",,
"United States of America","US","New Jersey","Beachwood","2483134","39.939007","-74.1929188",,
"United States of America","US","New Jersey","Belleville","2483153","40.7949319735132","-74.1618774096353",,
"United States of America","US","New Jersey","Bellmawr","2483154","39.8665423057438","-75.0942667707012",,
"United States of America","US","New Jersey","Bergenfield","2483169","40.9234057806491","-73.9981535940189",,
"United States of America","US","New Jersey","Berkeley Heights","2483171","40.6764169027002","-74.4244179402152",,
"United States of America","US","New Jersey","Bloomfield","2483200","40.806767","-74.1854226",,
"United States of America","US","New Jersey","Bound Brook","2483214","40.5675751138026","-74.5384794627378",,
"United States of America","US","New Jersey","Branchburg","2673876",,,,
"United States of America","US","New Jersey","Brick Township","2675058","40.059951645959","-74.1098771009841",,
"United States of America","US","New Jersey","Bridgeton","2483244","39.4284976247285","-75.2280571179627",,
"United States of America","US","New Jersey","Brigantine","2483248","39.4127132715748","-74.3801918828979",,
"United States of America","US","New Jersey","Burlington","2483286","40.0712218","-74.8648859",,
"United States of America","US","New Jersey","Camden","2483302","39.936190875473","-75.1072962272954",,
"United States of America","US","New Jersey","Carteret","2483328","40.5838187168164","-74.2273253372891",,
"United States of America","US","New Jersey","Cedar Grove","2483340","40.8566794199999","-74.2286582138425",,
"United States of America","US","New Jersey","Cherry Hill","2483370","39.9348351","-75.0307264",,
"United States of America","US","New Jersey","Cinnaminson","2483389","39.9967789","-74.99267",,
"United States of America","US","New Jersey","Clark","2483391","40.6202192894658","-74.3136894010157",,
"United States of America","US","New Jersey","Cliffside Park","2483407","40.8220801928315","-73.9878330199447",,
"United States of America","US","New Jersey","Clifton","2483410","40.8631532449155","-74.1575512999917",,
"United States of America","US","New Jersey","Collingswood","2483429","39.9159337758195","-75.0758659598296",,
"United States of America","US","New Jersey","Colonia","2483432","40.5745485","-74.3020918",,
"United States of America","US","New Jersey","Cranford","2483473","40.6564729221205","-74.3037205804563",,
"United States of America","US","New Jersey","Delran","2673894","40.0169546002255","-74.9491928805633",,
"United States of America","US","New Jersey","Deptford","2674329","39.8314706406064","-75.097257695965",,
"United States of America","US","New Jersey","Dover","2483547","40.8858612863353","-74.5596707400605",,
"United States of America","US","New Jersey","Dumont","2483558","40.9450156658818","-73.9924701003779",,
"United States of America","US","New Jersey","East Brunswick","2483571","40.4282816541121","-74.4178391825441",,
"United States of America","US","New Jersey","East Hanover","2483575","40.8200998","-74.3648731",,
"United States of America","US","New Jersey","East Orange","2483581","40.7650593350641","-74.2118605062156",,
"United States of America","US","New Jersey","East Windsor","2673796",,,,
"United States of America","US","New Jersey","Eatontown","2483588","40.291275010135","-74.0558191502165",,
"United States of America","US","New Jersey","Edgewater","2483596","40.8270448","-73.975694",,
"United States of America","US","New Jersey","Edison","2483601","40.5357743081709","-74.3694688730784",,
"United States of America","US","New Jersey","Elizabeth","2483609","40.6639916","-74.2107006",,
"United States of America","US","New Jersey","Elmwood Park","2483617","40.9047909584047","-74.1201241639163",,
"United States of America","US","New Jersey","Englewood","2483625","40.8917108480178","-73.9734929003389",,
"United States of America","US","New Jersey","Ewing","2483648","40.2698302","-74.7998848",,
"United States of America","US","New Jersey","Fair Lawn","2483652","40.9357581662411","-74.117721459373",,
"United States of America","US","New Jersey","Fairview","2483657","40.8181533491427","-74.0022757276489",,
"United States of America","US","New Jersey","Florham Park","2483693","40.7772653555293","-74.3955592849473",,
"United States of America","US","New Jersey","Fords","2483697","40.5292715","-74.3159809",,
"United States of America","US","New Jersey","Fort Dix","2483705","40.0298427","-74.6184933",,
"United States of America","US","New Jersey","Fort Lee","2483708","40.8506739209182","-73.9711717956224",,
"United States of America","US","New Jersey","Franklin Lakes","2483727","41.0084945111573","-74.2081872297868",,
"United States of America","US","New Jersey","Freehold","2483732","40.260111","-74.2737573",,
"United States of America","US","New Jersey","Garfield","2483749","40.8791726582421","-74.1084017633323",,
"United States of America","US","New Jersey","Glassboro","2483771","39.7027552","-75.1119313",,
"United States of America","US","New Jersey","Glen Rock","2483777","40.9599368798867","-74.1248564374939",,
"United States of America","US","New Jersey","Gloucester City","2483785","39.8923899849715","-75.1172536906571",,
"United States of America","US","New Jersey","Green Brook","2516380",,,,
"United States of America","US","New Jersey","Guttenberg","2483838","40.7927443482328","-74.0046519664511",,
"United States of America","US","New Jersey","Hackensack","2483839","40.8889795326183","-74.0460991561293",,
"United States of America","US","New Jersey","Hackettstown","2483840","40.8539878","-74.8290556",,
"United States of America","US","New Jersey","Haddonfield","2483847","39.8953395277896","-75.0344006594717",,
"United States of America","US","New Jersey","Hammonton","2483863","39.657107562208","-74.7679261440004",,
"United States of America","US","New Jersey","Harrison","2483888","40.7430469102694","-74.1532265781832",,
"United States of America","US","New Jersey","Hasbrouck Heights","2483894","40.8619607854468","-74.0741356615015",,
"United States of America","US","New Jersey","Hawthorne","2483899","40.9579407751101","-74.1583096424217",,
"United States of America","US","New Jersey","Highland Park","2483934","40.500500535526","-74.4282996458481",,
"United States of America","US","New Jersey","Hillsdale","2483940","41.0072963897675","-74.0440540599106",,
"United States of America","US","New Jersey","Hillside","2483942","40.6960149073234","-74.2286571413093",,
"United States of America","US","New Jersey","Hoboken","2483949","40.7451965084219","-74.0279717608859",,
"United States of America","US","New Jersey","Hopatcong","2483968","40.9332051","-74.6600975",,
"United States of America","US","New Jersey","Howell","2674331","40.1819488780264","-74.1976377332331",,
"United States of America","US","New Jersey","Irvington","2484000","40.7242001581187","-74.231806250724",,
"United States of America","US","New Jersey","Iselin","2484001","40.5753817","-74.3223703",,
"United States of America","US","New Jersey","Jersey City","2484019","40.711619538711","-74.0648223937231",,
"United States of America","US","New Jersey","Keansburg","2484035","40.4693941158113","-74.14870715408",,
"United States of America","US","New Jersey","Kearny","2484036","40.752631152394","-74.1202470146733",,
"United States of America","US","New Jersey","Kinnelon","2484056","40.9845794182815","-74.3861687614114",,
"United States of America","US","New Jersey","Lakewood","2484085","40.0978929","-74.2176435",,
"United States of America","US","New Jersey","Lincoln Park","2484139","40.9239022740601","-74.3034714112826",,
"United States of America","US","New Jersey","Lindenwold","2484143","39.8172213956571","-74.9894395035542",,
"United States of America","US","New Jersey","Linden","2484141","40.6220478","-74.2445902",,
"United States of America","US","New Jersey","Little Falls","2484148","40.8762477131098","-74.2183384621722",,
"United States of America","US","New Jersey","Little Ferry","2484149","40.8462981332665","-74.0385657415126",,
"United States of America","US","New Jersey","Livingston","2484156","40.7856544449265","-74.3291180506738",,
"United States of America","US","New Jersey","Lodi","2484167","40.8783662074717","-74.0814375463872",,
"United States of America","US","New Jersey","Long Branch","2484171","40.2962685920883","-73.9897602296264",,
"United States of America","US","New Jersey","Lyndhurst","2484193","40.7965908986543","-74.1101852236393",,
"United States of America","US","New Jersey","Madison","2484200","40.7583052689058","-74.4172711018917",,
"United States of America","US","New Jersey","Manchester","2674145","39.9648488446912","-74.3732109368204",,
"United States of America","US","New Jersey","Manville","2484227","40.5420591864121","-74.5891736890836",,
"United States of America","US","New Jersey","Maple Shade","2484230","39.9526127","-74.9923915",,
"United States of America","US","New Jersey","Maplewood","2484231","40.7329721822636","-74.2712543406554",,
"United States of America","US","New Jersey","Marlton","2484239","39.8912248","-74.9218325",,
"United States of America","US","New Jersey","Maywood","2484267","40.9023726954194","-74.0632719246886",,
"United States of America","US","New Jersey","Metuchen","2484293","40.5421974002403","-74.3627301855604",,
"United States of America","US","New Jersey","Middlesex","2484300","40.5744143548287","-74.5010691423265",,
"United States of America","US","New Jersey","Millburn","2484312","40.7394277580994","-74.3240993329387",,
"United States of America","US","New Jersey","Millville","2484318","39.3902909067258","-75.056110271163",,
"United States of America","US","New Jersey","Montclair","2484337","40.8255359395394","-74.2110860650641",,
"United States of America","US","New Jersey","Morristown","2484358","40.796592076002","-74.4770372992173",,
"United States of America","US","New Jersey","Mount Holly","2484369","40.0023341","-74.7884958",,
"United States of America","US","New Jersey","Neptune","2673799","40.2002112338794","-74.0336206142549",,
"United States of America","US","New Jersey","New Brunswick","2484414","40.4870034771077","-74.4449736692156",,
"United States of America","US","New Jersey","New Milford","2484426","40.9337869834915","-74.019487209191",,
"United States of America","US","New Jersey","New Providence","2484428","40.6996523269971","-74.4036578707133",,
"United States of America","US","New Jersey","Newark","2484432","40.735657","-74.1723667",,
"United States of America","US","New Jersey","North Arlington","2484451","40.7872608520214","-74.1267595117796",,
"United States of America","US","New Jersey","North Bergen","2484454","40.7938913528374","-74.0241694310142",,
"United States of America","US","New Jersey","North Brunswick","2673698",,,,
"United States of America","US","New Jersey","North Plainfield","2484468","40.6210130372614","-74.4384718632604",,
"United States of America","US","New Jersey","Nutley","2484487","40.8192456392667","-74.1571496654848",,
"United States of America","US","New Jersey","Oakland","2484499","41.0312884889175","-74.2411200408204",,
"United States of America","US","New Jersey","Ocean City","2484509","39.2691341178727","-74.6019751110188",,
"United States of America","US","New Jersey","Ocean","2673793","39.7576202","-74.1061466",,
"United States of America","US","New Jersey","Old Bridge","2484519","40.4148291","-74.3654267",,
"United States of America","US","New Jersey","Orange","2484528","40.7706562","-74.2326463",,
"United States of America","US","New Jersey","Palisades Park","2484554","40.8470537741786","-73.9964763878725",,
"United States of America","US","New Jersey","Paramus","2484560","40.9455599112074","-74.0711895738744",,
"United States of America","US","New Jersey","Passaic","2484576","40.8574584974383","-74.1281122142672",,
"United States of America","US","New Jersey","Paterson","2484578","40.9146874875721","-74.1624181144306",,
"United States of America","US","New Jersey","Pennsauken","2484603","39.9562238","-75.0579502",,
"United States of America","US","New Jersey","Pennsville","2484604","39.6534464","-75.5165881",,
"United States of America","US","New Jersey","Perth Amboy","2484614","40.5198204652879","-74.2707759782965",,
"United States of America","US","New Jersey","Phillipsburg","2484621","40.6893631447976","-75.1821156103637",,
"United States of America","US","New Jersey","Pine Hill","2484632","39.7842813","-74.9921108",,
"United States of America","US","New Jersey","Pitman","2484647","39.7331897507386","-75.1307794146988",,
"United States of America","US","New Jersey","Plainfield","2484649","40.6152782862129","-74.4158792972768",,
"United States of America","US","New Jersey","Pleasantville","2484664","39.3897656973285","-74.516781952982",,
"United States of America","US","New Jersey","Point Pleasant","2484669","40.0773210346599","-74.0701371608897",,
"United States of America","US","New Jersey","Pompton Lakes","2484681","41.0027948925148","-74.2857305558167",,
"United States of America","US","New Jersey","Princeton","2484711","40.3487181","-74.6590472",,
"United States of America","US","New Jersey","Rahway","2484732","40.6077688135135","-74.2808082285987",,
"United States of America","US","New Jersey","Ramsey","2484737","41.0594550673527","-74.1456802591974",,
"United States of America","US","New Jersey","Randolph","2673745","40.8809629223881","-74.1265955579382",,
"United States of America","US","New Jersey","Red Bank","2484751","40.3481547833603","-74.0672749987498",,
"United States of America","US","New Jersey","Ridgefield Park","2484774","40.8543087516294","-74.0198833964",,
"United States of America","US","New Jersey","Ridgefield","2484773","40.8312197782045","-74.014551510269",,
"United States of America","US","New Jersey","Ridgewood","2484776","40.9821179499514","-74.1126663788167",,
"United States of America","US","New Jersey","Ringwood","2484782","41.1063099932618","-74.2753654818421",,
"United States of America","US","New Jersey","River Edge","2484785","40.926845622971","-74.0387205002629",,
"United States of America","US","New Jersey","Roselle Park","2484823","40.6652648521024","-74.2667056480681",,
"United States of America","US","New Jersey","Roselle","2484822","40.65271514498","-74.2599224938164",,
"United States of America","US","New Jersey","Roxbury","2484831","40.5664943","-73.8906918",,
"United States of America","US","New Jersey","Rutherford","2484841","40.820388472835","-74.1058681143469",,
"United States of America","US","New Jersey","Saddle Brook","2484842","40.9031447867974","-74.0955484652524",,
"United States of America","US","New Jersey","Sayreville","2484861","40.4661619556515","-74.319758687005",,
"United States of America","US","New Jersey","Scotch Plains","2484870","40.6328478964466","-74.3738985136521",,
"United States of America","US","New Jersey","Secaucus","2484889","40.780939851709","-74.06611785608",,
"United States of America","US","New Jersey","Shamong","2483995","39.7780096957653","-74.7266745673044",,
"United States of America","US","New Jersey","Somers Point","2484955","39.3166387630609","-74.6070006550676",,
"United States of America","US","New Jersey","Somerset","2484956","40.4976041","-74.4884868",,
"United States of America","US","New Jersey","Somerville","2484959","40.5696223102446","-74.609278021318",,
"United States of America","US","New Jersey","South Brunswick Township","2484966","40.3840793616303","-74.5254922558169",,
"United States of America","US","New Jersey","South Orange","2484974","40.7474966","-74.2635376",,
"United States of America","US","New Jersey","South Plainfield","2484978","40.574657858459","-74.415109449144",,
"United States of America","US","New Jersey","South River","2484979","40.4452735688993","-74.378152654729",,
"United States of America","US","New Jersey","Springfield","2485001","40.6992893043189","-74.3259308632023",,
"United States of America","US","New Jersey","Summit","2485052","40.7154076706024","-74.364903071405",,
"United States of America","US","New Jersey","Teaneck","2485080","40.8975992","-74.0159727",,
"United States of America","US","New Jersey","Tenafly","2485082","40.9253766","-73.9629154",,
"United States of America","US","New Jersey","Tinton Falls","2485098","40.2707416522863","-74.0948662766272",,
"United States of America","US","New Jersey","Toms River","2485102","39.9420418125178","-74.1668988534117",,
"United States of America","US","New Jersey","Totowa","2485103","40.9039030450426","-74.2215766976974",,
"United States of America","US","New Jersey","Trenton","2485115","40.2237289942773","-74.7639943299639",,
"United States of America","US","New Jersey","Union City","2485135","40.7674606353378","-74.0322937488483",,
"United States of America","US","New Jersey","Union","2485133","40.6954034398916","-74.2699844123582",,
"United States of America","US","New Jersey","Ventnor City","2485167","39.342010344647","-74.4826832243324",,
"United States of America","US","New Jersey","Verona","2485173","40.8329972433544","-74.2433774691729",,
"United States of America","US","New Jersey","Vineland","2485184","39.4862245","-75.0257241",,
"United States of America","US","New Jersey","Waldwick","2485190","41.0132047776361","-74.1260372111983",,
"United States of America","US","New Jersey","Wallington","2485193","40.8535140496989","-74.1066739026085",,
"United States of America","US","New Jersey","Wall","2673816","40.7067241","-74.0091832",,
"United States of America","US","New Jersey","Wanaque","2485198","41.0381526","-74.2940378",,
"United States of America","US","New Jersey","Warren","2673813","40.8898209","-74.7958991",,
"United States of America","US","New Jersey","Washington Township","2674332","40.2218614836502","-74.591234371027",,
"United States of America","US","New Jersey","Wayne","2485225","40.9481763531273","-74.2450528697521",,
"United States of America","US","New Jersey","Weehawken","2485229","40.7695457","-74.0204177",,
"United States of America","US","New Jersey","West Caldwell","2485248","40.8485223568594","-74.2969546124831",,
"United States of America","US","New Jersey","West Deptford","2674333",,,,
"United States of America","US","New Jersey","West Freehold","2485259","40.2420556","-74.301258",,
"United States of America","US","New Jersey","West Milford","2485265","41.1053224634439","-74.3909152920552",,
"United States of America","US","New Jersey","West New York","2485267","40.7856586572282","-74.0093095735744",,
"United States of America","US","New Jersey","West Orange","2485268","40.789489618149","-74.2627636176991",,
"United States of America","US","New Jersey","West Paterson","2485269","40.8903619405515","-74.194860236714",,
"United States of America","US","New Jersey","West Windsor","2673814",,,,
"United States of America","US","New Jersey","Westampton Township","2675059","40.0116341","-74.8073755",,
"United States of America","US","New Jersey","Westfield","2485279","40.6516367421849","-74.3433763085732",,
"United States of America","US","New Jersey","Westwood","2485285","40.9878755832277","-74.0307950293086",,
"United States of America","US","New Jersey","Williamstown","2485318","39.6862263","-74.995168",,
"United States of America","US","New Jersey","Willingboro","2485320","40.0278894","-74.8690542",,
"United States of America","US","New Jersey","Woodbridge","2485343","40.5576045","-74.2845911",,
"United States of America","US","New Jersey","Woodbury","2485345","39.8377779396568","-75.1523390465414",,
"United States of America","US","New Jersey","Wyckoff","2485374","40.9987912332451","-74.1675133846864",,
"United States of America","US","New Mexico","Alamogordo","2485412","32.8995325","-105.960265",,
"United States of America","US","New Mexico","Albuquerque","2485415","35.1053078568429","-106.64757040441",,
"United States of America","US","New Mexico","Artesia","2485467","32.8475217840904","-104.428039523093",,
"United States of America","US","New Mexico","Aztec","2485477","36.8189020423535","-107.982017935169",,
"United States of America","US","New Mexico","Belen","2485496","34.6803653982787","-106.787569311179",,
"United States of America","US","New Mexico","Bernalillo","2485505","35.3125694592508","-106.55349563049",,
"United States of America","US","New Mexico","Bloomfield","2485523","36.72618637138","-107.979091940823",,
"United States of America","US","New Mexico","Carlsbad","2485579","32.4061412045173","-104.238504678865",,
"United States of America","US","New Mexico","Clovis","2485651","34.4047987","-103.2052272",,
"United States of America","US","New Mexico","Corrales","2485676","35.2367327549229","-106.619105805703",,
"United States of America","US","New Mexico","Deming","2485721","32.2637684990971","-107.75184668735",,
"United States of America","US","New Mexico","Espanola","2485809","36.0039747808813","-106.067582556137",,
"United States of America","US","New Mexico","Farmington","2485822","36.7563692196157","-108.17767762185",,
"United States of America","US","New Mexico","Gallup","2485855","35.5177125212966","-108.74755481126",,
"United States of America","US","New Mexico","Grants","2485889","35.1538554265178","-107.834768357676",,
"United States of America","US","New Mexico","Hobbs","2485939","32.7026116","-103.1360403",,
"United States of America","US","New Mexico","Las Cruces","2486071","32.3123157","-106.7783374",,
"United States of America","US","New Mexico","Las Vegas","2486081","35.5939325","-105.2238969",,
"United States of America","US","New Mexico","Los Alamos","2486115","35.8880796","-106.3069722",,
"United States of America","US","New Mexico","Los Lunas","2486129","34.8063824496375","-106.760186239361",,
"United States of America","US","New Mexico","Los Ranchos de Albuquerque","2486138","35.1619885","-106.6428038",,
"United States of America","US","New Mexico","Lovington","2486147","32.9456608666067","-103.35047296383",,
"United States of America","US","New Mexico","North Valley","2486302","35.1205860725222","-106.632322092235",,
"United States of America","US","New Mexico","Portales","2486408","34.1861922","-103.3343978",,
"United States of America","US","New Mexico","Raton","2486449","36.9033581","-104.4391533",,
"United States of America","US","New Mexico","Rio Rancho","2486478","35.3019294064962","-106.663900662959",,
"United States of America","US","New Mexico","Roswell","2486502","33.3729848563348","-104.52933251331",,
"United States of America","US","New Mexico","Ruidoso","2486507","33.3646094075367","-105.64362239479",,
"United States of America","US","New Mexico","Santa Fe","2486567","35.6705305496964","-105.96860449917",,
"United States of America","US","New Mexico","Silver City","2486609","32.7782926273262","-108.269871017198",,
"United States of America","US","New Mexico","Socorro","2486614","34.0572791","-106.8930518",,
"United States of America","US","New Mexico","South Valley","2486629","35.0090298844194","-106.682016188452",,
"United States of America","US","New Mexico","Sunland Park","2486647","31.796496","-106.5799891",,
"United States of America","US","New Mexico","Taos","2486656","36.386848592604","-105.580259090425",,
"United States of America","US","New Mexico","Truth or Consequences","2486717","33.1284047","-107.2528069",,
"United States of America","US","New Mexico","Tucumcari","2486720","35.1717231","-103.7249663",,
"United States of America","US","New York","Albany","2486858","42.6511674","-73.754968",,
"United States of America","US","New York","Amityville","2486917","40.6695572673638","-73.4156135579579",,
"United States of America","US","New York","Amsterdam","2486918","42.9419592987041","-74.1906333396683",,
"United States of America","US","New York","Arlington","2486964","41.6962266118846","-73.8853509218414",,
"United States of America","US","New York","Auburn","2487004","42.9317335","-76.5660529",,
"United States of America","US","New York","Babylon","2487023","40.6948829238729","-73.3271077301504",,
"United States of America","US","New York","Baldwin","2487047","40.6634786234958","-73.6104015221619",,
"United States of America","US","New York","Batavia","2487098","42.9987084670915","-78.1802306901604",,
"United States of America","US","New York","Bay Shore","2487110","40.7250986","-73.2453946",,
"United States of America","US","New York","Beacon","2487124","41.5035833960442","-73.9654358798686",,
"United States of America","US","New York","Bellmore","2487174","40.6569031262107","-73.5283432558374",,
"United States of America","US","New York","Bethpage","2487219","40.7442664","-73.4820687",,
"United States of America","US","New York","Binghamton","2487241","42.1014778244387","-75.9092412694433",,
"United States of America","US","New York","Bohemia","2487291","40.7692649","-73.1151118",,
"United States of America","US","New York","Brentwood","2487360","40.7812093","-73.2462273",,
"United States of America","US","New York","Briarwood","2674488","40.705367838962","-73.4780623134795",,
"United States of America","US","New York","Brighton","2487377","43.1175840229169","-77.5833026441644",,
"United States of America","US","New York","Bronx","2487397","40.8501002","-73.8662464",,
"United States of America","US","New York","Brooklyn","2487404","40.6501038","-73.9495823",,
"United States of America","US","New York","Buffalo","2487444","42.8864468","-78.8783689",,
"United States of America","US","New York","Canandaigua","2487529","42.8885151314711","-77.2805406491756",,
"United States of America","US","New York","Centereach","2487630","40.8584316","-73.0995539",,
"United States of America","US","New York","Central Islip","2487635","40.7906538","-73.2017811",,
"United States of America","US","New York","Cheektowaga","2487672","42.908183124212","-78.7496153691727",,
"United States of America","US","New York","Cohoes","2487787","42.7742446","-73.7001187",,
"United States of America","US","New York","Commack","2487826","40.8442300960804","-73.283380170639",,
"United States of America","US","New York","Copiague","2487876","40.6840538","-73.4008102",,
"United States of America","US","New York","Coram","2487877","40.8687097","-73.0014946",,
"United States of America","US","New York","Corning","2487886","42.1470212412459","-77.0561523979786",,
"United States of America","US","New York","Cornwall","2673772","40.7911111","-73.9747222",,
"United States of America","US","New York","Cortlandt Manor","2673890",,,,
"United States of America","US","New York","Cortland","2487893","42.6011813","-76.1804843",,
"United States of America","US","New York","Deer Park","2488042","40.7617653","-73.3292858",,
"United States of America","US","New York","Depew","2488074","42.9117920997575","-78.7043359274531",,
"United States of America","US","New York","Dix Hills","2488101","40.8036359562183","-73.3370351889051",,
"United States of America","US","New York","Dobbs Ferry","2488103","41.012641449557","-73.869785365969",,
"United States of America","US","New York","Dunkirk","2488143","42.4803951238415","-79.3322676470157",,
"United States of America","US","New York","East Islip","2488253","40.7259856082234","-73.1873351639321",,
"United States of America","US","New York","East Massapequa","2488269","40.6627778","-73.4283333",,
"United States of America","US","New York","East Meadow","2488271","40.7139898","-73.5590157",,
"United States of America","US","New York","East Northport","2488279","40.880707064326","-73.3215657260823",,
"United States of America","US","New York","East Patchogue","2488288","40.7703495922861","-72.9815611717919",,
"United States of America","US","New York","East Rockaway","2488302","40.6431314144027","-73.6671495023555",,
"United States of America","US","New York","Eastchester","2488341","40.9578606452948","-73.8079797464823",,
"United States of America","US","New York","Elmira","2488416","42.0897965","-76.8077338",,
"United States of America","US","New York","Elmont","2488418","40.700936","-73.712909",,
"United States of America","US","New York","Elwood","2488429","40.8461980310653","-73.338874305232",,
"United States of America","US","New York","Endicott","2488437","42.098408","-76.0493684",,
"United States of America","US","New York","Endwell","2488438","42.1184388457151","-76.0218710058986",,
"United States of America","US","New York","Fairmount","2488468","43.0472886","-76.2385383",,
"United States of America","US","New York","Farmingville","2488487","40.8312096","-73.029552",,
"United States of America","US","New York","Floral Park","2488558","40.7225765569576","-73.7029445797932",,
"United States of America","US","New York","Fort Drum","2673869","44.0584365132312","-75.7618840220965",,
"United States of America","US","New York","Franklin Square","2488643","40.7001832451379","-73.6774861734613",,
"United States of America","US","New York","Fredonia","2488648","42.4406733848367","-79.3319895326167",,
"United States of America","US","New York","Freeport","2488654","40.6515595758917","-73.5849856276582",,
"United States of America","US","New York","Fulton","2488685","43.3167414981175","-76.4162306386605",,
"United States of America","US","New York","Garden City","2488711","40.7266205958382","-73.6447056008095",,
"United States of America","US","New York","Geneva","2488743","42.8644115096734","-76.9826444741112",,
"United States of America","US","New York","Glen Cove","2488782","40.8623217","-73.6337389",,
"United States of America","US","New York","Glens Falls","2488807","43.3108326810627","-73.6458813129326",,
"United States of America","US","New York","Gloversville","2488815","43.0528506","-74.3437467",,
"United States of America","US","New York","Grand Island","2480661","43.033112","-78.9625405",,
"United States of America","US","New York","Great Neck","2488874","40.8006567","-73.7284647",,
"United States of America","US","New York","Greece","2488880","43.2095180015874","-77.7026472823811",,
"United States of America","US","New York","Hamburg","2488995","42.7234084457217","-78.8348748021605",,
"United States of America","US","New York","Harrison","2489056","40.7430469102694","-74.1532265781832",,
"United States of America","US","New York","Hartsdale","2489065","41.0239703894062","-73.8053030938128",,
"United States of America","US","New York","Hauppauge","2489083","40.8256537","-73.2026138",,
"United States of America","US","New York","Haverstraw","2489087","41.1932008605923","-73.951904049931",,
"United States of America","US","New York","Hempstead","2489117","40.7043041947231","-73.6192987327827",,
"United States of America","US","New York","Hicksville","2489147","40.7684331","-73.5251253",,
"United States of America","US","New York","Holbrook","2489196","40.8123205","-73.078443",,
"United States of America","US","New York","Holtsville","2489209","40.8153762","-73.0451085",,
"United States of America","US","New York","Huntington Station","2489284","40.8446308098833","-73.4049636193124",,
"United States of America","US","New York","Huntington","2489281","40.868154","-73.425676",,
"United States of America","US","New York","Irondequoit","2489337","43.210335963223","-77.5706933036764",,
"United States of America","US","New York","Islip","2489350","40.7298207","-73.2103934",,
"United States of America","US","New York","Ithaca","2489355","42.4441317737705","-76.5031801203721",,
"United States of America","US","New York","Jamaica Estates","2673812",,,,
"United States of America","US","New York","Jamestown","2489369","42.097486282948","-79.2366566239335",,
"United States of America","US","New York","Jericho","2489389","40.7875402438165","-73.5420032446139",,
"United States of America","US","New York","Johnson City","2489403","42.1156308","-75.9588092",,
"United States of America","US","New York","Kenmore","2489458","42.9567901","-78.8731563",,
"United States of America","US","New York","Kings Park","2489495","40.8890134055879","-73.2459229480399",,
"United States of America","US","New York","Kingston","2489500","41.9270987","-73.99611",,
"United States of America","US","New York","Kiryas Joel","2489509","41.3401090506078","-74.1669509017099",,
"United States of America","US","New York","Lackawanna","2489543","42.825611","-78.8233695",,
"United States of America","US","New York","Lake Grove","2489565","40.8528761","-73.1151102",,
"United States of America","US","New York","Lake Ronkonkoma","2489581","40.8350983","-73.1312222",,
"United States of America","US","New York","Lancaster","2489600","42.9006983313637","-78.6701132991683",,
"United States of America","US","New York","Levittown","2489662","40.7241468253172","-73.5125366478813",,
"United States of America","US","New York","Lindenhurst","2489698","40.6867667","-73.3734547",,
"United States of America","US","New York","Lockport","2489740","43.1706125","-78.6903133",,
"United States of America","US","New York","Long Beach","2489757","40.5855881205513","-73.6654987975103",,
"United States of America","US","New York","Lynbrook","2489811","40.6578612067597","-73.6741793059259",,
"United States of America","US","New York","Mamaroneck","2489861","40.932960275057","-73.7260694953949",,
"United States of America","US","New York","Manhattan","2673562","40.7834345","-73.9662495",,
"United States of America","US","New York","Massapequa Park","2489938","40.6803785","-73.4551241",,
"United States of America","US","New York","Massapequa","2489937","40.6676823046539","-73.4707780708856",,
"United States of America","US","New York","Massena","2489939","44.9291630825319","-74.8923498251072",,
"United States of America","US","New York","Mastic Beach","2489943","40.7667655","-72.8520476",,
"United States of America","US","New York","Mastic","2489942","40.8020431","-72.8409359",,
"United States of America","US","New York","Medford","2489992","40.821240810094","-72.9865346517777",,
"United States of America","US","New York","Melville","2490000","40.7934322","-73.4151214",,
"United States of America","US","New York","Merrick","2490011","40.6628796","-73.551516",,
"United States of America","US","New York","Middletown","2490039","41.44577127574","-74.4228449552119",,
"United States of America","US","New York","Mineola","2490084","40.7469704061721","-73.6391834136932",,
"United States of America","US","New York","Monsey","2490112","41.1183419121452","-74.0683134902362",,
"United States of America","US","New York","Mount Kisco","2490177","41.2018663688164","-73.7282160067303",,
"United States of America","US","New York","Mount Vernon","2490189","40.9136008054426","-73.8291000614081",,
"United States of America","US","New York","Nanuet","2490221","41.0956942175762","-74.0155673810201",,
"United States of America","US","New York","Nassau County","2673556","40.600685904762","-73.486014033966",,
"United States of America","US","New York","Nesconset","2490247","40.8520426","-73.1540004",,
"United States of America","US","New York","New Cassel","2490259","40.7589892","-73.5695712",,
"United States of America","US","New York","New City","2490260","41.1469917","-73.9902998",,
"United States of America","US","New York","New Hyde Park","2490276","40.7351019","-73.6879082",,
"United States of America","US","New York","New Rochelle","2490287","40.9230785073042","-73.779957480563",,
"United States of America","US","New York","New York","2490299","40.6639794658547","-73.9382651457157",,
"United States of America","US","New York","Newark","2490301","43.0417667038719","-77.0930414286308",,
"United States of America","US","New York","Newburgh","2490305","41.5036972835406","-74.0204721898831",,
"United States of America","US","New York","Niagara Falls","2490320","43.0921351815849","-79.0148403536673",,
"United States of America","US","New York","North Amityville","2490348","40.6976002","-73.425123",,
"United States of America","US","New York","North Babylon","2490351","40.7164881","-73.3217861",,
"United States of America","US","New York","North Bay Shore","2490356","40.7362096","-73.2626174",,
"United States of America","US","New York","North Bellmore","2490359","40.6903465757737","-73.5390165217831",,
"United States of America","US","New York","North Lindenhurst","2490437","40.7142663","-73.3815102",,
"United States of America","US","New York","North Massapequa","2490441","40.7009337","-73.4620685",,
"United States of America","US","New York","North Merrick","2490442","40.6912125","-73.5631827",,
"United States of America","US","New York","North New Hyde Park","2490445","40.7431574","-73.6931861",,
"United States of America","US","New York","North Tonawanda","2490476","43.038668","-78.8642034",,
"United States of America","US","New York","North Valley Stream","2490478","40.6851028","-73.7017976",,
"United States of America","US","New York","North Wantagh","2490481","40.6934341","-73.5076257",,
"United States of America","US","New York","Oceanside","2490544","40.6327987701094","-73.636290978445",,
"United States of America","US","New York","Ogdensburg","2490549","44.6942291","-75.4863364",,
"United States of America","US","New York","Olean","2490568","42.0818513679485","-78.4321391315478",,
"United States of America","US","New York","Oneida","2490577","43.0925684","-75.6512931",,
"United States of America","US","New York","Oneonta","2490583","42.4528571","-75.0637746",,
"United States of America","US","New York","Ossining","2490623","41.157073","-73.8691752",,
"United States of America","US","New York","Oswego","2490625","43.4553461","-76.5104973",,
"United States of America","US","New York","Patchogue","2490723","40.7621566986955","-73.018535755007",,
"United States of America","US","New York","Pearl River","2490741","41.0615347656974","-74.0047650100148",,
"United States of America","US","New York","Peekskill","2490752","41.289811","-73.9204922",,
"United States of America","US","New York","Plainview","2490856","40.7832480841845","-73.4731846008122",,
"United States of America","US","New York","Plattsburgh","2490868","44.6967952","-73.4879659",,
"United States of America","US","New York","Port Chester","2490920","41.0052292927992","-73.6679808152121",,
"United States of America","US","New York","Port Jervis","2490930","41.3783498025642","-74.6910050746013",,
"United States of America","US","New York","Port Washington","2490937","40.8273605533002","-73.6805783588058",,
"United States of America","US","New York","Potsdam","2490949","44.6691352869359","-74.9856603553883",,
"United States of America","US","New York","Poughkeepsie","2490955","41.6949253837532","-73.9210511705781",,
"United States of America","US","New York","Queens","2491013","40.7498243","-73.7976337",,
"United States of America","US","New York","Ridge","2491121","43.3420114","-76.6793959",,
"United States of America","US","New York","Rochester","2491158","43.1688417971729","-77.6159448611057",,
"United States of America","US","New York","Rome","2491192","43.2128473","-75.4557304",,
"United States of America","US","New York","Ronkonkoma","2491195","40.8153761","-73.112333",,
"United States of America","US","New York","Roosevelt","2491196","40.678713","-73.5890168",,
"United States of America","US","New York","Rotterdam","2491229","42.7785678990338","-73.9537726404103",,
"United States of America","US","New York","Rye Brook","2491257","41.0192641","-73.6834621",,
"United States of America","US","New York","Rye","2491256","40.9494946609386","-73.675100327037",,
"United States of America","US","New York","Saint James","2491277","40.8761038162162","-73.1519443458759",,
"United States of America","US","New York","Saratoga Springs","2491327","43.0831301","-73.7845651",,
"United States of America","US","New York","Sayville","2491341","40.7473843646376","-73.0841486124604",,
"United States of America","US","New York","Scarsdale","2491343","40.9901945736383","-73.777312641414",,
"United States of America","US","New York","Schenectady","2491348","42.8025188701743","-73.927527979454",,
"United States of America","US","New York","Seaford","2491385","40.6659344","-73.4881809",,
"United States of America","US","New York","Selden","2491398","40.8664874","-73.0356625",,
"United States of America","US","New York","Shirley","2491462","40.8014876","-72.8676033",,
"United States of America","US","New York","Sleepy Hollow","2491515","41.0933409638632","-73.8724649364293",,
"United States of America","US","New York","Smithtown","2491538","40.8595219876157","-73.2160123859941",,
"United States of America","US","New York","South Farmingdale","2491613","40.7206555","-73.4401232",,
"United States of America","US","New York","South Huntington","2491634","40.8225104793288","-73.3922069090308",,
"United States of America","US","New York","Spring Valley","2491730","41.1148434982494","-74.0484730221222",,
"United States of America","US","New York","Staten Island","2673555","40.5834379","-74.1495875",,
"United States of America","US","New York","Stony Brook","2491818","40.9256538","-73.140943",,
"United States of America","US","New York","Stony Point","2491822","41.229394772252","-73.9965599115887",,
"United States of America","US","New York","Suffern","2491840","41.1136510945385","-74.1419989327198",,
"United States of America","US","New York","Suffolk County","2673557","41.0208145752624","-72.1768469104049",,
"United States of America","US","New York","Syosset","2491889","40.8262101","-73.502068",,
"United States of America","US","New York","Syracuse","2491890","43.0481221","-76.1474244",,
"United States of America","US","New York","Tarrytown","2491904","41.0762077","-73.8587461",,
"United States of America","US","New York","Terryville","2491924","40.908995997591","-73.0491308461131",,
"United States of America","US","New York","Tonawanda","2491991","43.0106887287235","-78.8798135500313",,
"United States of America","US","New York","Troy","2492019","42.7284117","-73.6917851",,
"United States of America","US","New York","Uniondale","2492075","40.7019418815193","-73.590907556659",,
"United States of America","US","New York","Utica","2492099","43.1009031","-75.2326641",,
"United States of America","US","New York","Valley Stream","2492114","40.664631529211","-73.7043418326815",,
"United States of America","US","New York","Wantagh","2492219","40.6837121","-73.5101258",,
"United States of America","US","New York","Watertown","2492246","43.9734286390891","-75.9093565126704",,
"United States of America","US","New York","Watervliet","2492250","42.7243903947577","-73.7069400981071",,
"United States of America","US","New York","West Babylon","2492302","40.718155","-73.3542871",,
"United States of America","US","New York","West Haverstraw","2492368","41.2061480653197","-73.9886409237783",,
"United States of America","US","New York","West Hempstead","2492370","40.6958487292922","-73.650731541222",,
"United States of America","US","New York","West Islip","2492376","40.7097182013297","-73.2972665817602",,
"United States of America","US","New York","West Seneca","2492425","42.8500585","-78.7997547",,
"United States of America","US","New York","Westbury","2492446","40.7600330993261","-73.589055820771",,
"United States of America","US","New York","White Plains","2492495","41.0339862","-73.7629097",,
"United States of America","US","New York","Woodmere","2492598","40.6374747940862","-73.7219090288182",,
"United States of America","US","New York","Yonkers","2492648","40.9465937655854","-73.8673790625837",,
"United States of America","US","North Carolina","Albemarle","2492692","35.3606205563533","-80.1916495392003",,
"United States of America","US","North Carolina","Apex","2492745","35.732652","-78.8502856",,
"United States of America","US","North Carolina","Archdale","2492758","35.914581","-79.9719831",,
"United States of America","US","North Carolina","Asheboro","2492776","35.720697321502","-79.8128033818725",,
"United States of America","US","North Carolina","Asheville","2492778","35.5748157105349","-82.5527925405884",,
"United States of America","US","North Carolina","Boone","2493060","36.2106248042053","-81.6684137218955",,
"United States of America","US","North Carolina","Burlington","2493187","36.0956918","-79.4377991",,
"United States of America","US","North Carolina","Carrboro","2493292","35.9259118114708","-79.0876842695109",,
"United States of America","US","North Carolina","Cary","2493299","35.7811149782033","-78.81406990273",,
"United States of America","US","North Carolina","Chapel Hill","2493362","35.926939063616","-79.0386050165781",,
"United States of America","US","North Carolina","Charlotte","2493367","35.2270869","-80.8431268",,
"United States of America","US","North Carolina","Clayton","2493415","35.6613189248241","-78.4471768823678",,
"United States of America","US","North Carolina","Clemmons","2493420","36.0317337211064","-80.3859185341362",,
"United States of America","US","North Carolina","Concord","2493491","35.4087517","-80.579511",,
"United States of America","US","North Carolina","Cornelius","2493522","35.4868032","-80.8600736",,
"United States of America","US","North Carolina","Dunn","2493752","35.3112650261685","-78.6142791711344",,
"United States of America","US","North Carolina","Durham","2493758","35.9940329","-78.898619",,
"United States of America","US","North Carolina","Eden","2493817","36.5032719747333","-79.741091126345",,
"United States of America","US","North Carolina","Elizabeth City","2493849","36.2944766509228","-76.2329677731256",,
"United States of America","US","North Carolina","Fayetteville","2493974","35.0603921147987","-78.951410972897",,
"United States of America","US","North Carolina","Fort Bragg","2674345","35.1324976799541","-79.1495797235269",,
"United States of America","US","North Carolina","Fuquay-Varina","2494102","35.5918906650149","-78.7823662555751",,
"United States of America","US","North Carolina","Garner","2494116","35.7112642","-78.6141709",,
"United States of America","US","North Carolina","Gastonia","2494122","35.2479715795471","-81.1843650882187",,
"United States of America","US","North Carolina","Goldsboro","2494196","35.378363874681","-77.9715104873532",,
"United States of America","US","North Carolina","Graham","2494216","36.0592138331467","-79.3892854766389",,
"United States of America","US","North Carolina","Greensboro","2494261","36.095053016927","-79.8245452336685",,
"United States of America","US","North Carolina","Greenville","2494263","35.5967719228125","-77.3796006432109",,
"United States of America","US","North Carolina","Havelock","2494393","34.9078399932208","-76.8984618986842",,
"United States of America","US","North Carolina","Hendersonville","2494436","35.3187317","-82.4609603",,
"United States of America","US","North Carolina","Henderson","2494435","36.3257681633919","-78.4157766709803",,
"United States of America","US","North Carolina","Hickory","2494453","35.7428302026089","-81.3232652996369",,
"United States of America","US","North Carolina","High Point","2494473","35.9556924","-80.0053176",,
"United States of America","US","North Carolina","Holly Springs","2494541","35.6553223250775","-78.8374265588878",,
"United States of America","US","North Carolina","Hope Mills","2494566","34.9704419","-78.9453056",,
"United States of America","US","North Carolina","Huntersville","2494598","35.4058399035053","-80.8749159460957",,
"United States of America","US","North Carolina","Indian Trail","2494627","35.0888329983702","-80.6348037721909",,
"United States of America","US","North Carolina","Jacksonville","2494667","34.7540524","-77.4302415",,
"United States of America","US","North Carolina","Kannapolis","2494741","35.4873613","-80.6217341",,
"United States of America","US","North Carolina","Kernersville","2494768","36.1071366177936","-80.0874919167097",,
"United States of America","US","North Carolina","Kings Mountain","2494786","35.23571309422","-81.3472723765566",,
"United States of America","US","North Carolina","Kinston","2494790","35.2750446505032","-77.5911718213014",,
"United States of America","US","North Carolina","Laurinburg","2494888","34.7596636753177","-79.4780807935253",,
"United States of America","US","North Carolina","Lenoir","2494916","35.9056824723901","-81.5269496992709",,
"United States of America","US","North Carolina","Lewisville","2494928","36.1026014192128","-80.41655406455",,
"United States of America","US","North Carolina","Lexington","2494930","35.8240265","-80.2533838",,
"United States of America","US","North Carolina","Lincolnton","2494948","35.474293000603","-81.238667501213",,
"United States of America","US","North Carolina","Lumberton","2495029","34.6304922320032","-79.017817412608",,
"United States of America","US","North Carolina","Matthews","2495117","35.1194889859801","-80.7100646690255",,
"United States of America","US","North Carolina","Mint Hill","2495242","35.1779321220586","-80.6546577851275",,
"United States of America","US","North Carolina","Monroe","2495261","35.0451766025702","-80.5642883817672",,
"United States of America","US","North Carolina","Mooresville","2495281","35.5849683509192","-80.8244209852929",,
"United States of America","US","North Carolina","Morganton","2495288","35.7454071","-81.6848188",,
"United States of America","US","North Carolina","Mount Holly","2495312","35.3070963376534","-81.0140101039672",,
"United States of America","US","North Carolina","New Bern","2495388","35.0965684417296","-77.07232835351",,
"United States of America","US","North Carolina","Newton","2495419","35.6632105652549","-81.233226618852",,
"United States of America","US","North Carolina","Pinehurst","2495742","35.1954345","-79.4694767",,
"United States of America","US","North Carolina","Piney Green","2495759","34.7505010306412","-77.3207790893995",,
"United States of America","US","North Carolina","Raleigh","2495894","35.8326085005232","-78.6447478136395",,
"United States of America","US","North Carolina","Reidsville","2495950","36.3367330579526","-79.673201531683",,
"United States of America","US","North Carolina","Roanoke Rapids","2496019","36.4453844323398","-77.6490291468459",,
"United States of America","US","North Carolina","Rockingham","2496041","34.9389452008817","-79.7606213981491",,
"United States of America","US","North Carolina","Rocky Mount","2496048","35.9382104","-77.7905341",,
"United States of America","US","North Carolina","Salisbury","2496148","35.6709727","-80.4742261",,
"United States of America","US","North Carolina","Sanford","2496174","35.4798757","-79.1802994",,
"United States of America","US","North Carolina","Shelby","2496275","35.289140775798","-81.54220700284",,
"United States of America","US","North Carolina","Smithfield","2496365","35.5134766514954","-78.3500254624481",,
"United States of America","US","North Carolina","Southern Pines","2496418","35.1911515422507","-79.403792583335",,
"United States of America","US","North Carolina","Statesville","2496482","35.7855978475817","-80.8697368745826",,
"United States of America","US","North Carolina","Tarboro","2496607","35.9047621958708","-77.5561858903342",,
"United States of America","US","North Carolina","Thomasville","2496648","35.8812552937893","-80.0807594522059",,
"United States of America","US","North Carolina","Wake Forest","2496835","35.9635337191142","-78.5152350115754",,
"United States of America","US","North Carolina","Washington","2496870","35.5578557551023","-77.0543124271329",,
"United States of America","US","North Carolina","Waynesville","2496896","35.4844891598557","-82.9995482282709",,
"United States of America","US","North Carolina","Wilmington","2497044","34.2128930214584","-77.8843201324289",,
"United States of America","US","North Carolina","Wilson","2497048","35.7340995511234","-77.9320610663071",,
"United States of America","US","North Carolina","Winston-Salem","2497073","36.1030657359421","-80.2607426088965",,
"United States of America","US","North Dakota","Bismarck","2497227","46.8083268","-100.7837392",,
"United States of America","US","North Dakota","Devils Lake","2497343","48.112779","-98.8651202",,
"United States of America","US","North Dakota","Dickinson","2497345","46.8857649585987","-102.786414476812",,
"United States of America","US","North Dakota","Fargo","2497407","46.8171100045162","-96.8351446486133",,
"United States of America","US","North Dakota","Grafton","2497467","48.4146600008512","-97.4063136062944",,
"United States of America","US","North Dakota","Grand Forks","2497468","47.9122699944052","-97.0751781440454",,
"United States of America","US","North Dakota","Jamestown","2497550","46.9105439","-98.7084358",,
"United States of America","US","North Dakota","Mandan","2497646","46.8264369","-100.8896545",,
"United States of America","US","North Dakota","Minot","2497694","48.2341336434543","-101.294174536692",,
"United States of America","US","North Dakota","Valley City","2497950","46.9225666354537","-98.0056396059234",,
"United States of America","US","North Dakota","Wahpeton","2497964","46.2711894691342","-96.610637819608",,
"United States of America","US","North Dakota","West Fargo","2497983","46.8566406296033","-96.9042535954681",,
"United States of America","US","North Dakota","Williston","2497994","48.1634845328356","-103.63249490367",,
"United States of America","US","Ohio","Akron","2498071","41.080103041391","-81.521927175923",,
"United States of America","US","Ohio","Alliance","2498092","40.9153362","-81.1059309",,
"United States of America","US","Ohio","Amherst","2498112","41.4022553876223","-82.2303470720626",,
"United States of America","US","Ohio","Ashland","2498173","40.7887367","-82.2360391",,
"United States of America","US","Ohio","Ashtabula","2498176","41.6441885","-80.7689615",,
"United States of America","US","Ohio","Athens","2498182","39.400446","-82.0205534",,
"United States of America","US","Ohio","Aurora","2498202","41.3118508225037","-81.3450207085862",,
"United States of America","US","Ohio","Austintown","2498206","41.1017247","-80.7645239",,
"United States of America","US","Ohio","Avon Lake","2498217","41.4945042462653","-82.0160697875945",,
"United States of America","US","Ohio","Avon","2498215","41.448525395096","-82.018740976349",,
"United States of America","US","Ohio","Barberton","2498249","41.012833","-81.6051221",,
"United States of America","US","Ohio","Bay Village","2498280","41.4885572323884","-81.9285328174774",,
"United States of America","US","Ohio","Beachwood","2498286","41.4759964298613","-81.50280297932",,
"United States of America","US","Ohio","Beavercreek","2498303","39.7311605099723","-84.0626639985957",,
"United States of America","US","Ohio","Bedford Heights","2498310","41.4169982","-81.5273428",,
"United States of America","US","Ohio","Bedford","2498309","41.3918483055132","-81.5359148963485",,
"United States of America","US","Ohio","Bellefontaine","2498331","40.3611643","-83.7596557",,
"United States of America","US","Ohio","Berea","2498354","41.3696517682503","-81.8644541790022",,
"United States of America","US","Ohio","Bexley","2498379","39.9649864049694","-82.934125896523",,
"United States of America","US","Ohio","Blacklick Estates","2498409","39.9050639","-82.8643435",,
"United States of America","US","Ohio","Blue Ash","2498440","39.247941239032","-84.3824040375563",,
"United States of America","US","Ohio","Boardman","2498451","41.0323404319865","-80.668141648896",,
"United States of America","US","Ohio","Bowling Green","2498481","41.3747744","-83.6513229",,
"United States of America","US","Ohio","Brecksville","2498508","41.307854157805","-81.6194131365214",,
"United States of America","US","Ohio","Broadview Heights","2498547","41.3139426","-81.6851271",,
"United States of America","US","Ohio","Brook Park","2498554","41.4036664752141","-81.8217855198016",,
"United States of America","US","Ohio","Brooklyn","2498559","41.4348633539344","-81.7497954483119",,
"United States of America","US","Ohio","Brunswick","2498583","41.2381096","-81.8418007",,
"United States of America","US","Ohio","Bucyrus","2498601","40.8051869219585","-82.9717038485662",,
"United States of America","US","Ohio","Cambridge","2498658","40.0233659658717","-81.5867188215675",,
