"country","country_code","region","city","id","osm_lat","osm_long","g_lat","g_long"
"United States","US",,"Adjuntas",2514579,18.16,-66.72,27.12,-101.27
"United States","US",,"Aguada",2514581,18.38,-67.19,30.98,-107.52
"United States","US",,"Aguas Buenas",2514583,18.26,-66.11,,
"United States","US",,"Anasco",2514601,18.29,-67.14,27.43,-82.68
"United States","US",,"Arroyo",2514610,14.53,121.02,36.01,-105.86
"United States","US",,"Barceloneta",2514624,18.45,-66.54,,
"United States","US",,"Barranquitas",2514628,18.18,-66.31,25.8,-97.37
"United States","US",,"Cabo Rojo",2514669,18.09,-67.15,25.65,-100.27
"United States","US",,"Camuy",2514696,18.48,-66.85,36.29,-115.23
"United States","US",,"Candelaria",2514700,30.5,-112.28,30.13,-104.68
"United States","US",,"Canovanas",2514703,18.38,-65.91,18.43,-65.88
"United States","US",,"Ciales",2514743,18.33,-66.47,26.71,-81.91
"United States","US",,"Cidra",2514744,18.18,-66.16,33.67,-116.28
"United States","US",,"Coamo",2514749,18.08,-66.36,25.85,-97.53
"United States","US",,"Comerio",2514759,18.22,-66.22,27.87,-82.62
"United States","US",,"Corozal",2514774,18.34,-66.31,33.69,-117.66
"United States","US",,"Dorado",2514804,33.22,-92.66,37.55,-122.27
"United States","US",,"Florida",2514880,27.54,-81.41,27.66,-81.52
"United States","US",,"Guayanilla",2514906,18.02,-66.79,,
"United States","US",,"Gurabo",2514910,18.25,-65.98,,
"United States","US",,"Hatillo",2515089,18.48,-66.82,22.51,-80
"United States","US",,"Isabela",2515116,18.48,-67.01,36.58,-92.61
"United States","US",,"Jayuya",2515133,18.22,-66.6,,
"United States","US",,"Juana Diaz",2515140,18.05,-66.5,28.6,-106.04
"United States","US",,"Juncos",2515143,30.71,-112.01,35.87,-75.58
"United States","US",,"Lajas",2515198,18.05,-67.06,20.28,-76.19
"United States","US",,"Lares",2515201,18.3,-66.88,40.68,-111.79
"United States","US",,"Loiza",2515245,18.43,-65.88,18.43,-65.88
"United States","US",,"Maunabo",2515306,18.01,-65.9,18.05,-65.88
"United States","US",,"Moca",2515321,18.4,-67.12,33.38,-84.78
"United States","US",,"Morovis",2515332,18.33,-66.41,,
"United States","US",,"Naranjito",2515341,18.3,-66.25,23.07,-82.38
"United States","US",,"Orocovis",2515355,18.23,-66.39,,
"United States","US",,"Patillas",2515393,18.01,-66.01,38.94,-104.77
"United States","US",,"Penuelas",2515398,18.06,-66.72,25.67,-100.25
"United States","US",,"Quebradillas",2515455,18.47,-66.94,,
"United States","US",,"Rincon",2515477,32.67,-107.08,32.3,-81.24
"United States","US",,"Rio Grande",2515483,18.38,-65.84,38.88,-82.38
"United States","US",,"Sabana Grande",2515506,18.08,-66.97,35.24,-106.65
"United States","US",,"Salinas",2515516,36.68,-121.64,36.68,-121.66
"United States","US",,"San German",2515528,18.08,-67.05,20.6,-76.13
"United States","US",,"San Lorenzo",2515533,18.19,-65.97,37.68,-122.12
"United States","US",,"Santa Isabel",2515548,17.97,-66.4,34.03,-118.21
"United States","US",,"Toa Alta",2515594,18.39,-66.25,18.39,-66.25
"United States","US",,"Toa Baja",2515595,18.44,-66.25,18.46,-66.11
"United States","US",,"Trujillo Alto",2515606,18.36,-66.01,18.4,-66.01
"United States","US",,"Utuado",2515613,18.27,-66.7,25.85,-97.53
"United States","US",,"Vega Alta",2515622,18.42,-66.32,22.55,-79.82
"United States","US",,"Vega Baja",2515623,18.44,-66.4,32.62,-115.58
"United States","US",,"Vieques",2515629,18.43,-65.84,18.13,-65.49
"United States","US",,"Villalba",2515652,18.13,-66.48,32.59,-115.48
"United States","US",,"Yabucoa",2515659,18.05,-65.88,18.05,-65.88
"Uruguay","UY",,"Artigas",2549482,-30.62,-56.97,-30.49,-57.1
"Uruguay","UY",,"Bella Unión",2549512,-30.26,-57.6,-30.26,-57.59
"Uruguay","UY",,"Canelones",2549551,-34.54,-55.93,-34.55,-55.94
"Uruguay","UY",,"Carmelo",2549570,-34,-58.28,-34,-58.28
"Uruguay","UY",,"Chuy",2549619,-33.7,-53.46,-33.68,-53.45
"Uruguay","UY",,"Colonia",2549639,-34.13,-57.66,-32.52,-55.77
"Uruguay","UY",,"Delta del Tigre",2549700,-34.76,-56.41,-34.76,-56.36
"Uruguay","UY",,"Dolores",2549707,-33.53,-58.22,-33.54,-58.21
"Uruguay","UY",,"Durazno",2549712,-33.38,-56.52,-33.08,-56.02
"Uruguay","UY",,"Florida",2549776,-34.1,-56.22,-34.1,-56.22
"Uruguay","UY",,"Fray Bentos",2549780,-33.12,-58.3,-33.13,-58.3
"Uruguay","UY",,"Juan Lacaze",2549842,-34.43,-57.44,-34.42,-57.46
"Uruguay","UY",,"La Paz",2549879,-34.76,-56.23,-34.77,-56.23
"Uruguay","UY",,"Las Piedras",2549898,-30.25,-57.58,-34.72,-56.22
"Uruguay","UY",,"Maldonado",2549952,-34.9,-54.95,-34.9,-54.95
"Uruguay","UY",,"Melo",2549974,-32.37,-54.16,-32.36,-54.18
"Uruguay","UY",,"Mercedes",2549979,-33.25,-58.03,-33.7,-65.45
"Uruguay","UY",,"Minas",2549986,-34.37,-55.23,-34.38,-55.23
"Uruguay","UY",,"Montevideo",2549997,-34.9,-56.16,-34.88,-56.18
"Uruguay","UY",,"Nueva Helvecia",2550006,-34.29,-57.23,-34.29,-57.24
"Uruguay","UY",,"Pando",2550034,-34.72,-55.96,-34.72,-55.96
"Uruguay","UY",,"Paso de Carrasco",2550045,-34.86,-56.04,-34.86,-56.05
"Uruguay","UY",,"Paso de los Toros",2550063,-32.81,-56.52,-32.82,-56.51
"Uruguay","UY",,"Paysandú",2550083,-32.07,-57.34,-32.32,-58.08
"Uruguay","UY",,"Progreso",2550192,-34.68,-56.22,-34.67,-56.22
"Uruguay","UY",,"Rivera",2550300,-30.9,-55.55,-30.91,-55.55
"Uruguay","UY",,"Rocha",2550301,-34.48,-54.33,-33.97,-53.91
"Uruguay","UY",,"Río Branco",2550296,-32.6,-53.38,-32.6,-53.39
"Uruguay","UY",,"Salto",2550316,-31.32,-57.03,-31.4,-57.96
"Uruguay","UY",,"San Carlos",2550321,-34.79,-54.92,-34.8,-54.91
"Uruguay","UY",,"San José",2550342,-34.31,-56.73,-34.25,-56.74
"Uruguay","UY",,"Santa Lucía",2550364,-34.46,-56.39,-34.45,-56.39
"Uruguay","UY",,"Tacuarembó",2550424,-31.72,-55.98,-31.73,-55.98
"Uruguay","UY",,"Treinta y Tres",2550445,-33.23,-54.38,-33.15,-54.26
"Uruguay","UY",,"Trinidad",2550454,-33.52,-56.9,-33.52,-56.9
"Uruguay","UY",,"Young",2550529,-32.7,-57.63,-32.71,-57.64
"Venezuela","VE",,"Acarigua",2556293,10.24,-67.64,9.56,-69.2
"Venezuela","VE",,"Altagracia de Orituco",2556602,,,9.85,-66.38
"Venezuela","VE",,"Anaco",2556729,9.43,-64.46,9.43,-64.46
"Venezuela","VE",,"Araure",2556876,9.63,-69.17,9.65,-69.24
"Venezuela","VE",,"Bachaquero",2557060,9.96,-71.12,9.96,-71.12
"Venezuela","VE",,"Barcelona",2557200,10.14,-64.68,10.13,-64.69
"Venezuela","VE",,"Barinas",2557209,8.17,-69.83,8.63,-70.21
"Venezuela","VE",,"Barinitas",2557210,8.76,-70.41,8.76,-70.41
"Venezuela","VE",,"Barquisimeto",2557229,10.24,-67.61,10.06,-69.33
"Venezuela","VE",,"Baruta",2557345,10.48,-66.87,10.44,-66.87
"Venezuela","VE",,"Cabimas",2557942,10.4,-71.46,10.4,-71.45
"Venezuela","VE",,"Cabudare",2557954,10.02,-69.27,10.02,-69.26
"Venezuela","VE",,"Cagua",2558017,10.17,-67.46,10.18,-67.45
"Venezuela","VE",,"Calabozo",2558086,8.93,-67.43,8.92,-67.43
"Venezuela","VE",,"Cantaura",2558583,9.31,-64.36,9.3,-64.36
"Venezuela","VE",,"Caraballeda",2558653,10.61,-66.85,10.61,-66.85
"Venezuela","VE",,"Caracas",2558674,10.5,-66.91,10.49,-66.9
"Venezuela","VE",,"Carora",2558853,10.18,-70.07,10.18,-70.07
"Venezuela","VE",,"Carrizal",2558897,8.56,-71.2,10.35,-66.99
"Venezuela","VE",,"Carúpano",2558939,10.51,-66.88,10.67,-63.25
"Venezuela","VE",,"Catia La Mar",2559104,10.6,-67.04,10.6,-67.03
"Venezuela","VE",,"Caucaguita",2559117,,,10.48,-66.74
"Venezuela","VE",,"Chacao",2559317,10.49,-66.86,10.25,-68.2
"Venezuela","VE",,"Charallave",2559405,10.24,-66.86,10.24,-66.86
"Venezuela","VE",,"Chivacoa",2559502,10.16,-68.9,10.16,-68.9
"Venezuela","VE",,"Ciudad Bolívar",2559617,8.13,-63.54,8.12,-63.55
"Venezuela","VE",,"Ciudad Guayana",2559621,8.33,-62.71,8.37,-62.64
"Venezuela","VE",,"Ciudad Ojeda",2559623,,,10.2,-71.3
"Venezuela","VE",,"Coro",2559893,11.41,-69.67,11.4,-69.68
"Venezuela","VE",,"Cumaná",2560197,10.46,-64.17,10.46,-64.17
"Venezuela","VE",,"Cúa",2560067,10.16,-66.89,10.17,-66.88
"Venezuela","VE",,"Ejido",2560445,8.55,-71.24,8.56,-71.23
"Venezuela","VE",,"El Cafetal",2560869,,,10.47,-66.83
"Venezuela","VE",,"El Hatillo",2561896,,,10.1,-65.24
"Venezuela","VE",,"El Limón",2562099,10.3,-67.63,10.3,-67.63
"Venezuela","VE",,"El Tigre",2563398,8.89,-64.25,8.88,-64.25
"Venezuela","VE",,"El Tocuyo",2563438,9.53,-70.02,9.78,-69.79
"Venezuela","VE",,"El Vigía",2563639,8.61,-71.66,8.62,-71.65
"Venezuela","VE",,"Goaigoaza",2564012,,,10.49,-68.04
"Venezuela","VE",,"Guacara",2564062,7.76,-72.23,10.25,-67.9
"Venezuela","VE",,"Guanare",2564222,9.05,-69.74,9.04,-69.75
"Venezuela","VE",,"Guarenas",2564337,10.48,-66.62,10.46,-66.61
"Venezuela","VE",,"Guasdualito",2564404,7.24,-70.73,7.24,-70.73
"Venezuela","VE",,"Guatire",2564457,,,10.47,-66.55
"Venezuela","VE",,"Güigüe",2564553,10.08,-67.78,10.08,-67.78
"Venezuela","VE",,"La Asunción",2565323,11.03,-63.87,11.03,-63.86
"Venezuela","VE",,"La Dolorita",2566035,,,10.45,-66.77
"Venezuela","VE",,"La Fría",2566242,8.22,-72.25,8.22,-72.25
"Venezuela","VE",,"La Guaira",2566359,10.6,-66.93,10.6,-66.93
"Venezuela","VE",,"La Victoria",2569078,10.23,-67.34,10.22,-67.34
"Venezuela","VE",,"Lagunillas",2566465,8.5,-71.39,10.14,-71.25
"Venezuela","VE",,"Los Dos Caminos",2569849,10.49,-66.83,9.83,-69.77
"Venezuela","VE",,"Los Rastrojos",2570368,,,10.5,-67.33
"Venezuela","VE",,"Los Teques",2570441,7.8,-72.22,10.34,-67.04
"Venezuela","VE",,"Machiques",2570589,10.09,-72.55,10.07,-72.55
"Venezuela","VE",,"Maiquetía",2570671,10.6,-66.99,10.6,-66.96
"Venezuela","VE",,"Maracaibo",2570910,10.67,-71.62,10.65,-71.64
"Venezuela","VE",,"Maracay",2570921,10.25,-67.6,10.24,-67.59
"Venezuela","VE",,"Mariara",2570977,,,10.3,-67.72
"Venezuela","VE",,"Maturín",2571261,9.75,-63.18,9.75,-63.18
"Venezuela","VE",,"Morón",2571778,10.49,-68.2,10.48,-68.2
"Venezuela","VE",,"Nirgua",2572000,10.15,-68.57,10.15,-68.57
"Venezuela","VE",,"Ocumare del Tuy",2572055,,,10.12,-66.77
"Venezuela","VE",,"Palo Negro",2572451,10.22,-67.58,10.16,-67.55
"Venezuela","VE",,"Petare",2572993,10.48,-66.81,10.48,-66.77
"Venezuela","VE",,"Porlamar",2573298,10.96,-63.85,10.96,-63.85
"Venezuela","VE",,"Puerto Ayacucho",2573548,5.66,-67.63,5.67,-67.63
"Venezuela","VE",,"Puerto Cabello",2573556,10.47,-68.01,10.47,-68.02
"Venezuela","VE",,"Punta Cardón",2573699,11.61,-70.22,11.65,-70.22
"Venezuela","VE",,"Punto Fijo",2573745,11.69,-70.21,11.72,-70.18
"Venezuela","VE",,"Quíbor",2573898,,,9.93,-69.62
"Venezuela","VE",,"Rubio",2574318,7.7,-72.36,7.7,-72.36
"Venezuela","VE",,"San Antonio del Táchira",2574578,,,7.82,-72.45
"Venezuela","VE",,"San Carlos del Zulia",2574639,,,9,-71.92
"Venezuela","VE",,"San Carlos",2574645,7.77,-72.22,9.65,-68.58
"Venezuela","VE",,"San Cristóbal",2574666,7.77,-72.23,7.76,-72.23
"Venezuela","VE",,"San Felipe",2574702,10.31,-68.74,10.34,-68.75
"Venezuela","VE",,"San Joaquín",2574815,,,10.26,-67.79
"Venezuela","VE",,"San José de Guanipa",2574842,8.89,-64.16,8.88,-64.16
"Venezuela","VE",,"San Juan de Colón",2574902,8.03,-72.26,8.04,-72.26
"Venezuela","VE",,"San Juan de los Morros",2574917,9.91,-67.35,9.9,-67.35
"Venezuela","VE",,"San Mateo",2575009,9.74,-64.55,10.21,-67.42
"Venezuela","VE",,"Santa Rita",2575443,10.51,-71.49,10.52,-71.49
"Venezuela","VE",,"Santa Teresa",2575500,10.23,-67.27,10.23,-66.67
"Venezuela","VE",,"Tacarigua",2575816,10.48,-66.1,9.56,-69.2
"Venezuela","VE",,"Tinaquillo",2576074,9.92,-68.31,9.92,-68.3
"Venezuela","VE",,"Trujillo",2576273,9.36,-70.43,9.37,-70.43
"Venezuela","VE",,"Tucupita",2576309,9.06,-62.05,9.06,-62.05
"Venezuela","VE",,"Turmero",2576378,10.23,-67.47,10.24,-67.47
"Venezuela","VE",,"Táriba",2575935,7.82,-72.22,7.82,-72.23
"Venezuela","VE",,"Upata",2576423,8.01,-62.4,8.02,-62.4
"Venezuela","VE",,"Valencia",2576579,10.17,-68,10.17,-68
"Venezuela","VE",,"Valera",2576583,9.31,-70.61,9.32,-70.6
"Venezuela","VE",,"Villa Bruzual",2576755,,,9.33,-69.12
"Venezuela","VE",,"Villa de Cura",2576761,10.04,-67.48,10.03,-67.49
"Venezuela","VE",,"Villa del Rosario",2576762,8.31,-63.66,7.83,-72.47
"Venezuela","VE",,"Yaritagua",2576899,10.12,-69.12,10.08,-69.13
"Venezuela","VE",,"Zaraza",2576975,9.35,-65.32,9.35,-65.32
"Vietnam","VN",,"Bac Can",2580956,,,22.15,105.83
"Vietnam","VN",,"Bac Giang",2580964,21.28,106.19,21.29,106.19
"Vietnam","VN",,"Bac Lieu",2581019,10.76,106.65,9.26,105.75
"Vietnam","VN",,"Bac Ninh",2581041,21.18,106.06,21.18,106.06
"Vietnam","VN",,"Ben Tre",2584574,10.24,106.37,10.24,106.38
"Vietnam","VN",,"Biên Hòa",2584614,10.96,106.81,10.96,106.84
"Vietnam","VN",,"Buon Me Thuot",2585881,,,12.67,108.04
"Vietnam","VN",,"Cam Pha",2586372,,,21.02,107.32
"Vietnam","VN",,"Cam Ranh",2586379,11.9,109.21,11.91,109.15
"Vietnam","VN",,"Can Tho",2586497,10.06,105.8,10.03,105.78
"Vietnam","VN",,"Cao Bang",2586510,22.66,106.26,22.67,106.26
"Vietnam","VN",,"Cà Mau",2586304,9.18,105.15,9.18,105.15
"Vietnam","VN",,"Dong Xoai",2589060,11.54,106.9,11.53,106.92
"Vietnam","VN",,"Ha Noi",2590028,21,105.7,21.03,105.85
"Vietnam","VN",,"Ha Tinh",2590101,18.35,105.9,18.34,105.91
"Vietnam","VN",,"Hai Duong",2589853,,,20.94,106.31
"Vietnam","VN",,"Hai Phong",2589880,10.75,106.66,20.86,106.68
"Vietnam","VN",,"Hanoi",2590027,21.03,105.85,21.03,105.85
"Vietnam","VN",,"Ho Chi Minh City",2590531,10.78,106.69,10.82,106.63
"Vietnam","VN",,"Hoi An",2590561,15.88,108.33,15.88,108.34
"Vietnam","VN",,"Hong Gai",2590654,,,20.95,107.07
"Vietnam","VN",,"Hue",2590728,16.48,107.58,16.46,107.58
"Vietnam","VN",,"Hà Giang",2589824,22.83,104.99,22.8,104.98
"Vietnam","VN",,"Hòa Bình",2590271,20.81,105.35,20.83,105.34
"Vietnam","VN",,"Kon Tum",2592329,14.36,108,14.35,108
"Vietnam","VN",,"Kon Tum",2592330,14.36,108,14.35,108
"Vietnam","VN",,"Lang Son",2594075,,,21.85,106.76
"Vietnam","VN",,"Long Xuyên",2595029,10.38,105.44,10.38,105.42
"Vietnam","VN",,"Lào Cai",2594423,22.49,103.96,22.34,104.15
"Vietnam","VN",,"My Tho",2596326,10.42,106.23,10.38,106.34
"Vietnam","VN",,"Nha Trang",2598004,12.24,109.19,12.24,109.2
"Vietnam","VN",,"Ninh Bình",2598133,20.25,105.98,20.25,105.97
"Vietnam","VN",,"Phan Rang",2598849,11.4,108.65,11.56,108.99
"Vietnam","VN",,"Phan Thiet",2598862,10.93,108.1,10.92,108.11
"Vietnam","VN",,"Phu Ly",2599565,20.54,105.92,20.54,105.91
"Vietnam","VN",,"Plây Cu",2600382,,,13.97,108.02
"Vietnam","VN",,"Quang Ngai",2601333,,,15.12,108.81
"Vietnam","VN",,"Qui Nhon",2601544,,,13.78,109.22
"Vietnam","VN",,"Rach Gia",2601621,9.96,105.14,10.02,105.09
"Vietnam","VN",,"Soc Trang",2602026,9.61,105.97,9.6,105.97
"Vietnam","VN",,"Son La",2602162,21.33,103.9,21.33,103.91
"Vietnam","VN",,"Son Tay",2602185,15.02,108.38,21.1,105.5
"Vietnam","VN",,"Tam Ky",2602603,15.58,108.47,15.57,108.48
"Vietnam","VN",,"Thanh Hóa",2603558,19.81,105.77,19.81,105.79
"Vietnam","VN",,"Thái Bình",2603371,20.45,106.33,20.45,106.34
"Vietnam","VN",,"Thái Nguyên",2603393,21.59,105.84,21.57,105.83
"Vietnam","VN",,"Trà Vinh",2605693,9.79,106.32,9.93,106.35
"Vietnam","VN",,"Tuy Hòa",2606315,13.08,109.3,13.08,109.32
"Vietnam","VN",,"Tuyên Quang",2606308,21.83,105.21,21.78,105.23
"Vietnam","VN",,"Tân An",2602687,10.54,106.4,10.53,106.41
"Vietnam","VN",,"Tây Ninh",2603167,11.31,106.08,11.37,106.12
"Vietnam","VN",,"Uông Bí",2606355,21.03,106.78,21.04,106.78
"Vietnam","VN",,"Viet Tri",2606732,21.32,105.4,21.3,105.43
"Vietnam","VN",,"Vinh Long",2606884,10.1,105.99,10.24,105.96
"Vietnam","VN",,"Vinh Yen",2607026,12.71,109.38,21.31,105.6
"Vietnam","VN",,"Vinh",2607012,18.67,105.67,18.68,105.68
"Vietnam","VN",,"Vung Tau",2607139,10.35,107.08,10.41,107.14
"Vietnam","VN",,"Yên Bái",2609443,21.7,104.87,21.72,104.9
"United States of America","US","Alabama","Alabaster",2407482,33.19,-86.78,33.24,-86.82
"United States of America","US","Alabama","Albertville",2407486,34.25,-86.25,34.27,-86.21
"United States of America","US","Alabama","Alexander City",2407492,32.93,-85.94,32.94,-85.95
"United States of America","US","Alabama","Anniston",2407531,33.66,-85.83,33.66,-85.83
"United States of America","US","Alabama","Athens",2407575,34.75,-86.97,34.8,-86.97
"United States of America","US","Alabama","Auburn",2407582,32.61,-85.49,32.61,-85.48
"United States of America","US","Alabama","Bessemer",2407742,33.32,-86.92,33.4,-86.95
"United States of America","US","Alabama","Birmingham",2407773,33.63,-86.71,33.52,-86.8
"United States of America","US","Alabama","Buck Lake",2673620,33.27,-87.17,31.09,-86.54
"United States of America","US","Alabama","Chalan Pago-Ordot",2678527,,,32.32,-86.9
"United States of America","US","Alabama","Cullman",2408395,34.19,-86.84,34.17,-86.84
"United States of America","US","Alabama","Daphne",2408428,30.57,-87.86,30.6,-87.9
"United States of America","US","Alabama","Decatur",2408457,34.61,-86.98,34.61,-86.98
"United States of America","US","Alabama","Dededo",2678528,,,32.32,-86.9
"United States of America","US","Alabama","Dothan",2408514,31.23,-85.41,31.22,-85.39
"United States of America","US","Alabama","Enterprise",2408666,31.33,-85.85,31.32,-85.86
"United States of America","US","Alabama","Eufaula",2408681,31.89,-85.15,31.89,-85.15
"United States of America","US","Alabama","Fairfield",2408709,33.47,-86.92,33.49,-86.91
"United States of America","US","Alabama","Fairhope",2408713,30.54,-87.86,30.52,-87.9
"United States of America","US","Alabama","Florence",2408780,34.83,-87.67,34.8,-87.68
"United States of America","US","Alabama","Fort Payne",2408814,34.46,-85.7,34.44,-85.72
"United States of America","US","Alabama","Gadsden",2408869,34.01,-86.01,34.01,-86.01
"United States of America","US","Alabama","Gardendale",2408888,33.64,-86.79,33.66,-86.81
"United States of America","US","Alabama","Gnjilane",2684439,,,32.32,-86.9
"United States of America","US","Alabama","Hagåtña",2678529,,,32.32,-86.9
"United States of America","US","Alabama","Hartselle",2409107,34.44,-86.94,34.44,-86.94
"United States of America","US","Alabama","Helena",2409143,33.28,-86.87,33.3,-86.84
"United States of America","US","Alabama","Homewood",2409246,33.46,-86.81,33.47,-86.8
"United States of America","US","Alabama","Hoover",2409253,33.35,-86.89,33.41,-86.81
"United States of America","US","Alabama","Hueytown",2409284,33.42,-87.02,33.45,-87
"United States of America","US","Alabama","Huntsville",2409298,34.73,-86.59,34.73,-86.59
"United States of America","US","Alabama","Irondale",2409336,33.5,-86.69,33.54,-86.71
"United States of America","US","Alabama","Jacksonville",2409359,33.81,-85.76,33.81,-85.76
"United States of America","US","Alabama","Jasper",2409365,33.85,-87.27,33.83,-87.28
"United States of America","US","Alabama","Ledyard",2674138,32.38,-86.23,32.38,-86.23
"United States of America","US","Alabama","Leeds",2409570,33.51,-86.62,33.55,-86.54
"United States of America","US","Alabama","Madison",2409728,34.72,-86.71,34.7,-86.75
"United States of America","US","Alabama","Millbrook",2409909,32.5,-86.42,32.48,-86.36
"United States of America","US","Alabama","Mobile",2409943,30.69,-88.04,30.69,-88.04
"United States of America","US","Alabama","Montgomery",2409963,32.35,-86.27,32.37,-86.3
"United States of America","US","Alabama","Mountain Brook",2410041,33.49,-86.74,33.5,-86.75
"United States of America","US","Alabama","Muscle Shoals",2410066,34.74,-87.63,34.74,-87.67
"United States of America","US","Alabama","Northport",2410179,33.24,-87.67,33.23,-87.58
"United States of America","US","Alabama","Opelika",2410270,32.73,-85.39,32.65,-85.38
"United States of America","US","Alabama","Oxford",2410299,33.58,-85.91,33.61,-85.83
"United States of America","US","Alabama","Ozark",2410303,31.45,-85.65,31.46,-85.64
"United States of America","US","Alabama","Pelham",2410375,33.31,-86.76,33.29,-86.81
"United States of America","US","Alabama","Pell City",2410377,33.52,-86.23,33.59,-86.29
"United States of America","US","Alabama","Phenix City",2410409,32.47,-85,32.47,-85
"United States of America","US","Alabama","Pleasant Grove",2410485,33.49,-86.98,33.49,-86.97
"United States of America","US","Alabama","Prattville",2410539,32.46,-86.46,32.46,-86.46
"United States of America","US","Alabama","Prichard",2410546,30.77,-88.13,30.74,-88.08
"United States of America","US","Alabama","San Sebastian",2515539,34.77,-86.48,30.42,-87.34
"United States of America","US","Alabama","Saraland",2410826,30.83,-88.1,30.82,-88.07
"United States of America","US","Alabama","Scottsboro",2410852,34.72,-86.04,34.67,-86.03
"United States of America","US","Alabama","Selma",2410880,32.42,-87.03,32.41,-87.02
"United States of America","US","Alabama","Sheffield",2410911,34.76,-87.71,34.77,-87.7
"United States of America","US","Alabama","Strathmore",2674418,31.25,-85.44,32.32,-86.25
"United States of America","US","Alabama","Sylacauga",2411179,,,33.17,-86.25
"United States of America","US","Alabama","Talladega",2411190,33.44,-86.11,33.44,-86.11
"United States of America","US","Alabama","Troy",2411305,31.8,-85.97,31.81,-85.97
"United States of America","US","Alabama","Trussville",2411307,33.71,-86.53,33.62,-86.61
"United States of America","US","Alabama","Tuscaloosa",2411328,33.21,-87.57,33.21,-87.57
"United States of America","US","Alabama","Tuskegee",2411330,32.44,-85.71,32.43,-85.71
"United States of America","US","Alabama","Valley",2411365,32.77,-85.2,32.9,-85.35
"United States of America","US","Alabama","Vestavia Hills",2411393,33.42,-86.75,33.45,-86.79
"United States of America","US","Alaska","Anchorage",2411728,61.15,-149.19,61.22,-149.9
"United States of America","US","Alaska","Barrow",2411747,71.29,-156.79,71.29,-156.79
"United States of America","US","Alaska","Bethel",2411756,60.79,-161.76,60.79,-161.76
"United States of America","US","Alaska","Chignik Lagoon",2673665,56.3,-158.5,56.31,-158.54
"United States of America","US","Alaska","College",2411827,64.86,-147.8,64.86,-147.8
"United States of America","US","Alaska","Fairbanks",2411891,64.84,-147.72,64.84,-147.72
"United States of America","US","Alaska","Fort Greely",2674347,63.91,-146.25,63.91,-145.55
"United States of America","US","Alaska","Homer",2411951,59.64,-151.51,59.64,-151.55
"United States of America","US","Alaska","Juneau",2411978,58.45,-134.23,58.3,-134.42
"United States of America","US","Alaska","Kenai",2412002,60.56,-151.21,60.55,-151.26
"United States of America","US","Alaska","Ketchikan",2412006,55.35,-131.65,55.34,-131.65
"United States of America","US","Alaska","Kodiak",2412023,57.79,-152.41,57.79,-152.41
"United States of America","US","Alaska","Nome",2412143,64.5,-165.41,64.5,-165.41
"United States of America","US","Alaska","Palmer",2412175,61.6,-149.11,61.6,-149.11
"United States of America","US","Alaska","Sitka",2412266,56.25,-134.64,57.05,-135.33
"United States of America","US","Alaska","Soldotna",2412273,60.49,-151.07,60.49,-151.06
"United States of America","US","Alaska","Sterling",2412282,60.54,-150.76,60.54,-150.76
"United States of America","US","Alaska","Wasilla",2412353,61.58,-149.47,61.58,-149.44
"United States of America","US","Arizona","Anthem",2673821,33.87,-112.15,33.85,-112.13
"United States of America","US","Arizona","Apache Junction",2412557,33.4,-111.53,33.42,-111.55
"United States of America","US","Arizona","Avondale",2412590,33.44,-112.34,33.44,-112.35
"United States of America","US","Arizona","Buckeye",2412690,33.43,-112.55,33.37,-112.58
"United States of America","US","Arizona","Bullhead City",2412696,35.15,-114.57,35.15,-114.57
"United States of America","US","Arizona","Camp Verde",2412728,34.57,-111.86,34.56,-111.85
"United States of America","US","Arizona","Casa Grande",2412747,32.88,-111.76,32.88,-111.76
"United States of America","US","Arizona","Casas Adobes",2412757,32.32,-111,32.32,-111
"United States of America","US","Arizona","Catalina Foothills",2412767,32.3,-110.92,32.3,-110.92
"United States of America","US","Arizona","Chandler",2412793,33.31,-111.84,33.31,-111.84
"United States of America","US","Arizona","Chino Valley",2412816,34.76,-112.41,34.76,-112.45
"United States of America","US","Arizona","Coolidge",2412885,32.96,-111.53,32.98,-111.52
"United States of America","US","Arizona","Cottonwood",2412909,34.72,-112,34.74,-112.01
"United States of America","US","Arizona","Douglas",2412997,31.34,-109.55,31.34,-109.55
"United States of America","US","Arizona","Drexel Heights",2413001,32.14,-111.05,32.14,-111.03
"United States of America","US","Arizona","El Mirage",2413029,33.59,-112.33,33.61,-112.32
"United States of America","US","Arizona","Eloy",2413043,32.81,-111.58,32.76,-111.55
"United States of America","US","Arizona","Flagstaff",2413074,35.19,-111.62,35.2,-111.64
"United States of America","US","Arizona","Florence",2413077,33.05,-111.41,33.03,-111.39
"United States of America","US","Arizona","Flowing Wells",2413082,32.29,-111.01,32.29,-111.01
"United States of America","US","Arizona","Fortuna Foothills",2413100,32.66,-114.4,32.66,-114.41
"United States of America","US","Arizona","Fountain Hills",2413102,33.61,-111.74,33.61,-111.74
"United States of America","US","Arizona","Gilbert",2413131,33.35,-111.79,33.35,-111.79
"United States of America","US","Arizona","Glendale",2413141,33.54,-112.19,33.54,-112.19
"United States of America","US","Arizona","Goodyear",2413152,33.36,-112.41,33.45,-112.36
"United States of America","US","Arizona","Green Valley",2413176,31.85,-110.99,31.85,-110.99
"United States of America","US","Arizona","Kingman",2413334,35.21,-114.02,35.19,-114.05
"United States of America","US","Arizona","Lake Havasu City",2413375,34.5,-114.31,34.48,-114.32
"United States of America","US","Arizona","Marana",2413461,32.44,-111.15,32.44,-111.22
"United States of America","US","Arizona","Mesa",2413491,33.42,-111.83,33.42,-111.83
"United States of America","US","Arizona","Nogales",2413587,31.36,-110.93,31.34,-110.93
"United States of America","US","Arizona","Oro Valley",2413629,32.42,-110.98,32.39,-110.97
"United States of America","US","Arizona","Paradise Valley",2413668,33.54,-111.96,33.53,-111.94
"United States of America","US","Arizona","Payson",2413692,34.24,-111.32,34.23,-111.33
"United States of America","US","Arizona","Peoria",2413701,33.78,-112.3,33.58,-112.24
"United States of America","US","Arizona","Phoenix",2413713,33.45,-112.07,33.45,-112.07
"United States of America","US","Arizona","Prescott Valley",2413778,34.66,-112.26,34.61,-112.32
"United States of America","US","Arizona","Prescott",2413777,34.54,-112.47,34.54,-112.47
"United States of America","US","Arizona","Safford",2413894,32.83,-109.71,32.83,-109.71
"United States of America","US","Arizona","San Luis",2413914,32.49,-114.71,32.49,-114.78
"United States of America","US","Arizona","Scottsdale",2413945,33.51,-111.9,33.49,-111.93
"United States of America","US","Arizona","Sedona",2413953,34.86,-111.79,34.87,-111.76
"United States of America","US","Arizona","Show Low",2413983,34.24,-110.04,34.25,-110.03
"United States of America","US","Arizona","Sierra Vista",2413988,31.55,-110.3,31.55,-110.28
"United States of America","US","Arizona","Somerton",2414025,32.6,-114.7,32.6,-114.71
"United States of America","US","Arizona","Sun City West",2414079,33.66,-112.34,33.66,-112.34
"United States of America","US","Arizona","Sun City",2414078,33.62,-112.28,33.6,-112.27
"United States of America","US","Arizona","Surprise",2414126,33.63,-112.33,33.64,-112.4
"United States of America","US","Arizona","Tempe",2414151,33.41,-111.91,33.43,-111.94
"United States of America","US","Arizona","Tucson",2414228,32.22,-110.93,32.22,-110.93
"United States of America","US","Arizona","Winslow",2414390,35.02,-110.7,35.02,-110.7
"United States of America","US","Arizona","Yuma",2414429,32.73,-114.62,32.69,-114.63
"United States of America","US","Arkansas","Arkadelphia",2414500,34.12,-93.07,34.12,-93.05
"United States of America","US","Arkansas","Batesville",2414583,35.77,-91.64,35.77,-91.64
"United States of America","US","Arkansas","Bella Vista",2414624,36.47,-94.27,36.48,-94.27
"United States of America","US","Arkansas","Bentonville",2414639,36.37,-94.21,36.37,-94.21
"United States of America","US","Arkansas","Benton",2414638,34.58,-92.57,34.56,-92.59
"United States of America","US","Arkansas","Blytheville",2414722,35.93,-89.92,35.93,-89.92
"United States of America","US","Arkansas","Bryant",2414804,34.62,-92.49,34.6,-92.49
"United States of America","US","Arkansas","Cabot",2414848,34.98,-92.03,34.97,-92.02
"United States of America","US","Arkansas","Camden",2414868,33.57,-92.85,33.58,-92.83
"United States of America","US","Arkansas","Conway",2415042,35.08,-92.46,35.09,-92.44
"United States of America","US","Arkansas","El Dorado",2415301,33.22,-92.66,33.21,-92.67
"United States of America","US","Arkansas","Fayetteville",2415396,36.07,-94.17,36.06,-94.16
"United States of America","US","Arkansas","Forrest City",2415440,35.01,-90.79,35.01,-90.79
"United States of America","US","Arkansas","Fort Smith",2415444,35.39,-94.4,35.39,-94.4
"United States of America","US","Arkansas","Guy",2678519,35.33,-92.34,35.33,-92.33
"United States of America","US","Arkansas","Harrison",2415680,36.24,-93.12,36.23,-93.11
"United States of America","US","Arkansas","Hope",2415796,33.67,-93.59,33.67,-93.59
"United States of America","US","Arkansas","Hot Springs",2415806,34.5,-93.06,34.5,-93.06
"United States of America","US","Arkansas","Jacksonville",2415862,34.87,-92.08,34.87,-92.11
"United States of America","US","Arkansas","Jonesboro",2415895,35.82,-90.68,35.84,-90.7
"United States of America","US","Arkansas","Little Rock",2416078,34.75,-92.29,34.75,-92.29
"United States of America","US","Arkansas","Magnolia",2416157,33.28,-93.23,33.27,-93.24
"United States of America","US","Arkansas","Malvern",2416161,34.34,-92.81,34.36,-92.81
"United States of America","US","Arkansas","Marion",2416182,35.23,-90.17,35.21,-90.2
"United States of America","US","Arkansas","Maumelle",2416203,34.85,-92.4,34.87,-92.4
"United States of America","US","Arkansas","Monticello",2416314,33.63,-91.79,33.63,-91.79
"United States of America","US","Arkansas","Mountain Home",2416365,36.36,-92.35,36.34,-92.39
"United States of America","US","Arkansas","North Little Rock",2416459,34.77,-92.27,34.77,-92.27
"United States of America","US","Arkansas","Paragould",2416577,36.06,-90.51,36.06,-90.5
"United States of America","US","Arkansas","Pine Bluff",2416659,34.21,-92.02,34.23,-92
"United States of America","US","Arkansas","Rogers",2416872,36.32,-94.15,36.33,-94.12
"United States of America","US","Arkansas","Russellville",2416921,35.28,-93.14,35.28,-93.13
"United States of America","US","Arkansas","Searcy",2416978,35.25,-91.74,35.25,-91.73
"United States of America","US","Arkansas","Sherwood",2417013,34.84,-92.21,34.82,-92.22
"United States of America","US","Arkansas","Siloam Springs",2417032,36.19,-94.54,36.19,-94.54
"United States of America","US","Arkansas","Springdale",2417099,36.19,-94.15,36.19,-94.13
"United States of America","US","Arkansas","Stuttgart",2417147,34.47,-91.54,34.5,-91.55
"United States of America","US","Arkansas","Texarkana",2417202,33.44,-94.04,33.44,-94.04
"United States of America","US","Arkansas","Van Buren",2417317,35.45,-94.35,35.44,-94.35
"United States of America","US","Arkansas","West Helena",2417432,34.55,-90.64,34.55,-90.64
"United States of America","US","Arkansas","West Memphis",2417436,35.15,-90.18,35.15,-90.18
"United States of America","US","Arkansas","pfungland",2673747,,,34.54,-91.97
"United States of America","US","California","Adelanto",2417605,34.59,-117.44,34.58,-117.41
"United States of America","US","California","Agoura Hills",2417615,34.15,-118.76,34.15,-118.76
"United States of America","US","California","Alameda",2417628,37.76,-122.27,37.77,-122.24
"United States of America","US","California","Alamo",2417630,37.85,-122.03,37.85,-122.03
"United States of America","US","California","Albany",2417634,37.89,-122.3,37.89,-122.3
"United States of America","US","California","Alhambra",2417648,34.09,-118.13,34.1,-118.13
"United States of America","US","California","Aliso Viejo",2417653,33.58,-117.73,33.58,-117.73
"United States of America","US","California","Alondra Park",2417665,33.89,-118.33,33.89,-118.33
"United States of America","US","California","Alpine",2417668,39.44,-123.58,32.84,-116.77
"United States of America","US","California","Altadena",2417684,34.19,-118.14,34.19,-118.13
"United States of America","US","California","American Canyon",2417699,38.22,-122.23,38.17,-122.26
"United States of America","US","California","Anaheim",2417704,33.84,-117.9,33.84,-117.91
"United States of America","US","California","Anderson",2417707,40.45,-122.3,40.45,-122.3
"United States of America","US","California","Antioch",2417726,38,-121.81,38,-121.81
"United States of America","US","California","Apple Valley",2417732,34.53,-117.21,34.5,-117.19
"United States of America","US","California","Aptos",2417736,36.98,-121.9,36.98,-121.9
"United States of America","US","California","Arcadia",2417747,34.14,-118.04,34.14,-118.04
"United States of America","US","California","Arcata",2417748,40.87,-124.08,40.87,-124.08
"United States of America","US","California","Arroyo Grande",2417773,35.12,-120.58,35.12,-120.59
"United States of America","US","California","Artesia",2417777,33.87,-118.08,33.87,-118.08
"United States of America","US","California","Arvin",2417780,35.19,-118.83,35.21,-118.83
"United States of America","US","California","Ashland",2417785,37.69,-122.11,37.69,-122.11
"United States of America","US","California","Atascadero",2417793,35.48,-120.69,35.49,-120.67
"United States of America","US","California","Atwater",2417800,37.35,-120.6,37.35,-120.61
"United States of America","US","California","Auburn",2417803,38.9,-121.08,38.9,-121.08
"United States of America","US","California","Avenal",2417815,36.03,-120.12,36,-120.13
"United States of America","US","California","Avocado Heights",2417822,34.03,-117.97,34.04,-117.99
"United States of America","US","California","Azusa",2417826,34.14,-117.91,34.13,-117.91
"United States of America","US","California","Bakersfield",2417835,35.37,-119.02,35.37,-119.02
"United States of America","US","California","Baldwin Park",2417844,34.08,-117.97,34.09,-117.96
"United States of America","US","California","Banning",2417864,33.95,-116.9,33.93,-116.88
"United States of America","US","California","Barstow",2417882,34.89,-117.02,34.9,-117.02
"United States of America","US","California","Bay Point",2417901,38.03,-121.96,38.03,-121.96
"United States of America","US","California","Beaumont",2417923,33.9,-116.98,33.93,-116.98
"United States of America","US","California","Bell Gardens",2417934,33.97,-118.15,33.97,-118.15
"United States of America","US","California","Bellflower",2417945,33.89,-118.13,33.88,-118.12
"United States of America","US","California","Bell",2417933,33.98,-118.18,33.98,-118.19
"United States of America","US","California","Belmont",2417950,37.52,-122.3,37.52,-122.28
"United States of America","US","California","Benicia",2417960,38.07,-122.15,38.05,-122.16
"United States of America","US","California","Berkeley",2417967,37.87,-122.27,37.87,-122.27
"United States of America","US","California","Beverly Hills",2417987,34.07,-118.4,34.07,-118.4
"United States of America","US","California","Bloomington",2418045,34.07,-117.4,34.07,-117.4
"United States of America","US","California","Blythe",2418058,33.63,-114.59,33.62,-114.59
"United States of America","US","California","Bonita",2418084,32.66,-117.03,32.66,-117.03
"United States of America","US","California","Bostonia",2418100,32.82,-116.95,32.82,-116.95
"United States of America","US","California","Brawley",2418132,33.02,-115.52,32.98,-115.53
"United States of America","US","California","Brea",2418135,33.93,-117.87,33.92,-117.9
"United States of America","US","California","Brentwood",2418140,37.93,-121.7,37.93,-121.7
"United States of America","US","California","Buena Park",2418202,33.86,-118,33.87,-118
"United States of America","US","California","Burbank",2418214,34.19,-118.32,34.18,-118.31
"United States of America","US","California","Burlingame",2418218,37.58,-122.37,37.58,-122.37
"United States of America","US","California","Calabasas",2418255,34.14,-118.67,34.14,-118.66
"United States of America","US","California","Calexico",2418263,32.68,-115.5,32.68,-115.5
"United States of America","US","California","California City",2418269,35.16,-117.87,35.13,-117.99
"United States of America","US","California","Camarillo",2418290,34.22,-119.04,34.22,-119.04
"United States of America","US","California","Cameron Park",2418302,38.67,-120.99,38.67,-120.99
"United States of America","US","California","Campbell",2418322,37.28,-121.95,37.29,-121.95
"United States of America","US","California","Canyon Lake",2418347,33.69,-117.26,33.69,-117.27
"United States of America","US","California","Capitola",2418356,36.98,-121.95,36.98,-121.95
"United States of America","US","California","Carlsbad",2418365,33.16,-117.35,33.16,-117.35
"United States of America","US","California","Carmel",2418372,36.56,-121.92,36.56,-121.92
"United States of America","US","California","Carmichael",2418376,38.62,-121.33,38.62,-121.33
"United States of America","US","California","Carpinteria",2418382,34.38,-119.52,34.4,-119.52
"United States of America","US","California","Carson",2418388,33.84,-118.26,33.83,-118.28
"United States of America","US","California","Castro Valley",2418416,37.69,-122.09,37.69,-122.09
"United States of America","US","California","Cathedral City",2418419,33.83,-116.46,33.78,-116.47
"United States of America","US","California","Ceres",2418452,37.6,-120.96,37.59,-120.96
"United States of America","US","California","Cerritos",2418453,33.87,-118.07,33.86,-118.06
"United States of America","US","California","Charter Oak",2418473,34.1,-117.86,34.1,-117.85
"United States of America","US","California","Cherryland",2418484,37.68,-122.1,37.68,-122.1
"United States of America","US","California","Chico",2418487,39.73,-121.84,39.73,-121.84
"United States of America","US","California","Chino Hills",2418495,33.99,-117.76,33.99,-117.73
"United States of America","US","California","Chino",2418494,34.01,-117.73,34.01,-117.69
"United States of America","US","California","Chowchilla",2418504,37.11,-120.23,37.12,-120.26
"United States of America","US","California","Chula Vista",2418511,32.64,-117.08,32.64,-117.08
"United States of America","US","California","Citrus Heights",2418525,38.69,-121.29,38.71,-121.28
"United States of America","US","California","Citrus",2418523,38.61,-121.27,34.12,-117.89
"United States of America","US","California","Claremont",2418534,34.1,-117.73,34.1,-117.72
"United States of America","US","California","Clayton",2418542,37.94,-121.93,37.94,-121.94
"United States of America","US","California","Clearlake",2418547,38.96,-122.63,38.96,-122.63
"United States of America","US","California","Clovis",2418567,36.83,-119.7,36.83,-119.7
"United States of America","US","California","Coachella",2418569,33.69,-116.15,33.68,-116.17
"United States of America","US","California","Coalinga",2418570,36.13,-120.24,36.14,-120.36
"United States of America","US","California","Colton",2418601,34.05,-117.33,34.07,-117.31
"United States of America","US","California","Commerce",2418607,34,-118.15,34,-118.16
"United States of America","US","California","Compton",2418611,33.89,-118.23,33.9,-118.22
"United States of America","US","California","Concord",2418617,37.98,-122.03,37.98,-122.03
"United States of America","US","California","Cool",2673800,33.7,-117.2,38.89,-121.02
"United States of America","US","California","Corcoran",2418640,36.08,-119.58,36.1,-119.56
"United States of America","US","California","Coronado",2418651,32.64,-117.17,32.69,-117.18
"United States of America","US","California","Corona",2418649,33.88,-117.57,33.88,-117.57
"United States of America","US","California","Corte Madera",2418657,37.93,-122.51,37.93,-122.53
"United States of America","US","California","Costa Mesa",2418663,33.67,-117.9,33.64,-117.92
"United States of America","US","California","Country Club",2418678,37.97,-121.34,37.97,-121.34
"United States of America","US","California","Covina",2418685,34.09,-117.88,34.09,-117.89
"United States of America","US","California","Crestline",2418710,34.24,-117.29,34.24,-117.29
"United States of America","US","California","Cudahy",2418735,33.96,-118.18,33.96,-118.19
"United States of America","US","California","Culver City",2418739,34.01,-118.4,34.02,-118.4
"United States of America","US","California","Cupertino",2418745,37.32,-122.05,37.32,-122.03
"United States of America","US","California","Cypress",2418759,33.82,-118.04,33.82,-118.04
"United States of America","US","California","Daly City",2418770,37.69,-122.47,37.69,-122.47
"United States of America","US","California","Dana Point",2418773,33.44,-117.71,33.47,-117.7
"United States of America","US","California","Danville",2418779,37.82,-122,37.82,-122
"United States of America","US","California","Davis",2418790,38.56,-121.74,38.54,-121.74
"United States of America","US","California","Delano",2418849,35.77,-119.25,35.77,-119.25
"United States of America","US","California","Desert Hot Springs",2418872,33.97,-116.55,33.96,-116.5
"United States of America","US","California","Diamond Bar",2418893,33.99,-117.83,34.03,-117.81
"United States of America","US","California","Dinuba",2418902,36.54,-119.4,36.54,-119.39
"United States of America","US","California","Dixon",2418908,38.39,-121.81,38.45,-121.82
"United States of America","US","California","Downey",2418944,33.94,-118.13,33.94,-118.13
"United States of America","US","California","Duarte",2418955,34.16,-117.95,34.14,-117.98
"United States of America","US","California","Dublin",2418956,37.7,-121.94,37.7,-121.94
"United States of America","US","California","East Foothills",2418999,37.39,-121.84,37.38,-121.82
"United States of America","US","California","East Hemet",2419002,33.74,-116.94,33.74,-116.94
"United States of America","US","California","East La Mirada",2419005,33.92,-117.99,33.92,-117.99
"United States of America","US","California","East Los Angeles",2419006,34.02,-118.17,34.02,-118.17
"United States of America","US","California","East Palo Alto",2419010,37.47,-122.13,37.47,-122.14
"United States of America","US","California","El Cajon",2419058,32.79,-116.96,32.79,-116.96
"United States of America","US","California","El Centro",2419063,32.79,-115.56,32.79,-115.56
"United States of America","US","California","El Cerrito",2419064,37.92,-122.3,37.92,-122.31
"United States of America","US","California","El Monte",2419075,34.08,-118.07,34.07,-118.03
"United States of America","US","California","El Segundo",2419085,33.91,-118.38,33.92,-118.42
"United States of America","US","California","El Sobrante",2419088,37.98,-122.29,37.98,-122.3
"United States of America","US","California","Elk Grove",2419104,38.42,-121.38,38.41,-121.37
"United States of America","US","California","Encinitas",2419134,33.05,-117.26,33.04,-117.29
"United States of America","US","California","Escondido",2419149,33.18,-117.02,33.12,-117.09
"United States of America","US","California","Eureka",2419166,40.8,-124.16,40.8,-124.16
"United States of America","US","California","Exeter",2419172,36.3,-119.14,36.3,-119.14
"United States of America","US","California","Fair Oaks",2419175,38.64,-121.27,38.64,-121.27
"United States of America","US","California","Fairfield",2419180,38.26,-122.04,38.25,-122.04
"United States of America","US","California","Fairview",2419186,34.32,-118.91,37.68,-122.05
"United States of America","US","California","Fallbrook",2419192,33.38,-117.25,33.38,-117.25
"United States of America","US","California","Farmersville",2419202,36.31,-119.21,36.3,-119.21
"United States of America","US","California","Fillmore",2419235,34.38,-118.94,34.4,-118.92
"United States of America","US","California","Florin",2419261,38.5,-121.41,38.5,-121.41
"United States of America","US","California","Folsom",2419271,38.68,-121.15,38.68,-121.18
"United States of America","US","California","Fontana",2419274,34.1,-117.46,34.09,-117.44
"United States of America","US","California","Foothill Farms",2419276,38.68,-121.34,38.68,-121.35
"United States of America","US","California","Fortuna",2419310,40.59,-124.14,40.6,-124.16
"United States of America","US","California","Foster City",2419312,37.56,-122.27,37.56,-122.27
"United States of America","US","California","Fountain Valley",2419316,33.7,-117.96,33.71,-117.95
"United States of America","US","California","Fremont",2419338,37.55,-121.99,37.55,-121.99
"United States of America","US","California","Fresno",2419347,36.76,-119.8,36.75,-119.77
"United States of America","US","California","Fullerton",2419364,33.87,-117.96,33.87,-117.93
"United States of America","US","California","Galt",2419374,38.27,-121.3,38.25,-121.3
"United States of America","US","California","Garden Acres",2419377,37.96,-121.23,37.96,-121.23
"United States of America","US","California","Garden Grove",2419379,33.78,-117.96,33.77,-117.94
"United States of America","US","California","Gardena",2419381,33.89,-118.31,33.89,-118.31
"United States of America","US","California","Gilroy",2419417,37,-121.58,37.01,-121.57
"United States of America","US","California","Glen Avon",2419422,34.02,-117.49,34.01,-117.48
"United States of America","US","California","Glendale",2419433,34.18,-118.25,34.14,-118.26
"United States of America","US","California","Glendora",2419435,34.14,-117.87,34.14,-117.87
"United States of America","US","California","Goleta",2419470,34.44,-119.86,34.44,-119.83
"United States of America","US","California","Gonzales",2419472,36.51,-121.44,36.51,-121.44
"United States of America","US","California","Grand Terrace",2419494,34.03,-117.31,34.03,-117.31
"United States of America","US","California","Grass Valley",2419510,39.23,-121.07,39.22,-121.06
"United States of America","US","California","Greenfield",2419530,36.32,-121.24,36.32,-121.24
"United States of America","US","California","Grover Beach",2419552,35.12,-120.62,35.12,-120.62
"United States of America","US","California","Hacienda Heights",2419571,33.99,-117.97,33.99,-117.97
"United States of America","US","California","Half Moon Bay",2419583,37.46,-122.43,37.46,-122.43
"United States of America","US","California","Hanford",2419603,36.29,-119.68,36.33,-119.65
"United States of America","US","California","Hawaiian Gardens",2419653,33.82,-118.08,33.83,-118.07
"United States of America","US","California","Hawthorne",2419658,33.91,-118.35,33.92,-118.35
"United States of America","US","California","Hayward",2419666,37.67,-122.08,37.67,-122.08
"United States of America","US","California","Healdsburg",2419669,38.63,-122.86,38.61,-122.87
"United States of America","US","California","Hemet",2419684,33.75,-116.97,33.75,-116.97
"United States of America","US","California","Hercules",2419694,38.03,-122.29,38.02,-122.29
"United States of America","US","California","Hermosa Beach",2419698,33.86,-118.4,33.86,-118.4
"United States of America","US","California","Hesperia",2419702,34.36,-117.3,34.43,-117.3
"United States of America","US","California","Highland",2419728,34.11,-117.17,34.13,-117.21
"United States of America","US","California","Hillsborough",2419744,37.56,-122.36,37.57,-122.38
"United States of America","US","California","Hollister",2419767,36.85,-121.4,36.85,-121.4
"United States of America","US","California","Huntington Beach",2419834,33.69,-118.01,33.66,-118
"United States of America","US","California","Huntington Park",2419837,33.98,-118.22,33.98,-118.23
"United States of America","US","California","Imperial Beach",2419860,32.57,-117.12,32.58,-117.11
"United States of America","US","California","Imperial",2419859,32.84,-115.57,32.85,-115.57
"United States of America","US","California","Indio",2419876,33.73,-116.24,33.72,-116.22
"United States of America","US","California","Inglewood",2419882,33.96,-118.34,33.96,-118.35
"United States of America","US","California","Irvine",2419905,33.67,-117.69,33.68,-117.79
"United States of America","US","California","Isla Vista",2419911,38.19,-121.92,34.41,-119.86
"United States of America","US","California","Kerman",2420031,36.73,-120.06,36.72,-120.06
"United States of America","US","California","King City",2420055,36.22,-121.16,36.21,-121.13
"United States of America","US","California","Kings Mountain",2673790,37.44,-122.32,37.44,-122.32
"United States of America","US","California","Kingsburg",2420059,36.52,-119.56,36.51,-119.55
"United States of America","US","California","La Canada Flintridge",2420099,34.21,-118.2,34.21,-118.2
"United States of America","US","California","La Habra",2420110,33.93,-117.95,33.93,-117.95
"United States of America","US","California","La Jolla",2675160,32.85,-117.27,32.84,-117.26
"United States of America","US","California","La Mesa",2420119,32.77,-117.02,32.77,-117.02
"United States of America","US","California","La Mirada",2420120,33.9,-118.01,33.92,-118.01
"United States of America","US","California","La Palma",2420122,33.85,-118.04,33.85,-118.05
"United States of America","US","California","La Presa",2420128,32.71,-117,32.71,-117
"United States of America","US","California","La Puente",2420129,34.03,-117.95,34.02,-117.95
"United States of America","US","California","La Quinta",2420130,33.66,-116.31,33.66,-116.31
"United States of America","US","California","La Riviera",2420131,34.06,-118.5,38.57,-121.36
"United States of America","US","California","La Verne",2420136,34.1,-117.77,34.1,-117.77
"United States of America","US","California","Lafayette",2420143,37.89,-122.12,37.89,-122.12
"United States of America","US","California","Laguna Beach",2420146,33.55,-117.77,33.54,-117.78
"United States of America","US","California","Laguna Hills",2420147,33.59,-117.7,33.6,-117.7
"United States of America","US","California","Laguna Niguel",2420149,33.53,-117.7,33.52,-117.71
"United States of America","US","California","Laguna Woods",2420152,33.61,-117.73,33.61,-117.73
"United States of America","US","California","Lake Elsinore",2420164,33.68,-117.33,33.67,-117.33
"United States of America","US","California","Lake Forest",2420165,33.66,-117.67,33.65,-117.69
"United States of America","US","California","Lakeside",2420188,32.86,-116.92,32.86,-116.92
"United States of America","US","California","Lakewood",2420197,33.85,-118.12,33.85,-118.13
"United States of America","US","California","Lamont",2420205,35.26,-118.91,35.26,-118.91
"United States of America","US","California","Lancaster",2420209,34.7,-118.14,34.69,-118.15
"United States of America","US","California","Larkspur",2420220,37.94,-122.53,37.93,-122.54
"United States of America","US","California","Lathrop",2420232,37.82,-121.31,37.82,-121.28
"United States of America","US","California","Lawndale",2420238,33.89,-118.35,33.89,-118.35
"United States of America","US","California","Lemon Grove",2420259,32.73,-117.03,32.74,-117.03
"United States of America","US","California","Lemoore",2420263,36.3,-119.78,36.3,-119.78
"United States of America","US","California","Lennox",2420264,33.94,-118.35,33.94,-118.35
"United States of America","US","California","Lincoln",2420287,38.86,-121.34,38.89,-121.29
"United States of America","US","California","Linda",2420292,39.13,-121.55,39.13,-121.55
"United States of America","US","California","Lindsay",2420298,36.21,-119.09,36.2,-119.09
"United States of America","US","California","Livermore",2420319,37.68,-121.77,37.68,-121.77
"United States of America","US","California","Livingston",2420320,37.39,-120.76,37.39,-120.72
"United States of America","US","California","Lodi",2420331,38.13,-121.28,38.13,-121.27
"United States of America","US","California","Loma Linda",2420342,34.04,-117.25,34.05,-117.26
"United States of America","US","California","Lomita",2420348,33.79,-118.32,33.79,-118.32
"United States of America","US","California","Lompoc",2420352,34.64,-120.46,34.64,-120.46
"United States of America","US","California","Long Beach",2420359,33.78,-118.17,33.8,-118.16
"United States of America","US","California","Los Alamitos",2420374,33.8,-118.06,33.8,-118.07
"United States of America","US","California","Los Altos Hills",2420378,37.37,-122.14,37.38,-122.14
"United States of America","US","California","Los Altos",2420377,37.37,-122.1,37.39,-122.11
"United States of America","US","California","Los Angeles",2420379,34.05,-118.24,34.05,-118.24
"United States of America","US","California","Los Banos",2420380,37.06,-120.84,37.06,-120.85
"United States of America","US","California","Los Gatos",2420382,37.23,-121.96,37.24,-121.96
"United States of America","US","California","Lynwood",2420425,33.92,-118.2,33.93,-118.21
"United States of America","US","California","Madera",2420437,36.97,-120.08,36.96,-120.06
"United States of America","US","California","Magalia",2420444,39.81,-121.58,39.81,-121.58
"United States of America","US","California","Malibu",2420455,34.01,-118.77,34.01,-118.81
"United States of America","US","California","Manhattan Beach",2420467,33.9,-118.4,33.88,-118.41
"United States of America","US","California","Manteca",2420474,37.8,-121.23,37.8,-121.22
"United States of America","US","California","Marina",2420500,36.68,-121.79,36.68,-121.8
"United States of America","US","California","Martinez",2420519,38.02,-122.13,38.02,-122.13
"United States of America","US","California","Marysville",2420525,39.15,-121.58,39.15,-121.59
"United States of America","US","California","Maywood",2420544,33.99,-118.19,33.99,-118.19
"United States of America","US","California","Mendota",2420600,36.75,-120.38,36.75,-120.38
"United States of America","US","California","Merced",2420608,37.31,-120.48,37.3,-120.48
"United States of America","US","California","Mill Valley",2420652,37.91,-122.54,37.91,-122.54
"United States of America","US","California","Millbrae",2420653,37.6,-122.4,37.6,-122.39
"United States of America","US","California","Milpitas",2420670,37.43,-121.89,37.43,-121.91
"United States of America","US","California","Mira Loma",2420684,33.99,-117.52,33.98,-117.52
"United States of America","US","California","Mission Viejo",2420705,33.61,-117.65,33.6,-117.67
"United States of America","US","California","Modesto",2420715,37.66,-120.99,37.64,-121
"United States of America","US","California","Monrovia",2420738,34.16,-117.99,34.14,-118
"United States of America","US","California","Montclair",2420747,34.07,-117.7,34.08,-117.69
"United States of America","US","California","Montebello",2420755,34.02,-118.11,34.02,-118.11
"United States of America","US","California","Monterey Park",2420758,34.05,-118.13,34.06,-118.12
"United States of America","US","California","Monterey",2420757,36.6,-121.88,36.6,-121.89
"United States of America","US","California","Moorpark",2420776,34.29,-118.88,34.29,-118.88
"United States of America","US","California","Moraga",2420779,37.83,-122.13,37.83,-122.13
"United States of America","US","California","Moreno Valley",2420786,33.94,-117.23,33.94,-117.23
"United States of America","US","California","Morgan Hill",2420788,37.13,-121.64,37.13,-121.65
"United States of America","US","California","Morro Bay",2420797,35.37,-120.87,35.37,-120.85
"United States of America","US","California","Mountain View",2420838,37.4,-122.08,37.39,-122.08
"United States of America","US","California","Murrieta",2420857,33.57,-117.19,33.55,-117.21
"United States of America","US","California","Napa",2420872,38.3,-122.3,38.3,-122.3
"United States of America","US","California","National City",2420883,32.68,-117.1,32.68,-117.1
"United States of America","US","California","Newark",2420919,37.52,-122.03,37.53,-122.04
"United States of America","US","California","Newport Beach",2420930,33.61,-117.86,33.62,-117.93
"United States of America","US","California","Newport Coast",2674150,33.63,-117.83,33.6,-117.84
"United States of America","US","California","Norco",2420956,33.93,-117.55,33.93,-117.55
"United States of America","US","California","North Auburn",2420961,38.93,-121.08,38.93,-121.08
"United States of America","US","California","North Highlands",2420977,38.69,-121.37,38.69,-121.37
"United States of America","US","California","Norwalk",2421010,33.91,-118.08,33.9,-118.08
"United States of America","US","California","Novato",2421014,38.11,-122.57,38.11,-122.57
"United States of America","US","California","Oakdale",2421042,37.79,-120.82,37.77,-120.85
"United States of America","US","California","Oakland",2421044,37.8,-122.27,37.8,-122.27
"United States of America","US","California","Oakley",2421045,37.99,-121.7,38,-121.71
"United States of America","US","California","Oceanside",2421065,33.2,-117.38,33.2,-117.38
"United States of America","US","California","Oildale",2421076,35.42,-119.02,35.42,-119.02
"United States of America","US","California","Olivehurst",2421113,39.1,-121.55,39.1,-121.55
"United States of America","US","California","Ontario",2421124,34.04,-117.61,34.06,-117.65
"United States of America","US","California","Orange Cove",2421132,36.62,-119.32,36.62,-119.31
"United States of America","US","California","Orangevale",2421134,38.68,-121.23,38.68,-121.23
"United States of America","US","California","Orange",2421130,33.71,-117.83,33.79,-117.85
"United States of America","US","California","Orinda",2421145,37.88,-122.18,37.88,-122.18
"United States of America","US","California","Oroville",2421157,39.51,-121.56,39.51,-121.56
"United States of America","US","California","Oxnard",2421178,34.2,-119.18,34.2,-119.18
"United States of America","US","California","Pacific Grove",2421188,36.62,-121.92,36.62,-121.92
"United States of America","US","California","Pacifica",2421194,37.61,-122.49,37.61,-122.49
"United States of America","US","California","Palm Desert",2421206,33.72,-116.38,33.72,-116.37
"United States of America","US","California","Palm Springs",2421209,33.8,-116.54,33.83,-116.55
"United States of America","US","California","Palmdale",2421211,34.59,-118.11,34.58,-118.12
"United States of America","US","California","Palo Alto",2421215,37.44,-122.16,37.44,-122.14
"United States of America","US","California","Palos Verdes Estates",2421222,33.79,-118.4,33.8,-118.39
"United States of America","US","California","Paradise",2421231,39.76,-121.61,39.76,-121.62
"United States of America","US","California","Paramount",2421237,33.9,-118.17,33.89,-118.16
"United States of America","US","California","Parlier",2421254,36.6,-119.52,36.61,-119.53
"United States of America","US","California","Pasadena",2421256,34.16,-118.14,34.15,-118.14
"United States of America","US","California","Patterson",2421263,37.5,-121.09,37.47,-121.13
"United States of America","US","California","Pedley",2421290,33.98,-117.47,33.98,-117.48
"United States of America","US","California","Perris",2421315,33.79,-117.22,33.78,-117.23
"United States of America","US","California","Petaluma",2421319,38.24,-122.63,38.23,-122.64
"United States of America","US","California","Pico Rivera",2421336,33.99,-118.09,33.98,-118.1
"United States of America","US","California","Piedmont",2421337,37.82,-122.23,37.82,-122.23
"United States of America","US","California","Pinole",2421373,38.01,-122.32,38,-122.3
"United States of America","US","California","Pismo Beach",2421385,35.14,-120.67,35.14,-120.64
"United States of America","US","California","Pittsburg",2421387,38.03,-121.88,38.03,-121.88
"United States of America","US","California","Placentia",2421392,33.88,-117.86,33.87,-117.87
"United States of America","US","California","Placerville",2421393,38.73,-120.8,38.73,-120.8
"United States of America","US","California","Pleasant Hill",2421406,37.95,-122.08,37.95,-122.06
"United States of America","US","California","Pleasanton",2421410,37.66,-121.87,37.66,-121.87
"United States of America","US","California","Pomona",2421435,34.06,-117.75,34.06,-117.75
"United States of America","US","California","Port Hueneme",2421450,34.16,-119.2,34.15,-119.2
"United States of America","US","California","Porterville",2421458,36.06,-118.97,36.07,-119.02
"United States of America","US","California","Poway",2421473,32.96,-117.04,32.96,-117.04
"United States of America","US","California","Quartz Hill",2421509,39.64,-121.2,34.65,-118.22
"United States of America","US","California","Ramona",2421536,33.04,-116.87,33.04,-116.87
"United States of America","US","California","Rancho Cordova",2421550,38.59,-121.3,38.59,-121.3
"United States of America","US","California","Rancho Cucamonga",2421551,34.12,-117.57,34.11,-117.59
"United States of America","US","California","Rancho Mirage",2421556,33.76,-116.43,33.74,-116.41
"United States of America","US","California","Rancho Palos Verdes",2421558,33.76,-118.36,33.74,-118.39
"United States of America","US","California","Rancho San Diego",2421562,32.76,-116.92,32.75,-116.94
"United States of America","US","California","Rancho Santa Margarita",2421566,33.63,-117.6,33.64,-117.6
"United States of America","US","California","Red Bluff",2421596,40.18,-122.24,40.18,-122.24
"United States of America","US","California","Redding",2421602,40.57,-122.37,40.59,-122.39
"United States of America","US","California","Redlands",2421603,34.06,-117.19,34.06,-117.18
"United States of America","US","California","Redondo Beach",2421605,33.86,-118.38,33.85,-118.39
"United States of America","US","California","Redwood City",2421608,37.49,-122.24,37.49,-122.24
"United States of America","US","California","Reedley",2421620,36.6,-119.45,36.6,-119.45
"United States of America","US","California","Rescue",2674165,37.49,-122.14,38.71,-120.95
"United States of America","US","California","Rialto",2421639,34.11,-117.39,34.11,-117.37
"United States of America","US","California","Richmond",2421655,37.94,-122.35,37.94,-122.35
"United States of America","US","California","Ridgecrest",2421661,35.62,-117.67,35.62,-117.67
"United States of America","US","California","Rio Linda",2421680,38.69,-121.45,38.69,-121.45
"United States of America","US","California","Ripon",2421686,37.74,-121.13,37.74,-121.12
"United States of America","US","California","Riverbank",2421691,37.73,-120.94,37.74,-120.94
"United States of America","US","California","Riverside",2421696,33.95,-117.4,33.95,-117.4
"United States of America","US","California","Rocklin",2421731,38.81,-121.24,38.79,-121.24
"United States of America","US","California","Rohnert Park",2421741,38.35,-122.7,38.34,-122.7
"United States of America","US","California","Roseland",2421754,38.42,-122.73,38.42,-122.72
"United States of America","US","California","Rosemead",2421756,34.07,-118.09,34.08,-118.07
"United States of America","US","California","Rosemont",2421757,33,-116.93,38.55,-121.36
"United States of America","US","California","Roseville",2421758,38.75,-121.29,38.75,-121.29
"United States of America","US","California","Rossmoor",2421763,33.79,-118.09,33.79,-118.09
"United States of America","US","California","Rowland Heights",2421771,33.98,-117.91,33.98,-117.91
"United States of America","US","California","Rubidoux",2421773,34,-117.41,34,-117.41
"United States of America","US","California","Sacramento",2421793,38.58,-121.49,38.58,-121.49
"United States of America","US","California","Salinas",2421807,36.68,-121.64,36.68,-121.66
"United States of America","US","California","San Anselmo",2421820,37.98,-122.57,37.97,-122.56
"United States of America","US","California","San Bernardino",2421826,34.14,-117.29,34.11,-117.29
"United States of America","US","California","San Bruno",2421827,37.63,-122.43,37.63,-122.41
"United States of America","US","California","San Carlos",2421828,37.5,-122.27,37.51,-122.26
"United States of America","US","California","San Clemente",2421829,33.45,-117.61,33.43,-117.61
"United States of America","US","California","San Diego",2421830,32.79,-117.11,32.72,-117.16
"United States of America","US","California","San Dimas",2421832,34.12,-117.81,34.11,-117.81
"United States of America","US","California","San Fernando",2421835,34.29,-118.44,34.28,-118.44
"United States of America","US","California","San Francisco",2421836,37.78,-122.42,37.77,-122.42
"United States of America","US","California","San Gabriel",2421837,34.1,-118.1,34.1,-118.11
"United States of America","US","California","San Jacinto",2421841,33.78,-116.96,33.78,-116.96
"United States of America","US","California","San Jose",2421846,37.34,-121.88,37.34,-121.89
"United States of America","US","California","San Juan Capistrano",2421849,33.5,-117.65,33.5,-117.66
"United States of America","US","California","San Leandro",2421852,37.72,-122.16,37.72,-122.16
"United States of America","US","California","San Lorenzo",2421853,37.68,-122.12,37.68,-122.12
"United States of America","US","California","San Luis Obispo",2421856,35.27,-120.67,35.28,-120.66
"United States of America","US","California","San Marcos",2421859,33.14,-117.17,33.14,-117.17
"United States of America","US","California","San Marino",2421860,34.12,-118.12,34.12,-118.11
"United States of America","US","California","San Mateo",2421862,37.56,-122.31,37.56,-122.33
"United States of America","US","California","San Pablo",2421866,37.96,-122.34,37.96,-122.35
"United States of America","US","California","San Pedro",2421868,33.74,-118.29,33.74,-118.29
"United States of America","US","California","San Rafael",2421871,37.97,-122.53,37.97,-122.53
"United States of America","US","California","San Ramon",2421872,37.78,-121.98,37.78,-121.98
"United States of America","US","California","Sanger",2421891,36.7,-119.56,36.71,-119.56
"United States of America","US","California","Santa Ana",2421894,33.74,-117.88,33.75,-117.87
"United States of America","US","California","Santa Barbara",2421897,34.41,-119.7,34.42,-119.7
"United States of America","US","California","Santa Clara",2421898,37.36,-121.97,37.35,-121.96
"United States of America","US","California","Santa Clarita",2421899,34.41,-118.5,34.39,-118.54
"United States of America","US","California","Santa Cruz",2421900,36.97,-122.03,36.97,-122.03
"United States of America","US","California","Santa Fe Springs",2421901,33.93,-118.06,33.95,-118.09
"United States of America","US","California","Santa Maria",2421904,34.95,-120.44,34.95,-120.44
"United States of America","US","California","Santa Monica",2421905,34.02,-118.49,34.02,-118.49
"United States of America","US","California","Santa Paula",2421908,34.35,-119.07,34.35,-119.06
"United States of America","US","California","Santa Rosa",2421912,38.45,-122.71,38.44,-122.71
"United States of America","US","California","Santee",2421921,32.86,-116.98,32.84,-116.97
"United States of America","US","California","Saratoga",2421924,37.27,-122.03,37.26,-122.02
"United States of America","US","California","Scotts Valley",2421959,37.06,-122.01,37.05,-122.01
"United States of America","US","California","Seal Beach",2421969,33.75,-118.07,33.74,-118.1
"United States of America","US","California","Seaside",2421974,36.62,-121.82,36.62,-121.82
"United States of America","US","California","Selma",2421985,36.57,-119.62,36.57,-119.61
"United States of America","US","California","Shafter",2422015,35.45,-119.35,35.5,-119.27
"United States of America","US","California","Shasta Lake",2422024,40.68,-122.38,40.68,-122.37
"United States of America","US","California","Sierra Madre",2422069,34.17,-118.05,34.16,-118.05
"United States of America","US","California","Signal Hill",2422078,33.8,-118.17,33.8,-118.17
"United States of America","US","California","Simi Valley",2422087,34.27,-118.75,34.27,-118.78
"United States of America","US","California","Solana Beach",2422134,32.99,-117.26,32.99,-117.27
"United States of America","US","California","Soledad",2422135,36.43,-121.32,36.42,-121.33
"United States of America","US","California","Sonoma",2422144,38.29,-122.46,38.29,-122.46
"United States of America","US","California","Soquel",2422151,36.99,-121.96,36.99,-121.96
"United States of America","US","California","South El Monte",2422167,34.05,-118.05,34.05,-118.05
"United States of America","US","California","South Gate",2422170,33.94,-118.19,33.95,-118.21
"United States of America","US","California","South Lake Tahoe",2422173,38.93,-119.98,38.93,-119.98
"United States of America","US","California","South Pasadena",2422180,34.11,-118.16,34.12,-118.15
"United States of America","US","California","South San Francisco",2422182,37.65,-122.41,37.65,-122.41
"United States of America","US","California","South San Jose Hills",2422184,34.01,-117.9,34.01,-117.9
"United States of America","US","California","South Whittier",2422192,33.96,-118.04,33.93,-118.03
"United States of America","US","California","South Yuba City",2422194,39.12,-121.64,39.12,-121.64
"United States of America","US","California","Spring Valley",2422222,32.74,-117,32.74,-117
"United States of America","US","California","Stanford",2422243,37.42,-122.17,37.42,-122.16
"United States of America","US","California","Stanton",2422246,33.8,-117.99,33.8,-117.99
"United States of America","US","California","Stockton",2422265,37.96,-121.29,37.96,-121.29
"United States of America","US","California","Suisun City",2422305,38.25,-122.01,38.24,-122.04
"United States of America","US","California","Sun City",2422319,33.7,-117.2,33.71,-117.2
"United States of America","US","California","Sunnyvale",2422336,37.37,-122.04,37.37,-122.04
"United States of America","US","California","Susanville",2422357,40.42,-120.65,40.42,-120.65
"United States of America","US","California","Taft",2422387,35.14,-119.46,35.14,-119.46
"United States of America","US","California","Tehachapi",2422433,35.13,-118.45,35.13,-118.45
"United States of America","US","California","Temecula",2422436,33.49,-117.13,33.49,-117.15
"United States of America","US","California","Temple City",2422440,34.11,-118.06,34.11,-118.06
"United States of America","US","California","Thousand Oaks",2422478,34.19,-118.88,34.17,-118.84
"United States of America","US","California","Tiburon",2422489,37.87,-122.46,37.87,-122.46
"United States of America","US","California","Toluca Lake",2674404,34.15,-118.34,34.15,-118.35
"United States of America","US","California","Torrance",2422527,33.83,-118.34,33.84,-118.34
"United States of America","US","California","Tracy",2422537,37.74,-121.43,37.74,-121.43
"United States of America","US","California","Truckee",2422560,39.35,-120.18,39.33,-120.18
"United States of America","US","California","Tulare",2422568,36.21,-119.35,36.21,-119.35
"United States of America","US","California","Turlock",2422575,37.51,-120.85,37.49,-120.85
"United States of America","US","California","Tustin Foothills",2422578,,,33.76,-117.79
"United States of America","US","California","Tustin",2422577,33.73,-117.81,33.75,-117.83
"United States of America","US","California","Twentynine Palms",2422584,34.15,-116.07,34.14,-116.05
"United States of America","US","California","Ukiah",2422603,39.15,-123.21,39.15,-123.21
"United States of America","US","California","Union City",2422610,37.6,-122.02,37.59,-122.05
"United States of America","US","California","Upland",2422618,34.1,-117.65,34.1,-117.65
"United States of America","US","California","Vacaville",2422627,38.36,-121.97,38.36,-121.99
"United States of America","US","California","Valinda",2422634,34.04,-117.93,34.05,-117.94
"United States of America","US","California","Vallejo",2422640,38.1,-122.26,38.1,-122.26
"United States of America","US","California","Victorville",2422693,34.53,-117.35,34.54,-117.29
"United States of America","US","California","Visalia",2422716,36.33,-119.32,36.33,-119.29
"United States of America","US","California","Vista",2422717,33.2,-117.24,33.2,-117.24
"United States of America","US","California","Walnut Creek",2422747,37.91,-122.06,37.91,-122.06
"United States of America","US","California","Walnut Park",2422751,33.97,-118.22,33.97,-118.23
"United States of America","US","California","Walnut",2422746,34.03,-117.86,34.02,-117.87
"United States of America","US","California","Wasco",2422767,35.59,-119.37,35.59,-119.34
"United States of America","US","California","Watsonville",2422777,36.92,-121.77,36.91,-121.76
"United States of America","US","California","West Athens",2422805,33.92,-118.3,33.92,-118.3
"United States of America","US","California","West Carson",2422808,33.82,-118.29,33.82,-118.29
"United States of America","US","California","West Covina",2422811,34.06,-117.91,34.07,-117.94
"United States of America","US","California","West Hills",2673803,,,34.2,-118.64
"United States of America","US","California","West Hollywood",2422816,34.09,-118.37,34.09,-118.36
"United States of America","US","California","West Puente Valley",2422825,34.05,-117.97,34.05,-117.97
"United States of America","US","California","West Sacramento",2422826,38.58,-121.53,38.58,-121.53
"United States of America","US","California","Westlake Village",2422839,34.14,-118.82,34.15,-118.81
"United States of America","US","California","Westminster",2422842,33.75,-117.99,33.75,-117.99
"United States of America","US","California","Westmont",2422843,33.94,-118.3,33.94,-118.3
"United States of America","US","California","Whittier",2422884,33.97,-118.02,33.98,-118.03
"United States of America","US","California","Wildomar",2422898,33.61,-117.25,33.6,-117.28
"United States of America","US","California","Willowbrook",2422915,33.92,-118.26,33.92,-118.26
"United States of America","US","California","Windsor",2422930,38.52,-122.8,38.55,-122.82
"United States of America","US","California","Woodland",2422956,38.68,-121.77,38.68,-121.77
"United States of America","US","California","Yorba Linda",2422996,33.89,-117.81,33.89,-117.81
"United States of America","US","California","Yuba City",2423008,39.14,-121.64,39.14,-121.62
"United States of America","US","California","Yucaipa",2423010,34.03,-117.04,34.03,-117.04
"United States of America","US","California","Yucca Valley",2423013,34.12,-116.42,34.11,-116.43
"United States of America","US","Colorado","Alamosa",2423040,37.47,-105.87,37.47,-105.87
"United States of America","US","Colorado","Applewood",2423071,39.74,-105.19,39.75,-105.16
"United States of America","US","Colorado","Arvada",2423086,39.8,-105.09,39.8,-105.09
"United States of America","US","Colorado","Aurora",2423096,39.73,-104.83,39.73,-104.83
"United States of America","US","Colorado","Black Forest",2423152,39.05,-104.66,39.01,-104.7
"United States of America","US","Colorado","Boulder",2423172,40.01,-105.27,40.01,-105.27
"United States of America","US","Colorado","Brighton",2423190,39.93,-104.8,39.99,-104.82
"United States of America","US","Colorado","Broomfield",2423199,39.95,-105.05,39.92,-105.09
"United States of America","US","Colorado","Canon City",2423237,38.44,-105.22,38.44,-105.23
"United States of America","US","Colorado","Castle Rock",2423255,39.37,-104.86,39.37,-104.86
"United States of America","US","Colorado","Castlewood",2423256,39.58,-104.9,39.58,-104.9
"United States of America","US","Colorado","Centennial",2423267,39.59,-104.87,39.58,-104.88
"United States of America","US","Colorado","Cimarron Hills",2423288,38.86,-104.7,38.86,-104.7
"United States of America","US","Colorado","Clifton",2423294,39.07,-108.49,39.09,-108.45
"United States of America","US","Colorado","Colorado Springs",2423310,38.86,-104.76,38.83,-104.82
"United States of America","US","Colorado","Columbine",2423311,40.85,-106.97,39.59,-105.07
"United States of America","US","Colorado","Commerce City",2423316,39.84,-104.91,39.81,-104.93
"United States of America","US","Colorado","Cortez",2423329,37.35,-108.59,37.35,-108.59
"United States of America","US","Colorado","Craig",2423336,40.52,-107.55,40.52,-107.55
"United States of America","US","Colorado","Denver",2423371,39.74,-104.98,39.74,-104.98
"United States of America","US","Colorado","Durango",2423402,37.28,-107.88,37.28,-107.88
"United States of America","US","Colorado","Englewood",2423452,39.65,-104.99,39.65,-104.99
"United States of America","US","Colorado","Erie",2423454,40.04,-105.04,40.05,-105.05
"United States of America","US","Colorado","Evans",2423461,40.37,-104.74,40.38,-104.69
"United States of America","US","Colorado","Federal Heights",2423475,39.87,-105.02,39.85,-105
"United States of America","US","Colorado","Fort Carson",2423492,38.56,-104.84,38.74,-104.79
"United States of America","US","Colorado","Fort Collins",2423493,40.55,-105.07,40.59,-105.08
"United States of America","US","Colorado","Fort Morgan",2423497,40.25,-103.79,40.25,-103.8
"United States of America","US","Colorado","Fountain",2423500,38.58,-104.66,38.68,-104.7
"United States of America","US","Colorado","Glenwood Springs",2423558,39.55,-107.33,39.55,-107.32
"United States of America","US","Colorado","Golden",2423562,39.74,-105.21,39.76,-105.22
"United States of America","US","Colorado","Grand Junction",2423576,39.1,-108.67,39.06,-108.55
"United States of America","US","Colorado","Greeley",2423585,40.42,-104.71,40.42,-104.71
"United States of America","US","Colorado","Greenwood Village",2423594,39.61,-104.92,39.62,-104.95
"United States of America","US","Colorado","Highlands Ranch",2423654,39.55,-104.97,39.54,-104.97
"United States of America","US","Colorado","Ken Caryl",2423738,39.58,-105.11,39.58,-105.11
"United States of America","US","Colorado","Lafayette",2423783,39.99,-105.1,39.99,-105.09
"United States of America","US","Colorado","Lakewood",2423789,39.7,-105.08,39.7,-105.08
"United States of America","US","Colorado","Lamar",2423790,38.08,-102.62,38.09,-102.62
"United States of America","US","Colorado","Littleton",2423829,39.59,-105.02,39.61,-105.02
"United States of America","US","Colorado","Longmont",2423845,40.17,-105.11,40.17,-105.1
"United States of America","US","Colorado","Louisville",2423849,39.96,-105.19,39.98,-105.13
"United States of America","US","Colorado","Loveland",2423851,40.4,-105.07,40.4,-105.07
"United States of America","US","Colorado","Montrose",2423941,38.47,-107.86,38.48,-107.88
"United States of America","US","Colorado","Northglenn",2423993,39.91,-104.98,39.9,-104.98
"United States of America","US","Colorado","Parker",2424053,39.52,-104.76,39.52,-104.76
"United States of America","US","Colorado","Pueblo",2424125,38.27,-104.61,38.25,-104.61
"United States of America","US","Colorado","Redlands",2424147,39.09,-108.67,39.09,-108.65
"United States of America","US","Colorado","Sherrelwood",2424255,39.84,-105,39.84,-105
"United States of America","US","Colorado","Southglenn",2424290,39.59,-104.95,39.59,-104.95
"United States of America","US","Colorado","Steamboat Springs",2424309,40.48,-106.82,40.48,-106.83
"United States of America","US","Colorado","Sterling",2424312,40.63,-103.21,40.63,-103.21
"United States of America","US","Colorado","Superior",2424342,39.93,-105.16,39.95,-105.17
"United States of America","US","Colorado","Thornton",2424360,39.96,-104.93,39.87,-104.97
"United States of America","US","Colorado","Trinidad",2424386,37.17,-104.5,37.17,-104.5
"United States of America","US","Colorado","Welby",2424459,39.84,-104.96,39.84,-104.96
"United States of America","US","Colorado","Westminster",2424472,39.86,-105.04,39.84,-105.04
"United States of America","US","Colorado","Wheat Ridge",2424476,39.77,-105.08,39.77,-105.08
"United States of America","US","Colorado","Windsor",2424497,40.47,-104.92,40.48,-104.9
"United States of America","US","Connecticut","Ansonia",2424530,41.34,-73.07,41.35,-73.08
"United States of America","US","Connecticut","Bozrah",2674478,41.57,-72.17,41.54,-72.18
"United States of America","US","Connecticut","Branford",2424596,41.28,-72.82,41.28,-72.8
"United States of America","US","Connecticut","Bridgeport",2673877,41.19,-73.2,41.19,-73.2
"United States of America","US","Connecticut","Bridgewater",2424600,41.54,-73.37,41.53,-73.36
"United States of America","US","Connecticut","Bristol",2424603,41.68,-72.94,41.67,-72.95
"United States of America","US","Connecticut","Cheshire",2424656,41.5,-72.9,41.51,-72.9
"United States of America","US","Connecticut","Clinton",2424666,41.28,-72.53,41.28,-72.53
"United States of America","US","Connecticut","Colchester",2424672,41.58,-72.33,41.58,-72.33
"United States of America","US","Connecticut","Coventry",2424687,41.77,-72.31,41.78,-72.34
"United States of America","US","Connecticut","Cromwell",2424692,41.6,-72.65,41.61,-72.66
"United States of America","US","Connecticut","Danbury",2424697,41.4,-73.47,41.39,-73.45
"United States of America","US","Connecticut","Darien",2424700,41.08,-73.47,41.08,-73.47
"United States of America","US","Connecticut","Derby",2424706,41.33,-73.08,41.32,-73.09
"United States of America","US","Connecticut","East Haddam",2424728,41.45,-72.46,41.45,-72.46
"United States of America","US","Connecticut","East Hampton",2424729,40.95,-72.2,41.58,-72.5
"United States of America","US","Connecticut","East Hartford",2424730,41.78,-72.61,41.78,-72.61
"United States of America","US","Connecticut","East Haven",2424733,41.3,-72.86,41.28,-72.87
"United States of America","US","Connecticut","East Lyme",2673895,41.33,-72.32,41.35,-72.23
"United States of America","US","Connecticut","East Windsor",2673896,42.48,-72.99,41.92,-72.56
"United States of America","US","Connecticut","Ellington",2424756,41.9,-72.47,41.92,-72.46
"United States of America","US","Connecticut","Fairfield",2424772,41.14,-73.26,41.14,-73.26
"United States of America","US","Connecticut","Greenwich",2424834,41.03,-73.63,41.04,-73.61
"United States of America","US","Connecticut","Groton",2424837,41.33,-72.07,41.35,-72.08
"United States of America","US","Connecticut","Guilford",2424841,41.29,-72.68,41.29,-72.68
"United States of America","US","Connecticut","Hamden",2424850,41.4,-72.9,41.38,-72.9
"United States of America","US","Connecticut","Hartford",2424862,41.77,-72.68,41.76,-72.69
"United States of America","US","Connecticut","Hebron",2424874,41.66,-72.37,41.65,-72.39
"United States of America","US","Connecticut","Litchfield",2424949,41.75,-73.19,41.75,-73.19
"United States of America","US","Connecticut","Lyme",2674479,41.32,-72.33,41.4,-72.35
"United States of America","US","Connecticut","Madison",2424965,41.28,-72.6,41.34,-72.63
"United States of America","US","Connecticut","Meriden",2424988,41.54,-72.79,41.54,-72.81
"United States of America","US","Connecticut","Middletown",2424997,41.56,-72.65,41.56,-72.65
"United States of America","US","Connecticut","Milford",2425000,41.22,-73.06,41.23,-73.06
"United States of America","US","Connecticut","Naugatuck",2425041,41.49,-73.05,41.49,-73.05
"United States of America","US","Connecticut","New Britain",2425046,41.68,-72.79,41.66,-72.78
"United States of America","US","Connecticut","New Haven",2425051,41.31,-72.92,41.31,-72.93
"United States of America","US","Connecticut","New London",2425052,41.36,-72.1,41.36,-72.1
"United States of America","US","Connecticut","New Milford",2425053,41.58,-73.41,41.58,-73.41
"United States of America","US","Connecticut","Newington",2425059,41.7,-72.72,41.7,-72.72
"United States of America","US","Connecticut","North Branford",2425070,41.33,-72.77,41.36,-72.77
"United States of America","US","Connecticut","North Haven",2425083,41.38,-72.86,41.39,-72.86
"United States of America","US","Connecticut","Norwalk",2425102,41.09,-73.42,41.12,-73.41
"United States of America","US","Connecticut","Norwich",2425103,41.55,-72.09,41.52,-72.08
"United States of America","US","Connecticut","Old Saybrook",2425118,41.29,-72.38,41.3,-72.38
"United States of America","US","Connecticut","Orange",2425120,41.28,-73.03,41.28,-73.03
"United States of America","US","Connecticut","Oxford",2425133,41.43,-73.12,41.43,-73.13
"United States of America","US","Connecticut","Plainfield",2425160,41.68,-71.92,41.68,-71.92
"United States of America","US","Connecticut","Plymouth",2425170,41.67,-73.05,41.67,-73.03
"United States of America","US","Connecticut","Portland",2425185,41.57,-72.64,41.57,-72.64
"United States of America","US","Connecticut","Preston",2674480,41.53,-71.97,41.52,-72.01
"United States of America","US","Connecticut","Prospect",2425188,41.5,-72.98,41.5,-72.98
"United States of America","US","Connecticut","Putnam",2425190,41.92,-71.91,41.91,-71.87
"United States of America","US","Connecticut","Seymour",2425263,41.4,-73.08,41.4,-73.07
"United States of America","US","Connecticut","Shelton",2425269,41.31,-73.14,41.3,-73.14
"United States of America","US","Connecticut","Somers",2425286,41.33,-73.69,41.99,-72.45
"United States of America","US","Connecticut","Southbury",2425309,41.48,-73.21,41.48,-73.21
"United States of America","US","Connecticut","Stafford",2425319,41.98,-72.29,41.98,-72.32
"United States of America","US","Connecticut","Stamford",2425322,41.08,-73.55,41.05,-73.54
"United States of America","US","Connecticut","Stonington",2425330,41.34,-71.91,41.34,-71.91
"United States of America","US","Connecticut","Storrs",2425332,41.81,-72.25,41.81,-72.25
"United States of America","US","Connecticut","Stratford",2425336,41.18,-73.13,41.18,-73.13
"United States of America","US","Connecticut","Thompson",2425358,41.96,-71.86,41.98,-71.88
"United States of America","US","Connecticut","Tolland",2425365,41.87,-72.37,41.88,-72.36
"United States of America","US","Connecticut","Torrington",2425370,41.83,-73.13,41.8,-73.12
"United States of America","US","Connecticut","Trumbull",2425377,41.24,-73.2,41.24,-73.2
"United States of America","US","Connecticut","Vernon",2425393,41.82,-72.48,41.82,-72.48
"United States of America","US","Connecticut","Waterbury",2425408,41.56,-73.04,41.56,-73.05
"United States of America","US","Connecticut","Watertown",2425409,41.61,-73.12,41.61,-73.12
"United States of America","US","Connecticut","West Hartford",2425425,41.76,-72.74,41.76,-72.74
"United States of America","US","Connecticut","West Haven",2425427,41.27,-72.97,41.27,-72.95
"United States of America","US","Connecticut","Westport",2425454,41.14,-73.36,41.14,-73.36
"United States of America","US","Connecticut","Wethersfield",2425457,41.71,-72.65,41.71,-72.66
"United States of America","US","Connecticut","Willimantic",2425466,41.71,-72.21,41.71,-72.21
"United States of America","US","Connecticut","Willington",2674211,41.88,-72.26,41.89,-72.26
"United States of America","US","Connecticut","Windham",2425473,41.7,-72.16,41.71,-72.17
"United States of America","US","Connecticut","Windsor Locks",2425476,41.93,-72.63,41.92,-72.65
"United States of America","US","Connecticut","Wolcott",2425482,41.6,-72.99,41.6,-72.98
"United States of America","US","Connecticut","Woodbridge",2425483,41.35,-73.01,41.35,-73.01
"United States of America","US","Connecticut","Woodbury",2425484,41.54,-73.21,41.56,-73.21
"United States of America","US","Delaware","Brookside",2425675,38.66,-76.54,39.67,-75.73
"United States of America","US","Delaware","Claymont",2425768,39.8,-75.46,39.8,-75.46
"United States of America","US","Delaware","Dover",2425878,39.16,-75.52,39.16,-75.52
"United States of America","US","Delaware","Edgemoor",2425915,39.75,-75.5,39.75,-75.5
"United States of America","US","Delaware","Elsmere",2425925,39.74,-75.6,39.74,-75.6
"United States of America","US","Delaware","Georgetown",2426014,38.69,-75.39,38.69,-75.39
"United States of America","US","Delaware","Middletown",2426387,39.5,-84.37,39.45,-75.72
"United States of America","US","Delaware","Milford",2426396,38.91,-75.43,38.91,-75.43
"United States of America","US","Delaware","New Castle",2426451,39.66,-75.57,39.66,-75.57
"United States of America","US","Delaware","Newark",2426455,38.27,-75.27,39.68,-75.75
"United States of America","US","Delaware","Pike Creek",2426554,39.73,-75.7,39.73,-75.7
"United States of America","US","Delaware","Seaford",2426709,38.65,-75.61,38.64,-75.61
"United States of America","US","Delaware","Smyrna",2426775,39.3,-75.6,39.3,-75.6
"United States of America","US","Delaware","Wilmington Manor",2426986,39.69,-75.58,39.69,-75.58
"United States of America","US","Delaware","Wilmington",2426985,39.44,-83.83,39.75,-75.55
"United States of America","US","District of Columbia","Washington",2427178,38.9,-77.04,38.9,-77.04
"United States of America","US","Florida","Altamonte Springs",2427220,28.66,-81.39,28.66,-81.37
"United States of America","US","Florida","Apopka",2427247,28.68,-81.51,28.69,-81.51
"United States of America","US","Florida","Atlantic Beach",2427276,30.34,-81.38,30.33,-81.4
"United States of America","US","Florida","Auburndale",2427280,28.09,-81.8,28.07,-81.79
"United States of America","US","Florida","Aventura",2427286,25.96,-80.14,25.96,-80.14
"United States of America","US","Florida","Avon Park",2427288,27.59,-81.5,27.6,-81.51
"United States of America","US","Florida","Azalea Park",2427292,27.79,-82.74,28.54,-81.3
"United States of America","US","Florida","Bartow",2427323,27.9,-81.84,27.9,-81.84
"United States of America","US","Florida","Bayonet Point",2427348,28.33,-82.68,28.33,-82.68
"United States of America","US","Florida","Bayshore Gardens",2427353,27.43,-82.59,27.43,-82.59
"United States of America","US","Florida","Belle Glade",2427386,26.68,-80.68,26.68,-80.67
"United States of America","US","Florida","Bellview",2427397,30.46,-87.31,30.46,-87.31
"United States of America","US","Florida","Bloomingdale",2427462,27.89,-82.24,27.88,-82.26
"United States of America","US","Florida","Boca Raton",2427482,26.37,-80.11,26.36,-80.08
"United States of America","US","Florida","Bonita Springs",2427493,26.36,-81.79,26.34,-81.78
"United States of America","US","Florida","Boynton Beach",2427504,26.53,-80.08,26.53,-80.07
"United States of America","US","Florida","Bradenton",2427506,27.49,-82.58,27.5,-82.57
"United States of America","US","Florida","Brandon",2427514,27.94,-82.29,27.94,-82.29
"United States of America","US","Florida","Brent",2427519,30.47,-87.24,30.47,-87.24
"United States of America","US","Florida","Callaway",2427590,30.14,-85.56,30.14,-85.58
"United States of America","US","Florida","Cape Canaveral",2427612,28.39,-80.61,28.39,-80.6
"United States of America","US","Florida","Cape Coral",2427613,26.64,-82,26.56,-81.95
"United States of America","US","Florida","Carol City",2427626,25.94,-80.25,25.94,-80.27
"United States of America","US","Florida","Casselberry",2427645,28.67,-81.34,28.68,-81.33
"United States of America","US","Florida","Century Village",2427667,26.71,-80.13,26.71,-80.12
"United States of America","US","Florida","Citrus Park",2427707,28.1,-82.58,28.08,-82.57
"United States of America","US","Florida","Clearwater",2427722,27.98,-82.76,27.97,-82.8
"United States of America","US","Florida","Clermont",2427724,28.54,-81.73,28.55,-81.77
"United States of America","US","Florida","Cocoa Beach",2427738,28.32,-80.61,28.32,-80.61
"United States of America","US","Florida","Cocoa",2427737,28.39,-80.74,28.39,-80.74
"United States of America","US","Florida","Coconut Creek",2427740,26.32,-80.18,26.25,-80.18
"United States of America","US","Florida","Conway",2427765,28.5,-81.33,28.5,-81.33
"United States of America","US","Florida","Cooper City",2427769,26.05,-80.29,26.06,-80.27
"United States of America","US","Florida","Coral Gables",2427776,25.72,-80.27,25.72,-80.27
"United States of America","US","Florida","Coral Springs",2427783,26.27,-80.27,26.27,-80.27
"United States of America","US","Florida","Coral Terrace",2427784,25.75,-80.3,25.75,-80.3
"United States of America","US","Florida","Country Club",2427802,25.94,-80.31,25.95,-80.32
"United States of America","US","Florida","Crestview",2427826,30.75,-86.58,30.76,-86.57
"United States of America","US","Florida","Cutler Ridge",2427854,25.58,-80.35,25.58,-80.34
"United States of America","US","Florida","Cutler",2427853,25.62,-80.31,25.63,-80.32
"United States of America","US","Florida","Cypress Gardens",2427859,27.99,-81.69,27.99,-81.69
"United States of America","US","Florida","Cypress Lake",2427862,26.54,-81.9,26.54,-81.9
"United States of America","US","Florida","Dania Beach",2427878,26.06,-80.16,26.05,-80.14
"United States of America","US","Florida","Davie",2427885,26.08,-80.29,26.06,-80.23
"United States of America","US","Florida","Daytona Beach",2427890,29.21,-81.02,29.21,-81.02
"United States of America","US","Florida","De Land",2427895,29.03,-81.31,29.03,-81.3
"United States of America","US","Florida","DeFuniak Springs",2675179,30.71,-86.12,30.72,-86.12
"United States of America","US","Florida","DeLand",2673552,29.03,-81.3,29.03,-81.3
"United States of America","US","Florida","Deerfield Beach",2427907,26.32,-80.1,26.32,-80.1
"United States of America","US","Florida","Delray Beach",2427916,26.46,-80.09,26.46,-80.07
"United States of America","US","Florida","Deltona",2427920,28.9,-81.26,28.9,-81.26
"United States of America","US","Florida","Destin",2427926,30.39,-86.47,30.39,-86.5
"United States of America","US","Florida","Doctor Phillips",2427937,28.46,-81.49,28.45,-81.49
"United States of America","US","Florida","Dunedin",2427962,28.02,-82.77,28.02,-82.77
"United States of America","US","Florida","East Lake",2427984,28.12,-82.69,28.11,-82.69
"United States of America","US","Florida","Edgewater",2428014,28.96,-80.94,28.99,-80.9
"United States of America","US","Florida","Egypt Lake-Leto",2428023,28.02,-82.51,28.02,-82.5
"United States of America","US","Florida","Elfers",2428036,28.21,-82.72,28.22,-82.72
"United States of America","US","Florida","Englewood",2428055,26.96,-82.35,26.96,-82.35
"United States of America","US","Florida","Ensley",2428057,30.53,-87.27,30.52,-87.27
"United States of America","US","Florida","Eustis",2428070,28.86,-81.68,28.85,-81.69
"United States of America","US","Florida","Fairview Shores",2428086,28.59,-81.39,28.59,-81.39
"United States of America","US","Florida","Fern Park",2428109,28.65,-81.35,28.65,-81.35
"United States of America","US","Florida","Fernandina Beach",2428110,30.67,-81.46,30.67,-81.46
"United States of America","US","Florida","Ferry Pass",2428112,30.51,-87.21,30.51,-87.21
"United States of America","US","Florida","Florida Ridge",2428144,27.58,-80.38,27.58,-80.39
"United States of America","US","Florida","Forest City",2428154,28.66,-81.42,28.66,-81.45
"United States of America","US","Florida","Fort Lauderdale",2428179,26.13,-80.14,26.12,-80.14
"United States of America","US","Florida","Fort Lauderdale",2673744,26.13,-80.14,26.12,-80.14
"United States of America","US","Florida","Fort Myers Beach",2428188,26.43,-81.92,26.45,-81.95
"United States of America","US","Florida","Fort Myers",2428187,26.64,-81.87,26.64,-81.87
"United States of America","US","Florida","Fort Pierce",2428194,27.43,-80.33,27.45,-80.33
"United States of America","US","Florida","Fort Walton Beach",2428199,30.42,-86.62,30.42,-86.62
"United States of America","US","Florida","Fruitville",2428228,27.33,-82.46,27.33,-82.46
"United States of America","US","Florida","Gainesville",2428238,29.68,-82.34,29.65,-82.32
"United States of America","US","Florida","Gladeview",2428271,25.84,-80.24,25.84,-80.24
"United States of America","US","Florida","Glenvar Heights",2428277,25.71,-80.33,25.71,-80.33
"United States of America","US","Florida","Golden Gate",2428283,27.16,-80.22,26.19,-81.7
"United States of America","US","Florida","Golden Glades",2428285,25.91,-80.2,25.91,-80.2
"United States of America","US","Florida","Goldenrod",2428289,28.61,-81.28,28.61,-81.29
"United States of America","US","Florida","Gulf Gate Estates",2428351,27.26,-82.51,27.26,-82.51
"United States of America","US","Florida","Gulfport",2428360,27.75,-82.71,27.75,-82.7
"United States of America","US","Florida","Haines City",2428367,28.11,-81.62,28.11,-81.62
"United States of America","US","Florida","Hallandale Beach",2428372,25.99,-80.14,25.98,-80.15
"United States of America","US","Florida","Hamptons at Boca Raton",2428381,26.38,-80.18,26.38,-80.19
"United States of America","US","Florida","Hialeah Gardens",2428435,25.89,-80.36,25.87,-80.32
"United States of America","US","Florida","Hialeah",2428433,25.87,-80.3,25.86,-80.28
"United States of America","US","Florida","Hobe Sound",2428467,27.06,-80.14,27.06,-80.14
"United States of America","US","Florida","Holiday",2428473,28.19,-82.74,28.19,-82.74
"United States of America","US","Florida","Holly Hill",2428483,29.24,-81.05,29.24,-81.04
"United States of America","US","Florida","Hollywood",2428485,26.01,-80.15,26.01,-80.15
"United States of America","US","Florida","Homestead",2428494,25.47,-80.48,25.47,-80.48
"United States of America","US","Florida","Immokalee",2428530,26.42,-81.42,26.42,-81.42
"United States of America","US","Florida","Indian Harbour Beach",2428535,28.15,-80.6,28.15,-80.59
"United States of America","US","Florida","Iona",2428559,26.52,-81.96,26.52,-81.96
"United States of America","US","Florida","Ives Estates",2428574,25.96,-80.18,25.96,-80.18
"United States of America","US","Florida","Jacksonville Beach",2428578,30.28,-81.37,30.28,-81.4
"United States of America","US","Florida","Jacksonville",2428577,30.33,-81.66,30.33,-81.66
"United States of America","US","Florida","Jasmine Estates",2428585,28.29,-82.69,28.29,-82.69
"United States of America","US","Florida","Jensen Beach",2428592,27.25,-80.23,27.25,-80.23
"United States of America","US","Florida","Jupiter",2428617,26.93,-80.11,26.93,-80.09
"United States of America","US","Florida","Kendale Lakes",2428630,25.71,-80.41,25.71,-80.41
"United States of America","US","Florida","Kendall",2428631,25.68,-80.32,25.67,-80.36
"United States of America","US","Florida","Key Biscayne",2428646,25.7,-80.16,25.69,-80.16
"United States of America","US","Florida","Key Largo",2428648,25.09,-80.45,25.09,-80.45
"United States of America","US","Florida","Key West",2428650,24.58,-81.75,24.56,-81.78
"United States of America","US","Florida","Kings Point",2428662,26.45,-80.14,26.45,-80.14
"United States of America","US","Florida","Kissimmee",2428670,28.29,-81.41,28.29,-81.41
"United States of America","US","Florida","Lady Lake",2428689,28.92,-81.93,28.92,-81.92
"United States of America","US","Florida","Lake City",2428703,30.19,-82.64,30.19,-82.64
"United States of America","US","Florida","Lake Lucerne",2428723,25.97,-80.24,25.97,-80.26
"United States of America","US","Florida","Lake Magdalene",2428725,28.07,-82.47,28.07,-82.47
"United States of America","US","Florida","Lake Mary",2428727,28.76,-81.32,28.76,-81.32
"United States of America","US","Florida","Lake Park",2428730,26.8,-80.07,26.8,-80.07
"United States of America","US","Florida","Lake Wales",2428742,27.9,-81.59,27.9,-81.59
"United States of America","US","Florida","Lake Worth",2428744,26.62,-80.06,26.62,-80.06
"United States of America","US","Florida","Lakeland Highlands",2428748,27.94,-81.97,27.96,-81.95
"United States of America","US","Florida","Lakeland",2428747,28.04,-81.95,28.04,-81.95
"United States of America","US","Florida","Lakeside",2428752,30.38,-84.3,30.13,-81.77
"United States of America","US","Florida","Lantana",2428770,26.58,-80.05,26.59,-80.05
"United States of America","US","Florida","Largo",2428771,27.91,-82.79,27.91,-82.79
"United States of America","US","Florida","Lauderdale Lakes",2428774,26.17,-80.2,26.17,-80.21
"United States of America","US","Florida","Lauderhill",2428776,26.16,-80.22,26.14,-80.21
"United States of America","US","Florida","Laurel",2428777,27.14,-82.46,27.13,-82.45
"United States of America","US","Florida","Leesburg",2428789,28.81,-81.88,28.81,-81.88
"United States of America","US","Florida","Lehigh Acres",2428790,26.63,-81.62,26.63,-81.62
"United States of America","US","Florida","Leisure City",2428791,25.49,-80.44,25.5,-80.43
"United States of America","US","Florida","Lighthouse Point",2428806,26.28,-80.09,26.28,-80.09
"United States of America","US","Florida","Lockhart",2428833,28.62,-81.44,28.62,-81.44
"United States of America","US","Florida","Longwood",2428845,28.7,-81.35,28.7,-81.34
"United States of America","US","Florida","Lutz",2428872,28.15,-82.46,28.15,-82.46
"United States of America","US","Florida","Lynn Haven",2428876,30.24,-85.64,30.25,-85.65
"United States of America","US","Florida","Maitland",2428889,28.63,-81.37,28.63,-81.36
"United States of America","US","Florida","Mango",2428905,27.98,-82.31,27.98,-82.31
"United States of America","US","Florida","Marathon",2428914,24.73,-81.04,24.71,-81.09
"United States of America","US","Florida","Marco Island",2675111,25.97,-81.73,25.94,-81.71
"United States of America","US","Florida","Margate",2428919,26.25,-80.21,26.24,-80.21
"United States of America","US","Florida","Melbourne",2428969,28.12,-80.64,28.08,-80.61
"United States of America","US","Florida","Merritt Island",2428984,28.54,-80.67,28.31,-80.66
"United States of America","US","Florida","Miami Beach",2428988,25.82,-80.14,25.79,-80.13
"United States of America","US","Florida","Miami Lakes",2428990,25.91,-80.32,25.91,-80.31
"United States of America","US","Florida","Miami Shores",2428991,25.87,-80.18,25.86,-80.19
"United States of America","US","Florida","Miami Springs",2428992,25.82,-80.29,25.82,-80.29
"United States of America","US","Florida","Miami",2428987,25.78,-80.21,25.79,-80.23
