"country","country_code","region","city","id","osm_lat","osm_long","g_lat","g_long"
"Poland","PL",,"Pleszew","1868542","51.8961121","17.7894584",,
"Poland","PL",,"Police","1869277","53.5486435","14.5657399",,
"Poland","PL",,"Polkowice","1869326","51.5047075","16.0718887",,
"Poland","PL",,"Poniatowa","1869442","51.19298","22.06505",,
"Poland","PL",,"Poreba","1869616","49.98041","18.89047",,
"Poland","PL",,"Poznan","1869871","52.4062306316991","16.9230018740802",,
"Poland","PL",,"Prudnik","1870106","50.3212034","17.5805076",,
"Poland","PL",,"Pruszków","1870173","52.1643531","20.8017386",,
"Poland","PL",,"Przasnysz","1870188","53.018915","20.8792368",,
"Poland","PL",,"Przeworsk","1870376","50.0601735","22.4923769",,
"Poland","PL",,"Pszczyna","1870757","49.9717302","18.9467518",,
"Poland","PL",,"Pszów","1870760","50.0401131","18.3934614",,
"Poland","PL",,"Puck","1870800","54.7202658","18.4113053",,
"Poland","PL",,"Pyrzyce","1870923","53.1457","14.89267",,
"Poland","PL",,"Pyskowice","1870925","50.389989509588","18.6122397288715",,
"Poland","PL",,"Racibórz","1871029","50.0920807","18.2198419",,
"Poland","PL",,"Radlin","1871122","50.86219","20.74944",,
"Poland","PL",,"Radomsko","1871158","51.0676691","19.4429971",,
"Poland","PL",,"Radom","1871157","51.4072078","21.1517282",,
"Poland","PL",,"Radzionków","1871320","50.4002717","18.9026247",,
"Poland","PL",,"Radzyn Podlaski","1871343","51.78092","22.62231",,
"Poland","PL",,"Rawa Mazowiecka","1871577","51.7624929","20.2519293",,
"Poland","PL",,"Rawicz","1871585","51.6106631","16.8663113",,
"Poland","PL",,"Reda","1871652","54.6170279118494","18.3373350437959",,
"Poland","PL",,"Rogozno","1872116","52.7522783","16.9935892",,
"Poland","PL",,"Ruda Slaska","1872717","50.2661534084538","18.8693677222047",,
"Poland","PL",,"Rumia","1872911","54.5669051272622","18.3830505559246",,
"Poland","PL",,"Rybnik","1873141","50.0963409","18.5443907",,
"Poland","PL",,"Ryki","1873243","51.62795","21.930331",,
"Poland","PL",,"Rypin","1873274","53.0661002","19.4089968",,
"Poland","PL",,"Rzeszów","1873471","50.0318274461826","21.998254402044",,
"Poland","PL",,"Sandomierz","1873856","50.6802453854745","21.7507209867693",,
"Poland","PL",,"Sanok","1873883","49.5587563","22.2052358",,
"Poland","PL",,"Sepolno Krajenskie","1874660","53.4548316","17.5342744",,
"Poland","PL",,"Siedlce","1874810","52.165046189362","22.2711933385952",,
"Poland","PL",,"Siemianowice Slaskie","1874962","50.3134789007809","19.0264667169085",,
"Poland","PL",,"Siemiatycze","1874974","52.42718","22.86474",,
"Poland","PL",,"Sieradz","1875079","51.5980077","18.739202",,
"Poland","PL",,"Sierpc","1875136","52.8540162689415","19.6661744735914",,
"Poland","PL",,"Skarzysko-Kamienna","1875391","51.1186148","20.8763885",,
"Poland","PL",,"Skawina","1875405","49.9749987","19.8264064",,
"Poland","PL",,"Skierniewice","1875434","51.9568581","20.1430044",,
"Poland","PL",,"Skoczów","1875449","49.7999039","18.7877583",,
"Poland","PL",,"Skwierzyna","1875710","52.5964925","15.5018923",,
"Poland","PL",,"Sochaczew","1876132","52.2269697","20.2422249",,
"Poland","PL",,"Solec Kujawski","1876279","53.0728948194097","18.2352796516497",,
"Poland","PL",,"Sopot","1876347","54.4393002810328","18.5444000399632",,
"Poland","PL",,"Sosnowiec","1876402","50.2806917","19.1349298",,
"Poland","PL",,"Srem","1876555","52.0849612","17.0161982",,
"Poland","PL",,"Sroda Wielkopolska","1876568","52.22731","17.27071",,
"Poland","PL",,"Stalowa Wola","1876638","50.5685372","22.065133",,
"Poland","PL",,"Starachowice","1876747","51.0516284","21.0766063",,
"Poland","PL",,"Stargard Szczecinski","1876966","53.33772","15.03801",,
"Poland","PL",,"Starogard Gdanski","1876982","53.9686434","18.5315061",,
"Poland","PL",,"Stary Sacz","1877102","49.5636575","20.6355942",,
"Poland","PL",,"Staszów","1877160","50.5612276","21.1677849",,
"Poland","PL",,"Strzegom","1877797","50.964752","16.341493",,
"Poland","PL",,"Strzelce Krajenskie","1877810","52.87762","15.52896",,
"Poland","PL",,"Strzelce Opolskie","1877816","50.5150273","18.3009698",,
"Poland","PL",,"Strzelin","1877842","50.7807868","17.0694063",,
"Poland","PL",,"Sucha Beskidzka","1878058","49.74079","19.5905975",,
"Poland","PL",,"Suchedniów","1878105","51.0457749","20.8352486",,
"Poland","PL",,"Sulechów","1878220","52.08159","15.62445",,
"Poland","PL",,"Sulecin","1878222","52.4413768","15.1161501",,
"Poland","PL",,"Sulejówek","1878234","52.2467668","21.2825065",,
"Poland","PL",,"Swarzedz","1878407","52.4040043","17.0754106",,
"Poland","PL",,"Swidnica","1878458","50.8424835","16.4870549",,
"Poland","PL",,"Swidnik","1878464","51.2206511","22.69802",,
"Poland","PL",,"Swidwin","1878489","53.7747456","15.7764508",,
"Poland","PL",,"Swiebodzice","1878494","50.8598813","16.3204183",,
"Poland","PL",,"Swiecie","1878517","53.410423","18.4531473",,
"Poland","PL",,"Swinoujscie","1878705","53.909585","14.2511363",,
"Poland","PL",,"Syców","1878761","51.30998","17.72354",,
"Poland","PL",,"Szczecinek","1878949","53.70761","16.69497",,
"Poland","PL",,"Szczecin","1878965","53.4301652","14.5513137",,
"Poland","PL",,"Szczytno","1879127","53.56251","20.9926504",,
"Poland","PL",,"Szprotawa","1879351","51.5654113","15.5409284",,
"Poland","PL",,"Szubin","1879381","53.0117503","17.7439402",,
"Poland","PL",,"Tarnobrzeg","1879753","50.5718757","21.6785203",,
"Poland","PL",,"Tarnowskie Góry","1879795","50.4445194","18.8554757",,
"Poland","PL",,"Tarnów","1879802","50.0141972","20.9892812",,
"Poland","PL",,"Tczew","1879858","54.0937844","18.7932433",,
"Poland","PL",,"Tomaszów Lubelski","1880123","50.45334","23.41916",,
"Poland","PL",,"Tomaszów Mazowiecki","1880124","51.53169","20.00823",,
"Poland","PL",,"Torun","1880236","53.0144377","18.6050215",,
"Poland","PL",,"Trzcianka","1880469","54.3166667","23.0166667",,
"Poland","PL",,"Trzebiatów","1880528","54.06316","15.26623",,
"Poland","PL",,"Trzebinia","1880560","50.1593043","19.4687463",,
"Poland","PL",,"Trzebnica","1880570","51.3094786","17.0619434",,
"Poland","PL",,"Tuchola","1880706","53.5879803","17.8595315",,
"Poland","PL",,"Turek","1880779","52.01595","18.50191",,
"Poland","PL",,"Tychy","1880974","50.1179845","18.9971783",,
"Poland","PL",,"Ustka","1881357","54.5811254","16.8612962",,
"Poland","PL",,"Ustron","1881370","49.7181286","18.8029975",,
"Poland","PL",,"Ustrzyki Dolne","1881373","49.4302117","22.5876673",,
"Poland","PL",,"Wabrzezno","1881519","53.28034","18.94807",,
"Poland","PL",,"Wadowice","1881547","49.8834278","19.4925191",,
"Poland","PL",,"Wagrowiec","1881572","52.8071754","17.1973241",,
"Poland","PL",,"Warka","1881833","51.78404","21.18552",,
"Poland","PL",,"Warsaw","1881861","52.2319238","21.0067265",,
"Poland","PL",,"Wegorzewo","1882083","54.21158","21.74174",,
"Poland","PL",,"Wegrow","1882091","52.39891","22.01793",,
"Poland","PL",,"Wejherowo","1882141","54.6018059","18.2394766",,
"Poland","PL",,"Wieliczka","1882488","49.9824012","20.0601634",,
"Poland","PL",,"Wielun","1882626","51.2194283","18.5742549",,
"Poland","PL",,"Wojkowice","1883618","50.9796607","17.0689343",,
"Poland","PL",,"Wolbrom","1884125","50.3848386","19.7598844",,
"Poland","PL",,"Wolsztyn","1884474","52.1104513","16.1181109",,
"Poland","PL",,"Wroclaw","2673802","51.1122376","17.0344333",,
"Poland","PL",,"Wronki","1884642","52.7101225","16.3742272",,
"Poland","PL",,"Wrzesnia","1884690","52.3246178","17.5650594",,
"Poland","PL",,"Wschowa","1884717","51.8038854","16.3171939",,
"Poland","PL",,"Wysokie Mazowieckie","1885086","52.9150595","22.5127252",,
"Poland","PL",,"Wyszków","1885143","52.5925473","21.4581053",,
"Poland","PL",,"Zabki","1885393","52.29353","21.11569",,
"Poland","PL",,"Zabkowice Slaskie","1885394","50.58928","16.81169",,
"Poland","PL",,"Zabrze","1885499","50.308417","18.7866909",,
"Poland","PL",,"Zagan","1885608","51.619","15.30765",,
"Poland","PL",,"Zakopane","1885795","49.2947723","19.9503207",,
"Poland","PL",,"Zambrów","1886021","52.98552","22.24117",,
"Poland","PL",,"Zamosc","1886075","50.7183958","23.2558211",,
"Poland","PL",,"Zary","1886325","51.638303","15.1402286",,
"Poland","PL",,"Zawadzkie","1886541","50.6062717","18.491615",,
"Poland","PL",,"Zawiercie","1886563","50.4844121","19.4332434",,
"Poland","PL",,"Zdunska Wola","1886795","51.60277","18.93344",,
"Poland","PL",,"Zdzieszowice","1886848","50.42212","18.11483",,
"Poland","PL",,"Zgierz","1887124","51.8559434","19.4056443",,
"Poland","PL",,"Zgorzelec","1887157","51.1516536","15.0080064",,
"Poland","PL",,"Ziebice","1887171","50.600292","17.0403344",,
"Poland","PL",,"Zielona Góra","1887233","51.9382922","15.5045677",,
"Poland","PL",,"Zielonka","1887269","53.4666667","19.9666667",,
"Poland","PL",,"Znin","1887399","52.848462","17.7218791",,
"Poland","PL",,"Zory","1887509","50.0455347","18.6944152",,
"Poland","PL",,"Zychlin","1887749","52.2440088","19.6260932",,
"Poland","PL",,"Zyrardow","1887807","52.0541266","20.4435825",,
"Poland","PL",,"_ód_","2674141","52.2091446415147","19.3208964469204",,
"Puerto Rico","PR",,"Aguadilla","2514582","18.4802920121097","-67.1447246413174",,
"Puerto Rico","PR",,"Aibonito","2514587","18.4427027332609","-66.072105822681",,
"Puerto Rico","PR",,"Arecibo","2514606","18.4336699419365","-66.674944778606",,
"Puerto Rico","PR",,"Caguas","2514671","18.2424647334066","-66.0151729504442",,
"Puerto Rico","PR",,"Carolina","2514717","18.3969303273275","-65.9684978262445",,
"Puerto Rico","PR",,"Catano","2514725","18.4394192728806","-66.1850016041148",,
"Puerto Rico","PR",,"Cayey","2514726","18.1225967669774","-66.1782949453827",,
"Puerto Rico","PR",,"Culebra","2514794","18.3129096181351","-65.3038870656952",,
"Puerto Rico","PR",,"Fajardo","2514868","18.362207792524","-65.6065623486611",,
"Puerto Rico","PR",,"Guanica","2514900","17.9463517943554","-66.9219446461853",,
"Puerto Rico","PR",,"Guayama","2514905","17.9733894956119","-66.1363427226217",,
"Puerto Rico","PR",,"Guaynabo","2514908","18.3490457844988","-66.1083081683599",,
"Puerto Rico","PR",,"Hormigueros","2515102","18.1346902351215","-67.1145454256389",,
"Puerto Rico","PR",,"Humacao","2515106","18.1333582656725","-65.7876712243706",,
"Puerto Rico","PR",,"Las Piedras","2515227","18.3652265","-66.9704558",,
"Puerto Rico","PR",,"Levittown","2515237","18.4595953912111","-66.1882383693258",,
"Puerto Rico","PR",,"Luquillo","2515267","18.368663926803","-65.7121531490841",,
"Puerto Rico","PR",,"Manati","2515285","18.4495889183608","-66.4877286990214",,
"Puerto Rico","PR",,"Maricao","2515297","18.1720847754275","-66.9422647519004",,
"Puerto Rico","PR",,"Mayaguez","2515307","18.3822081054316","-67.4802639129429",,
"Puerto Rico","PR",,"Naguabo","2515339","18.2110304918127","-65.7360946741689",,
"Puerto Rico","PR",,"Ponce","2515430","18.0027157125375","-66.6072498613634",,
"Puerto Rico","PR",,"Sabana Grande","2675086","18.0877012145931","-66.9754117762641",,
"Puerto Rico","PR",,"San Juan","2515532","18.4464186","-66.0755069",,
"Puerto Rico","PR",,"Yauco","2515660","18.0799163834063","-66.8587051061739",,
"Portugal","PT",,"A dos Cunhados","1888000","39.1519962","-9.2979195",,
"Portugal","PT",,"Abrantes","1887904","39.46439","-8.1976",,
"Portugal","PT",,"Abraveses","1887906",,,,
"Portugal","PT",,"Adaúfe","1887955",,,,
"Portugal","PT",,"Aguada de Cima","1888068",,,,
"Portugal","PT",,"Aguçadoura","1888118",,,,
"Portugal","PT",,"Albufeira","1888196","37.08902","-8.25198",,
"Portugal","PT",,"Alcabideche","1888198","38.7338374","-9.4090463",,
"Portugal","PT",,"Alcains","1888210","39.9151369","-7.4614654",,
"Portugal","PT",,"Alcanede","1888213","39.4161695","-8.8246766",,
"Portugal","PT",,"Alcanena","1888214","39.4585519","-8.6697497",,
"Portugal","PT",,"Alcobaça","1888244","39.5500331","-8.9833496",,
"Portugal","PT",,"Alcochete","1888247","38.75612","-8.96104",,
"Portugal","PT",,"Alcoentre","1888248",,,,
"Portugal","PT",,"Alcácer do Sal","1888201","38.37113","-8.51945",,
"Portugal","PT",,"Aldeia de Paio Pires","1888318",,,,
"Portugal","PT",,"Alenquer","1888417","39.056633","-9.0076057",,
"Portugal","PT",,"Alfena","1888440","41.2343267","-8.5210196",,
"Portugal","PT",,"Alferrarede","1888443","39.4736219","-8.1868765",,
"Portugal","PT",,"Algés","1888467","38.7016557","-9.229244",,
"Portugal","PT",,"Alhadas","1888477",,,,
"Portugal","PT",,"Alhandra","1888481","40.5639112","-8.4195821",,
"Portugal","PT",,"Alhos Vedros","1888485",,,,
"Portugal","PT",,"Aljezur","1888490","37.3146971","-8.8045321",,
"Portugal","PT",,"Aljubarrota","1888491","38.7574352619102","-9.24634991006481",,
"Portugal","PT",,"Aljustrel","1888493","37.8825232","-8.1574792",,
"Portugal","PT",,"Almada","1888500","38.6802692","-9.1558311",,
"Portugal","PT",,"Almancil","1888508","37.1205865","-8.0411216",,
"Portugal","PT",,"Almargem do Bispo","1888515",,,,
"Portugal","PT",,"Almeirim","1888529","39.2127275","-8.6274181",,
"Portugal","PT",,"Alpiarça","1888572","39.25991","-8.58447",,
"Portugal","PT",,"Alvor","1888679","37.1277964","-8.5939441",,
"Portugal","PT",,"Amadora","1888685","38.7595158","-9.2357888",,
"Portugal","PT",,"Amarante","1888687","41.2696685","-8.0781428",,
"Portugal","PT",,"Amora","1888762","38.6206092","-9.1288462",,
"Portugal","PT",,"Amor","1888764","39.8032927","-8.8602192",,
"Portugal","PT",,"Angra","1888819","38.6593519","-27.2195486",,
"Portugal","PT",,"Antas","1888840","40.9431397","-7.3879955",,
"Portugal","PT",,"Anta","1888836","41.2724","-7.6364197",,
"Portugal","PT",,"Apelação","1888859",,,,
"Portugal","PT",,"Apúlia","1888865","41.4856188386093","-8.76199067451616",,
"Portugal","PT",,"Aradas","1888868","40.982583951221","-8.51096619453878",,
"Portugal","PT",,"Arazede","1888882","40.2817583","-8.6520337",,
"Portugal","PT",,"Arcos","1888896","41.0493657","-7.5719414",,
"Portugal","PT",,"Arcozelo","1888913","40.3840741","-7.7882029",,
"Portugal","PT",,"Areosa","1888960","40.5097421","-8.4328275",,
"Portugal","PT",,"Arganil","1888971","39.6748002","-7.9761704",,
"Portugal","PT",,"Argoncilhe","1888981",,,,
"Portugal","PT",,"Armação de Pêra","1889003","37.1034062","-8.3623645",,
"Portugal","PT",,"Arrentela","1889084",,,,
"Portugal","PT",,"Arrifana","1889089","40.2307662","-8.27727",,
"Portugal","PT",,"Arrifes","1889099","37.7620638","-25.6933089",,
"Portugal","PT",,"Arruda dos Vinhos","1889127","38.98303","-9.07763",,
"Portugal","PT",,"Arões","1889053","40.800117","-8.301078",,
"Portugal","PT",,"Atouguia da Baleia","1889205",,,,
"Portugal","PT",,"Avanca","1889208",,,,
"Portugal","PT",,"Aveiras de Cima","1889215","39.1425181","-8.886316",,
"Portugal","PT",,"Aveiro","1889216","40.6410423","-8.6537996",,
"Portugal","PT",,"Aves","1889248","38.7434589053134","-9.17155270257343",,
"Portugal","PT",,"Avintes","1889260","41.1202815","-8.549369",,
"Portugal","PT",,"Azambuja","1889266","39.06862","-8.86912",,
"Portugal","PT",,"Baguim do Monte","1889363",,,,
"Portugal","PT",,"Baltar","1889451","41.1929021","-8.3864375",,
"Portugal","PT",,"Barcarena","1889506","38.7315692","-9.2780907",,
"Portugal","PT",,"Barcelos","1889509","41.5314496","-8.6192306",,
"Portugal","PT",,"Barreiro","1889580","38.6642092","-9.0768002",,
"Portugal","PT",,"Barrosas","1889646",,,,
"Portugal","PT",,"Batalha","1889658","39.6580646","-8.8246474",,
"Portugal","PT",,"Beduido","1889680",,,,
"Portugal","PT",,"Beja","1889697","38.015388","-7.8650978",,
"Portugal","PT",,"Belas","1889701","38.7759197","-9.2639449",,
"Portugal","PT",,"Benavente","1889751","38.97831","-8.81882",,
"Portugal","PT",,"Benedita","1889756","37.08767575","-8.73450515",,
"Portugal","PT",,"Bobadela","1889888","38.8081283","-9.0992649",,
"Portugal","PT",,"Boliqueime","1889953","37.1337939","-8.1579243",,
"Portugal","PT",,"Bombarral","1889955","39.2667959","-9.1583288",,
"Portugal","PT",,"Borba","1889974","38.8033836","-7.4566966",,
"Portugal","PT",,"Bougado","1890040","41.3411089","-8.5434078",,
"Portugal","PT",,"Bragança","1890062","41.8069977","-6.7594927",,
"Portugal","PT",,"Braga","1890058","41.5514024","-8.4230533",,
"Portugal","PT",,"Branca","1890063","40.4193694","-7.7343871",,
"Portugal","PT",,"Brito","1890123","40.0690777","-8.8062877",,
"Portugal","PT",,"Buarcos","1890155","40.165469","-8.8786228",,
"Portugal","PT",,"Bucelas","1890158","38.9016248","-9.118728",,
"Portugal","PT",,"Cacilhas","1890363","38.6876141","-9.1479271",,
"Portugal","PT",,"Caldas da Rainha","1890424","39.4069113","-9.1362549",,
"Portugal","PT",,"Caldas de Vizela","1890432",,,,
"Portugal","PT",,"Caldelas","1890444","39.7304581","-8.7031837",,
"Portugal","PT",,"Calendário","1890447","41.400966839414","-8.52574585982942",,
"Portugal","PT",,"Camacha","1890486","32.679439","-16.8448679",,
"Portugal","PT",,"Camarate","1890492",,,,
"Portugal","PT",,"Campanário","1890526","32.6684714","-17.0325289",,
"Portugal","PT",,"Campo Maior","1890568","39.0113104","-7.0686645",,
"Portugal","PT",,"Campo","1890554","39.6166644","-7.4412002",,
"Portugal","PT",,"Campo","1890556","39.6166644","-7.4412002",,
"Portugal","PT",,"Candoso","1890638",,,,
"Portugal","PT",,"Canedo","1890642","41.0399853","-8.4503004",,
"Portugal","PT",,"Canelas","1890652","37.119167","-8.350833",,
"Portugal","PT",,"Caneças","1890640",,,,
"Portugal","PT",,"Canidelo","1890677",,,,
"Portugal","PT",,"Caniço","1890673","32.65238","-16.8409696",,
"Portugal","PT",,"Cantanhede","1890688","40.3463073","-8.5941907",,
"Portugal","PT",,"Caparica","1890702","38.7845616","-27.2529429",,
"Portugal","PT",,"Caranguejeira","1890727","39.7438071","-8.7084194",,
"Portugal","PT",,"Carcavelos","1890755","38.6883935","-9.3306822",,
"Portugal","PT",,"Carnaxide","1890791","38.7306760436811","-9.23418762499866",,
"Portugal","PT",,"Carregado","1890862","39.0230782","-8.9768885",,
"Portugal","PT",,"Cartaxo","1890918","39.16194","-8.7862",,
"Portugal","PT",,"Carvalhosa","1890994",,,,
"Portugal","PT",,"Cascais","1891452","38.6966708","-9.4206096",,
"Portugal","PT",,"Castanheira de Pêra","1891506","40.0047265","-8.2091368",,
"Portugal","PT",,"Castanheira do Ribatejo","1891507","38.9930986","-8.9715412",,
"Portugal","PT",,"Castelo Branco","1891541","39.8204214","-7.4992062",,
"Portugal","PT",,"Castelões de Cepeda","1891567",,,,
"Portugal","PT",,"Castro Daire","1891582","40.89663","-7.93545",,
"Portugal","PT",,"Castro Marim","1891585","37.2179367","-7.4457102",,
"Portugal","PT",,"Castro Verde","1891588","37.6977","-8.08244",,
"Portugal","PT",,"Cercal","1891717","37.8004722","-8.6732964",,
"Portugal","PT",,"Charneca de Caparica","1891888",,,,
"Portugal","PT",,"Chaves","1891908","41.74183","-7.47207",,
"Portugal","PT",,"Coimbra","1892064","40.2114939","-8.4292178",,
"Portugal","PT",,"Colares","1892079","40.8507446715955","-8.6604454729804",,
"Portugal","PT",,"Coronado","1892197","41.2803445","-8.5450953",,
"Portugal","PT",,"Corroios","1892218","38.6410735","-9.1513751",,
"Portugal","PT",,"Cortegaça","1892242","40.9420856","-8.6571601",,
"Portugal","PT",,"Coruche","1892307","40.7928065","-7.5400169",,
"Portugal","PT",,"Cova da Piedade","1892412","38.6676986","-9.1648071",,
"Portugal","PT",,"Covilhã","1892473","40.28267","-7.50339",,
"Portugal","PT",,"Custoias","1892634","41.2002682","-8.6555973",,
"Portugal","PT",,"Câmara de Lobos","1890488","32.648624","-16.9759378",,
"Portugal","PT",,"Darque","1892656","41.6819565","-8.8028883",,
"Portugal","PT",,"Eixo","1892819","38.7485122777057","-9.16690642050965",,
"Portugal","PT",,"Elvas","1892821","38.8811","-7.16383",,
"Portugal","PT",,"Entroncamento","1892858","39.46475","-8.469",,
"Portugal","PT",,"Ericeira","1892876","38.9722722","-9.4195032",,
"Portugal","PT",,"Esmoriz","1892970","40.9602526","-8.6228198",,
"Portugal","PT",,"Espinho","1893023","41.0085019","-8.6394057",,
"Portugal","PT",,"Estoril","1893096","38.7042214","-9.3983819",,
"Portugal","PT",,"Estremoz","1893121","38.8455644","-7.5911905",,
"Portugal","PT",,"Estômbar","1893093","37.1458603","-8.4845958",,
"Portugal","PT",,"Fafe","1893141","41.44867","-8.17214",,
"Portugal","PT",,"Fajã de Baixo","1893164","37.7557518","-25.6476813",,
"Portugal","PT",,"Famões","1893205","38.7912413","-9.2108576",,
"Portugal","PT",,"Faro","1893228","37.0162731","-7.9352448",,
"Portugal","PT",,"Fazendas de Almeirim","1893259","39.1875629","-8.5924925",,
"Portugal","PT",,"Feira","1893268","40.6809081","-8.2748351",,
"Portugal","PT",,"Ferreira do Alentejo","1893357","38.0585086","-8.1138197",,
"Portugal","PT",,"Ferreiras","1893365","37.1274139","-8.243115",,
"Portugal","PT",,"Ferreira","1893363","38.5696332","-7.3564276",,
"Portugal","PT",,"Ferreiros","1893374","40.9375558","-8.3085713",,
"Portugal","PT",,"Figueira da Foz","1893428","40.1678607","-8.8574457",,
"Portugal","PT",,"Figueiró","1893472","40.1515126","-8.5809951",,
"Portugal","PT",,"Fiães","1893412","40.9945448","-8.5247308",,
"Portugal","PT",,"Foz do Sousa","1893789",,,,
"Portugal","PT",,"Frazão","1893846","41.263701","-8.4041612",,
"Portugal","PT",,"Freamunde","1893849",,,,
"Portugal","PT",,"Funchal","1893955","32.6475146","-16.9099496",,
"Portugal","PT",,"Fundão","1893962","40.13683","-7.49951",,
"Portugal","PT",,"Fátima","1893246","39.6342057","-8.6711041",,
"Portugal","PT",,"Fânzeres","1893215","41.1709902","-8.5429006",,
"Portugal","PT",,"Gafanha da Encarnação","1894001","40.6280651519742","-8.73526449743775",,
"Portugal","PT",,"Gafanha da Nazaré","1894002",,,,
"Portugal","PT",,"Galegos","1894038","39.3696062","-7.3259068",,
"Portugal","PT",,"Gandra","1894089","40.849097","-8.394723",,
"Portugal","PT",,"Gemunde","1894147",,,,
"Portugal","PT",,"Godim","1894212","41.1663232","-7.7988392",,
"Portugal","PT",,"Golegã","1894228","39.4015162","-8.4871843",,
"Portugal","PT",,"Gondomar","1894272","41.1368598","-8.5322142",,
"Portugal","PT",,"Grijó","1894383","40.9623473","-8.1043065",,
"Portugal","PT",,"Grândola","1894344","38.17604","-8.56819",,
"Portugal","PT",,"Guarda","1894401","40.5381736","-7.2687455",,
"Portugal","PT",,"Guia","1894427","39.9468816","-8.7849203",,
"Portugal","PT",,"Guifões","1894432","41.2002131","-8.6657693",,
"Portugal","PT",,"Guimarães","1894444","41.44459","-8.29372",,
"Portugal","PT",,"Gulpilhares","1894465","41.0695340150413","-8.62529139149987",,
"Portugal","PT",,"Horta","1894478","38.542629","-28.62726",,
"Portugal","PT",,"Joane","1894571",,,,
"Portugal","PT",,"Jovim","1894595",,,,
"Portugal","PT",,"Lagoa","1894722","37.1362908","-8.4540842",,
"Portugal","PT",,"Lagoa","1894726","37.1362908","-8.4540842",,
"Portugal","PT",,"Lagos","1894739","37.1010903","-8.6724909",,
"Portugal","PT",,"Lamego","1894804","41.0985717","-7.811517",,
"Portugal","PT",,"Laranjeiro","1894896","38.6557959","-9.1543508",,
"Portugal","PT",,"Lavos","1894927","40.0911063","-8.8725112",,
"Portugal","PT",,"Lavra","1894932","38.7180294672307","-9.14092790366893",,
"Portugal","PT",,"Leiria","1894955","39.744342","-8.807257",,
"Portugal","PT",,"Leça da Palmeira","1894940",,,,
"Portugal","PT",,"Leça do Bailio","1894942",,,,
"Portugal","PT",,"Linda-a-Velha","1894994","38.7119117","-9.2289737",,
"Portugal","PT",,"Lisbon","1895008","38.7128335","-9.1328948",,
"Portugal","PT",,"Lobão","1895022","40.8410643430071","-8.47633022741356",,
"Portugal","PT",,"Lordelo","1895109","40.848398","-8.413249",,
"Portugal","PT",,"Lordelo","1895110","40.848398","-8.413249",,
"Portugal","PT",,"Lorvão","1895119",,,,
"Portugal","PT",,"Loulé","1895125","37.1373896","-8.023576",,
"Portugal","PT",,"Loures","1895155","38.8308469","-9.168411",,
"Portugal","PT",,"Lourinhã","1895170","39.2424817","-9.3121141",,
"Portugal","PT",,"Louriçal","1895158","40.0049816","-8.740127",,
"Portugal","PT",,"Lourosa","1895178","40.863399","-8.369982",,
"Portugal","PT",,"Lousã","1895188","40.1110971","-8.2457545",,
"Portugal","PT",,"Lustosa","1895234",,,,
"Portugal","PT",,"Luz","1895244","39.0237325","-27.9908201",,
"Portugal","PT",,"Macedo de Cavaleiros","1895263","41.5362124","-6.9560267",,
"Portugal","PT",,"Maceira","1895267","41.5959178","-8.4287713",,
"Portugal","PT",,"Machico","1895281","32.717651","-16.7677589",,
"Portugal","PT",,"Macieira de Cambra","1895289","40.856826","-8.376887",,
"Portugal","PT",,"Madalena","1895316","38.534252","-28.527727",,
"Portugal","PT",,"Mafra","1895332","38.93588045","-9.33435015",,
"Portugal","PT",,"Maia","1895351","41.2328564","-8.6215636",,
"Portugal","PT",,"Malveira","1895417","38.9297388","-9.2504403",,
"Portugal","PT",,"Mangualde","1895441","40.6069449","-7.7592564",,
"Portugal","PT",,"Margaride","1895486","41.4427115776661","-8.29980779595203",,
"Portugal","PT",,"Marinha Grande","1895502","39.7505619","-8.931238",,
"Portugal","PT",,"Marinhais","1895503",,,,
"Portugal","PT",,"Marinhas","1895508","41.5594125","-8.7830678",,
"Portugal","PT",,"Matosinhos","1895644","41.1834652","-8.6807995",,
"Portugal","PT",,"Meadela","1895676",,,,
"Portugal","PT",,"Mealhada","1895677","40.3791441","-8.4516085",,
"Portugal","PT",,"Meinedo","1895720","41.2487336","-8.2586949",,
"Portugal","PT",,"Milharado","1895838",,,,
"Portugal","PT",,"Milheirós de Poiares","1895842",,,,
"Portugal","PT",,"Milheirós","1895843","40.9117927802469","-8.48269276736312",,
"Portugal","PT",,"Miranda do Corvo","1895880","40.0941517","-8.3336555",,
"Portugal","PT",,"Mirandela","1895885","41.4901991","-7.1772158",,
"Portugal","PT",,"Mira","1895877","39.3848614","-7.3005802",,
"Portugal","PT",,"Mogadouro","1895921","41.3423673","-6.7126645",,
"Portugal","PT",,"Moita","1895986","38.6548821","-8.9889616",,
"Portugal","PT",,"Moncarapacho","1896021","37.0842089","-7.7882465",,
"Portugal","PT",,"Monchique","1896024","37.3180440266828","-8.55502893507122",,
"Portugal","PT",,"Monte Gordo","1896385","38.9617871","-8.9933927",,
"Portugal","PT",,"Monte Redondo","1896449",,,,
"Portugal","PT",,"Montemor-o-Novo","1896414","38.6483392","-8.2093285",,
"Portugal","PT",,"Montijo","1896504","38.7058306","-8.9744534",,
"Portugal","PT",,"Moreira de Conegos","1896534","41.3823018","-8.3355971",,
"Portugal","PT",,"Moreira","1896541","40.7368031","-7.5010122",,
"Portugal","PT",,"Moscavide","1896571","38.7776556","-9.102411",,
"Portugal","PT",,"Moura","1896633","38.1409785","-7.4500699",,
"Portugal","PT",,"Mozelos","1896682",,,,
"Portugal","PT",,"Nazaré","1896778","39.6068967","-9.0702827",,
"Portugal","PT",,"Negrelos","1896787","40.3747897","-7.9055335",,
"Portugal","PT",,"Nelas","1896795","40.5304903","-7.8552801",,
"Portugal","PT",,"Nogueira da Regedoura","1896824",,,,
"Portugal","PT",,"Nogueira","1896833","41.772505","-6.8153638",,
"Portugal","PT",,"Odemira","1896905","37.5976","-8.6422",,
"Portugal","PT",,"Odivelas","1896909","38.7926342","-9.1826701",,
"Portugal","PT",,"Oiã","1896912",,,,
"Portugal","PT",,"Olhão","1896938","37.0271058","-7.8412693",,
"Portugal","PT",,"Olival","1896956","38.790255","-9.1676298",,
"Portugal","PT",,"Oliveira de Azemeis","1896958","40.8389346","-8.4782621",,
"Portugal","PT",,"Oliveira do Bairro","1896963","40.5157005","-8.4934051",,
"Portugal","PT",,"Oliveira do Douro","1896965",,,,
"Portugal","PT",,"Oliveira do Hospital","1896967","40.3596176","-7.861729",,
"Portugal","PT",,"Oliveira","1896970","40.85357","-8.354541",,
"Portugal","PT",,"Oliveirinha","1896977","40.3646538","-7.909825",,
"Portugal","PT",,"Ourém","1897025","39.65679","-8.57963",,
"Portugal","PT",,"Ovar","1897097","40.8596202","-8.6252722",,
"Portugal","PT",,"Palmela","1897270","38.569601","-8.9011653",,
"Portugal","PT",,"Pampilhosa","1897285","40.3323767021845","-8.41914166722588",,
"Portugal","PT",,"Pardilhó","1897401",,,,
"Portugal","PT",,"Parede","1897407","38.6904954","-9.3532234",,
"Portugal","PT",,"Pataias","1897468","39.6697872","-8.9992733",,
"Portugal","PT",,"Paço de Arcos","1897109","38.6949504","-9.2933244",,
"Portugal","PT",,"Paços de Brandão","1897129","40.972028","-8.5838204",,
"Portugal","PT",,"Paços de Ferreira","1897130","41.2786224","-8.378618",,
"Portugal","PT",,"Pedroso","1897603","39.1876075","-7.6228281",,
"Portugal","PT",,"Pedrouços","1897606","38.6964794254106","-9.22028406064023",,
"Portugal","PT",,"Penafiel","1897646","41.2072787","-8.2857841",,
"Portugal","PT",,"Peniche","1897701","39.3566221","-9.3812853",,
"Portugal","PT",,"Perafita","1897726",,,,
"Portugal","PT",,"Pero Pinheiro","1897815","38.79933975","-9.2195596",,
"Portugal","PT",,"Perozinho","1897822",,,,
"Portugal","PT",,"Peso da Régua","1897832","41.1660023","-7.7866469",,
"Portugal","PT",,"Pinhal Novo","1897946","38.6328731","-8.9132129",,
"Portugal","PT",,"Poceirão","1898049","38.3946499603481","-7.96611937813119",,
"Portugal","PT",,"Poiares","1898092","41.177563","-7.7266082",,
"Portugal","PT",,"Pombal","1898128","39.9161947","-8.6282264",,
"Portugal","PT",,"Ponta Delgada","1898147","37.7463058","-25.6668573",,
"Portugal","PT",,"Ponta do Sol","1898150","32.681067","-17.104073",,
"Portugal","PT",,"Ponte de Sor","1898181","39.2488056","-8.0109215",,
"Portugal","PT",,"Ponte","1898203","40.33739535","-7.7990538",,
"Portugal","PT",,"Pontinha","1898217","38.7622108","-9.1968418",,
"Portugal","PT",,"Pontével","1898215","39.1520688","-8.8381222",,
"Portugal","PT",,"Portalegre","1898239","39.2912457","-7.4325451",,
"Portugal","PT",,"Portimão","1898302","37.1382138","-8.5376764",,
"Portugal","PT",,"Porto Salvo","1898377","38.7182557","-9.3012461",,
"Portugal","PT",,"Porto Santo","1898378","33.0682789","-16.3418659",,
"Portugal","PT",,"Porto de Mós","1898340","39.6024615","-8.8186118",,
"Portugal","PT",,"Porto","1898375","41.1485925","-8.6110201",,
"Portugal","PT",,"Pragal","1898560","38.6664926571721","-9.17917798574336",,
"Portugal","PT",,"Praia da Vitória","1898572","38.7291867","-27.0658475",,
"Portugal","PT",,"Póvoa de Lanhoso","1898473","41.5771222","-8.2770536",,
"Portugal","PT",,"Póvoa de Santa Iria","1898487",,,,
"Portugal","PT",,"Póvoa de Santo Adrião","1898489","38.8000062","-9.1598269",,
"Portugal","PT",,"Póvoa de Varzim","1898496","41.3826345","-8.7627894",,
"Portugal","PT",,"Quarteira","1898640","37.0712719","-8.1022591",,
"Portugal","PT",,"Queijas","1898658","38.7189876","-9.2626268",,
"Portugal","PT",,"Queluz","1898677","38.7425025","-9.2683088",,
"Portugal","PT",,"Quinta do Anjo","1898820","38.5673561","-8.9418786",,
"Portugal","PT",,"Rabo de Peixe","1898961","37.8144525","-25.5818499",,
"Portugal","PT",,"Ramada","1898974","38.8053197","-9.1875812",,
"Portugal","PT",,"Real","1899054","41.5583666","-8.4455411",,
"Portugal","PT",,"Rebordosa","1899090","41.21971","-8.4108299",,
"Portugal","PT",,"Recarei","1899103","41.1543799","-8.4110351",,
"Portugal","PT",,"Redondo","1899119","38.6481608","-7.5502077",,
"Portugal","PT",,"Refojos de Basto","1899127",,,,
"Portugal","PT",,"Reguengos de Monsaraz","1899182","38.42344","-7.53356",,
"Portugal","PT",,"Riachos","1899267","39.4322104","-8.5045875",,
"Portugal","PT",,"Ribeira Brava","1899298","32.6693994","-17.0662818",,
"Portugal","PT",,"Ribeira Grande","1899358","37.81937","-25.520081",,
"Portugal","PT",,"Ribeirão","1899360","41.3530937","-8.5611748",,
"Portugal","PT",,"Rio Maior","1899454","39.33659","-8.93631",,
"Portugal","PT",,"Rio Meão","1899459","40.9610295","-8.5708065",,
"Portugal","PT",,"Rio Tinto","1899469","41.1777759","-8.5595646",,
"Portugal","PT",,"Rio de Loba","1899431",,,,
"Portugal","PT",,"Rio de Mouro","1899443","38.7843232096309","-9.32116830087837",,
"Portugal","PT",,"Ronfe","1899564",,,,
"Portugal","PT",,"Rosto do Cão","1899596",,,,
"Portugal","PT",,"Sacavém","1899677","38.7954222","-9.0995909",,
"Portugal","PT",,"Salreu","1899749",,,,
"Portugal","PT",,"Salvaterra de Magos","1899764","39.02553","-8.79381",,
"Portugal","PT",,"Samora Correia","1899786","38.927603","-8.8644857",,
"Portugal","PT",,"Sande","1899805","41.3619448012363","-8.46852664126206",,
"Portugal","PT",,"Sandim","1899812","41.8552023","-7.1862163",,
"Portugal","PT",,"Sangalhos","1899825","40.4919126","-8.4716056",,
"Portugal","PT",,"Santa Bárbara de Nexe","1899864","37.1038292","-7.9639131",,
"Portugal","PT",,"Santa Catarina da Serra","1899870",,,,
"Portugal","PT",,"Santa Cruz do Bispo","1899904","41.2171574","-8.6746269",,
"Portugal","PT",,"Santa Cruz","1899911","32.6900912","-16.7939772",,
"Portugal","PT",,"Santa Iria de Azoia","1899940",,,,
"Portugal","PT",,"Santarém","1900020","39.2358549","-8.6875558",,
"Portugal","PT",,"Santiago do Cacém","1900049","38.0181455","-8.6927737",,
"Portugal","PT",,"Santo André","1900085","38.0619858","-8.7855011",,
"Portugal","PT",,"Santo André","1900087","38.0619858","-8.7855011",,
"Portugal","PT",,"Santo Antão do Tojal","1900092",,,,
"Portugal","PT",,"Santo António da Charneca","1900098",,,,
"Portugal","PT",,"Santo Tirso","1900149","41.3437218","-8.477337",,
"Portugal","PT",,"Seia","1900678","40.420237","-7.7029234",,
"Portugal","PT",,"Selho","1900726","41.4424221317015","-8.31993524208444",,
"Portugal","PT",,"Senhora da Hora","1900760","41.1880824","-8.6544954",,
"Portugal","PT",,"Seroa","1900851",,,,
"Portugal","PT",,"Serpa","1900853","37.9435439","-7.5989584",,
"Portugal","PT",,"Sertã","1900911","39.80482","-8.0989468",,
"Portugal","PT",,"Serzedelo","1900914",,,,
"Portugal","PT",,"Serzedo","1900916",,,,
"Portugal","PT",,"Sesimbra","1900918","38.44484","-9.1028266",,
"Portugal","PT",,"Setúbal","1900940","38.5245129","-8.8933165",,
"Portugal","PT",,"Silvalde","1900962","40.9925015","-8.6347419",,
"Portugal","PT",,"Silveira","1900989","39.1113712","-9.3631411",,
"Portugal","PT",,"Silves","1901000","37.192452653802","-8.43899447527564",,
"Portugal","PT",,"Sines","1901011","37.9515021","-8.8753325",,
"Portugal","PT",,"Sintra","1901019","38.79846","-9.3881",,
"Portugal","PT",,"Sobrado","1901051","37.1713839","-8.3294486",,
"Portugal","PT",,"Sobralinho","1901074","38.9172750434155","-9.02739746409163",,
"Portugal","PT",,"Sobreda","1901089","40.4546462","-7.8128363",,
"Portugal","PT",,"Sobreira","1901101","41.1465113","-8.3890989",,
"Portugal","PT",,"Soure","1901159","40.0593261","-8.6269268",,
"Portugal","PT",,"Souto da Carpalhosa","1901185","39.8459092","-8.8236554",,
"Portugal","PT",,"Souto","1901214","40.864092","-8.405301",,
"Portugal","PT",,"Sátão","1900644","40.7402401","-7.7353206",,
"Portugal","PT",,"São Bartolomeu de Messines","1900161","37.2559126","-8.2865527",,
"Portugal","PT",,"São Brás de Alportel","1900184","37.1529622","-7.8879138",,
"Portugal","PT",,"São Domingos de Rana","1900222",,,,
"Portugal","PT",,"São Félix da Marinha","1900236",,,,
"Portugal","PT",,"São João da Madeira","1900281","40.9019426","-8.489698",,
"Portugal","PT",,"São João da Talha","1900291","38.8226851","-9.0978894",,
"Portugal","PT",,"São João de Ver","1900302","40.9555329","-8.551177",,
"Portugal","PT",,"São João dos Montes","1900308",,,,
"Portugal","PT",,"São João","1900309","39.4146344","-7.4569297",,
"Portugal","PT",,"São Mamede de Infesta","1900350","41.1907288","-8.6113337",,
"Portugal","PT",,"São Pedro da Cadeira","1900443","39.070721","-9.3717271",,
"Portugal","PT",,"São Pedro da Cova","1900444",,,,
"Portugal","PT",,"São Pedro do Sul","1900463","40.76026","-8.06705",,
"Portugal","PT",,"São Roque","1900498","32.6709554","-16.9282244",,
"Portugal","PT",,"São Teotónio","1900533","37.5115498","-8.7070505",,
"Portugal","PT",,"Tavarede","1901335","40.1655377","-8.846059",,
"Portugal","PT",,"Tavira","1901341","37.1262918","-7.6498271",,
"Portugal","PT",,"Teixoso","1901361",,,,
"Portugal","PT",,"Telões","1901398",,,,
"Portugal","PT",,"Terrugem","1901438","38.8439354","-7.3492859",,
"Portugal","PT",,"Tomar","1901495","39.60359","-8.41276",,
"Portugal","PT",,"Tondela","1901499","40.51642","-8.08053",,
"Portugal","PT",,"Torres Novas","1901559","39.47938","-8.54137",,
"Portugal","PT",,"Torres Vedras","1901562","39.0930856","-9.260741",,
"Portugal","PT",,"Trafaria","1901620","38.6732832","-9.2324273",,
"Portugal","PT",,"Tramagal","1901626","39.4516068","-8.2585705",,
"Portugal","PT",,"Turquel","1901746",,,,
"Portugal","PT",,"Unhos","1901765",,,,
"Portugal","PT",,"Vagos","1901799","40.5552934","-8.6814363",,
"Portugal","PT",,"Valadares","1901804","38.7755926227667","-9.16067870930199",,
"Portugal","PT",,"Valbom","1901833","41.1304053","-8.5616029",,
"Portugal","PT",,"Vale da Amoreira","1901869",,,,
"Portugal","PT",,"Vale","1902277","38.741843306164","-13.1387667826958",,
"Portugal","PT",,"Valongo","1902314","41.1895462","-8.4980295",,
"Portugal","PT",,"Valpaços","1902319","41.60705","-7.31005",,
"Portugal","PT",,"Venda do Pinheiro","1902453","38.9256052","-9.2313491",,
"Portugal","PT",,"Vendas Novas","1902474","38.6774","-8.45523",,
"Portugal","PT",,"Ventosa","1902495","41.1429147367071","-8.61238777193474",,
"Portugal","PT",,"Vialonga","1902551",,,,
"Portugal","PT",,"Viana do Castelo","1902554","41.694908","-8.8304609",,
"Portugal","PT",,"Vila Chã","1902627","41.008866","-8.1907447",,
"Portugal","PT",,"Vila Franca de Xira","1902702","38.9544913","-8.9894438",,
"Portugal","PT",,"Vila Franca do Campo","1902703","37.717417","-25.4347283",,
"Portugal","PT",,"Vila Frescainha","1902710",,,,
"Portugal","PT",,"Vila Nova da Telha","1902759",,,,
"Portugal","PT",,"Vila Nova de Famalicão","1902765","41.4210659","-8.499396",,
"Portugal","PT",,"Vila Nova de Gaia","1902768","41.1355703","-8.6337053",,
"Portugal","PT",,"Vila Nova de Milfontes","1902770","37.7255076","-8.7839205",,
"Portugal","PT",,"Vila Praia de Âncora","1902810","41.8206997","-8.8703336",,
"Portugal","PT",,"Vila Real de Santo António","1902865","37.1944547","-7.4155798",,
"Portugal","PT",,"Vila Real","1902866","41.2966556","-7.74678",,
"Portugal","PT",,"Vila Verde","1902967","41.65173","-8.43699",,
"Portugal","PT",,"Vila Viçosa","1902979","41.0056251","-8.2171963",,
"Portugal","PT",,"Vila do Conde","1902680","41.3539012","-8.7433515",,
"Portugal","PT",,"Vilar de Andorinho","1902826",,,,
"Portugal","PT",,"Vilar do Paraíso","1902858",,,,
"Portugal","PT",,"Vilarinho","1902922","40.888763","-8.364704",,
"Portugal","PT",,"Vilela","1902995","40.3277099","-7.9071305",,
"Portugal","PT",,"Viseu","1903055","40.6572866","-7.9147719",,
"Portugal","PT",,"Vizela","1903070","41.37503","-8.30363",,
"Portugal","PT",,"Vizela","1903071","41.37503","-8.30363",,
"Portugal","PT",,"Válega","1902213",,,,
"Portugal","PT",,,"1888111","38.741843306164","-13.1387667826958",,
"Portugal","PT",,,"1888122","38.741843306164","-13.1387667826958",,
"Portugal","PT",,,"1889131","38.741843306164","-13.1387667826958",,
"Portugal","PT",,,"1894515","38.741843306164","-13.1387667826958",,
"Portugal","PT",,"Évora","1893131","38.5709457","-7.9095186",,
"Paraguay","PY",,"Abaí","1903599","-25.887721064907","-55.7087877762616",,
"Paraguay","PY",,"Acahay","1903603",,,,
"Paraguay","PY",,"Alberdi","1903620","-25.389267711406","-57.1422529902558",,
"Paraguay","PY",,"Alto Verá","1903628",,,,
"Paraguay","PY",,"Altos","1903627","-25.2617939","-57.2492994",,
"Paraguay","PY",,"Antequera","1903641","-24.0863273","-57.2014633",,
"Paraguay","PY",,"Areguá","1903648","-25.3133549","-57.3868008",,
"Paraguay","PY",,"Arroyos y Esteros","1903655","-25.0541561","-57.0970807",,
"Paraguay","PY",,"Asunción","1903658","-25.2964298","-57.6468045",,
"Paraguay","PY",,"Atyrá","1903660","-25.2786077","-57.1704852",,
"Paraguay","PY",,"Ayolas","1903663","-27.3873033","-56.8516435",,
"Paraguay","PY",,"Bella Vista","1903690","-27.0431892","-55.5781729",,
"Paraguay","PY",,"Bella Vista","1903691","-27.0431892","-55.5781729",,
"Paraguay","PY",,"Belén","1903688","-22.346352","-60.449636",,
"Paraguay","PY",,"Benjamín Aceval","1903694","-25.3020857720887","-57.6511621302795",,
"Paraguay","PY",,"Borja","1903703",,,,
"Paraguay","PY",,"Buena Vista","1903704","-26.2206738137659","-56.0828791129121",,
"Paraguay","PY",,"Caacupé","1903707","-25.3880361","-57.1439025",,
"Paraguay","PY",,"Caaguazú","1903709","-25.1804216855414","-55.8584885263134",,
"Paraguay","PY",,"Caapucú","1903714","-26.2338289","-57.1819622",,
"Paraguay","PY",,"Caazapá","1903719","-26.2537809815255","-56.0447155574449",,
"Paraguay","PY",,"Cambyretá","1903736",,,,
"Paraguay","PY",,"Capiatá","1903781",,,,
"Paraguay","PY",,"Capitán Bado","1903790",,,,
"Paraguay","PY",,"Capitán Meza","1903792","-26.8282867","-55.3385909",,
"Paraguay","PY",,"Capitán Miranda","1903793","-25.2837111695636","-57.5590200253925",,
"Paraguay","PY",,"Capiíbary","1903783",,,,
"Paraguay","PY",,"Caraguatay","1903801",,,,
"Paraguay","PY",,"Carapeguá","1903803","-25.767636","-57.2425331",,
"Paraguay","PY",,"Carayaó","1903804",,,,
"Paraguay","PY",,"Carlos Antonio López","1903808","-26.399023","-54.7504791",,
"Paraguay","PY",,"Carmen del Paraná","1903812",,,,
"Paraguay","PY",,"Cerrito","1903833","-23.2387179008499","-58.3932355171275",,
"Paraguay","PY",,"Chore","1903854",,,,
"Paraguay","PY",,"Concepción","1904146","-22.8212785075266","-57.1191319245817",,
"Paraguay","PY",,"Coronel Bogado","1904152","-27.1603312","-56.2408552",,
"Paraguay","PY",,"Coronel Martínez","1904156","-25.759302","-56.6177134",,
"Paraguay","PY",,"Coronel Oviedo","1904157","-25.4491003","-56.4419319",,
"Paraguay","PY",,"Corpus Christi","1904159",,,,
"Paraguay","PY",,"Curuguaty","1904179",,,,
"Paraguay","PY",,"Desmochados","1904196",,,,
"Paraguay","PY",,"Doctor Botrell","1904201",,,,
"Paraguay","PY",,"Doctor Cecilio Báez","1904202","-25.2986201655835","-57.6489101066583",,
"Paraguay","PY",,"Doctor Juan León Mallorquín","1904204",,,,
"Paraguay","PY",,"Doctor Juan Manuel Frutos","1904205",,,,
"Paraguay","PY",,"Doctor Pedro P. Peña","1904207",,,,
"Paraguay","PY",,"Edelira","1904215","-26.7240012","-55.345843",,
"Paraguay","PY",,"Emboscada","1904227","-25.1245285","-57.3493031",,
"Paraguay","PY",,"Encarnación","1904229","-27.3339115","-55.8654024",,
"Paraguay","PY",,"Escobar","1904232","-25.2737343125695","-57.5915536077114",,
"Paraguay","PY",,"Eusebio Ayala","1904892","-25.3058793122179","-57.60465987361",,
"Paraguay","PY",,"Fernando de la Mora","1904899","-25.3960239365066","-54.647706272579",,
"Paraguay","PY",,"Filadelfia","1904900","-22.3470708","-60.0296124",,
"Paraguay","PY",,"Fram","1904932",,,,
"Paraguay","PY",,"Fuerte Olimpo","1904935","-21.0418006","-57.8701704",,
"Paraguay","PY",,"Félix Pérez Cardozo","1904897","-26.5351235066201","-55.2611957915893",,
"Paraguay","PY",,"General Artigas","1904951",,,,
"Paraguay","PY",,"General Delgado","1904952",,,,
"Paraguay","PY",,"General Elizardo Aquino","1904956",,,,
"Paraguay","PY",,"General Higinio Morínigo","1904961","-26.0669659713719","-56.0958851059675",,
"Paraguay","PY",,"General José Eduvigis Díaz","1904963",,,,
"Paraguay","PY",,"Guarambaré","1904974","-25.4920858","-57.4558665",,
"Paraguay","PY",,"Hohenau","1904990","-27.0720669","-55.6393873",,
"Paraguay","PY",,"Horqueta","1904991","-23.3437337","-57.051737",,
"Paraguay","PY",,"Humaitá","1904996","-25.2833582606851","-57.6415411058555",,
"Paraguay","PY",,"Independencia","1905005","-25.7241235","-56.0971747",,
"Paraguay","PY",,"Isla Pucú","1905018","-25.2999992","-56.9000015",,
"Paraguay","PY",,"Isla Umbú","1905020",,,,
"Paraguay","PY",,"Itacurubí de la Cordillera","1905024",,,,
"Paraguay","PY",,"Itacurubí del Rosario","1905025",,,,
"Paraguay","PY",,"Itanara","1905030",,,,
"Paraguay","PY",,"Itapé","1905031",,,,
"Paraguay","PY",,"Itapúa Poty","1905033",,,,
"Paraguay","PY",,"Itaquyry","1905035",,,,
"Paraguay","PY",,"Itauguá","1905037",,,,
"Paraguay","PY",,"Iturbe","1905040","-25.4015746779355","-54.6470791885382",,
"Paraguay","PY",,"Itá","1905029","-22.172794","-56.339035",,
"Paraguay","PY",,"Jesús","1905048","-27.0575537","-55.7425716",,
"Paraguay","PY",,"Juan de Mena","1905063","-25.28602565","-57.62382445",,
"Paraguay","PY",,"La Colmena","1905075","-25.8856298","-56.8404292",,
"Paraguay","PY",,"La Paz","1905094","-25.29554205","-57.652383",,
"Paraguay","PY",,"Lambaré","1905086","-25.3419208238195","-57.6141268500303",,
"Paraguay","PY",,"Laureles","1905104",,,,
"Paraguay","PY",,"Leandro Oviedo","1905106",,,,
"Paraguay","PY",,"Lima","1905108","-25.35245745","-57.60355255",,
"Paraguay","PY",,"Limpio","1905109",,,,
"Paraguay","PY",,"Loma Grande","1905111","-25.1776796","-57.2317318",,
"Paraguay","PY",,"Los Cedrales","1905123",,,,
"Paraguay","PY",,"Luque","1905135","-25.2654669","-57.493415",,
"Paraguay","PY",,"Maciel","1905139","-26.1821779","-56.4737292",,
"Paraguay","PY",,"Mariano Roque Alonso","1905150","-25.2885210838119","-57.6601777424977",,
"Paraguay","PY",,"Mayor Pablo Lagerenza","1905163",,,,
"Paraguay","PY",,"Mbocayaty","1905172","-25.3288526588931","-57.6141794534644",,
"Paraguay","PY",,"Mbutuy","1905176",,,,
"Paraguay","PY",,"Mbuyapey","1905177",,,,
"Paraguay","PY",,"Naranjal","1905220",,,,
"Paraguay","PY",,"Natalicio Talavera","1905224","-25.7813486428154","-56.4457194490237",,
"Paraguay","PY",,"Natalio","1905226","-26.7561139","-55.1391204",,
"Paraguay","PY",,"Nemby","1905231","-25.3898416968772","-57.5462595678397",,
"Paraguay","PY",,"Nueva Alborada","1905234",,,,
"Paraguay","PY",,"Nueva Colombia","1905237","-25.1878929","-57.3054591",,
"Paraguay","PY",,"Nueva Germania","1905239",,,,
"Paraguay","PY",,"Nueva Italia","1905240",,,,
"Paraguay","PY",,"Nueva Londres","1905241",,,,
"Paraguay","PY",,"Obligado","1905247","-27.0559703","-55.6287872",,
"Paraguay","PY",,"Paraguarí","1905276","-26.0757291691219","-57.0936668936303",,
"Paraguay","PY",,"Paso de Patria","1905290","-25.4142567768944","-57.5536345216405",,
"Paraguay","PY",,"Pedro Juan Caballero","1905307","-22.5460854","-55.7365214",,
"Paraguay","PY",,"Pilar","1905317","-26.8618839","-58.3024033",,
"Paraguay","PY",,"Pirapo","1905325","-26.8591737","-55.5442873",,
"Paraguay","PY",,"Pirayú","1905327",,,,
"Paraguay","PY",,"Piribebuy","1905328","-25.2845755329783","-57.6422106627633",,
"Paraguay","PY",,"Pozo Colorado","1905352","-23.4513068","-58.8324876",,
"Paraguay","PY",,"Presidente Franco","1905366","-25.2794431540464","-57.63766637118",,
"Paraguay","PY",,"Primero de Marzo","1905370",,,,
"Paraguay","PY",,"Puerto Pinasco","1905481","-22.6299992","-57.8400002",,
"Paraguay","PY",,"Quiindy","1905685","-25.9757816","-57.2324307",,
"Paraguay","PY",,"Quyquyhó","1905687",,,,
"Paraguay","PY",,"Repatriación","1905704",,,,
"Paraguay","PY",,"Salto del Guairá","1905740","-24.0618937","-54.3073576",,
"Paraguay","PY",,"San Alberto","1905751",,,,
"Paraguay","PY",,"San Antonio","1905755","-25.2769852750339","-57.6048735291356",,
"Paraguay","PY",,"San Bernardino","1905763","-25.3104338","-57.2965439",,
"Paraguay","PY",,"San Carlos","1905767","-22.788722","-57.929685",,
"Paraguay","PY",,"San Cosme y Damián","1905772",,,,
"Paraguay","PY",,"San Cristóbal","1905773",,,,
"Paraguay","PY",,"San Estanislao","1905774",,,,
"Paraguay","PY",,"San Joaquín","1905782","-25.3405802252784","-57.6292616512435",,
"Paraguay","PY",,"San José Obrero","1905789",,,,
"Paraguay","PY",,"San José de los Arroyos","1905786",,,,
"Paraguay","PY",,"San Juan Bautista de Ñeembucú","1905797",,,,
"Paraguay","PY",,"San Juan Bautista","1905799","-26.6693823","-57.1460873",,
"Paraguay","PY",,"San Juan Nepomuceno","1905804","-26.1133099","-55.9385121",,
"Paraguay","PY",,"San Juan del Paraná","1905801",,,,
"Paraguay","PY",,"San Lorenzo","1905811",,,,
"Paraguay","PY",,"San Lázaro","1905808",,,,
"Paraguay","PY",,"San Miguel","1905820","-26.5349295","-57.0406849",,
"Paraguay","PY",,"San Patricio","1905825","-26.976687","-56.8273098",,
"Paraguay","PY",,"San Pedro de Ycuamandiyú","1905828","-24.0910287","-57.0775238",,
"Paraguay","PY",,"San Pedro del Paraná","1905827",,,,
"Paraguay","PY",,"San Rafael del Parana","1905831",,,,
"Paraguay","PY",,"San Salvador","1905845","-25.2708083139694","-57.599774522005",,
"Paraguay","PY",,"Santa Elena","1905855",,,,
"Paraguay","PY",,"Santa María","1905865","-23.89716","-59.940915",,
"Paraguay","PY",,"Santa Rita","1905869",,,,
"Paraguay","PY",,"Santa Rosa","1905876","1.287819","-77.4391564",,
"Paraguay","PY",,"Santiago","1905886","-27.1425511","-56.7643101",,
"Paraguay","PY",,"Sapucaí","1905898","-25.6911384","-56.8626766",,
"Paraguay","PY",,"Tacuaras","1905925",,,,
"Paraguay","PY",,"Tacuatí","1905928",,,,
"Paraguay","PY",,"Tavai","1905944","-26.1791087","-55.4992306",,
"Paraguay","PY",,"Tobatí","1905975","-25.2603916","-57.0837769",,
"Paraguay","PY",,"Trinidad","1905993","-27.163707102004","-56.235058768375",,
"Paraguay","PY",,"Unión","1906006","-25.3425710793601","-57.5380758540337",,
"Paraguay","PY",,"Valenzuela","1906016",,,,
"Paraguay","PY",,"Veinticinco de Diciembre","1906021",,,,
"Paraguay","PY",,"Villa Elisa","1906030",,,,
"Paraguay","PY",,"Villa Florida","1906031","-26.4061714","-57.1199187",,
"Paraguay","PY",,"Villa Franca","1906032",,,,
"Paraguay","PY",,"Villa Hayes","1906033","-25.0947145","-57.5258446",,
"Paraguay","PY",,"Villa Oliva","1906039",,,,
"Paraguay","PY",,"Villalbin","1906034",,,,
"Paraguay","PY",,"Villarrica","1906044","-25.7813596","-56.4477224",,
"Paraguay","PY",,"Villeta","1906048",,,,
"Paraguay","PY",,"Yabebyry","1906049",,,,
"Paraguay","PY",,"Yaguarón","1906051",,,,
"Paraguay","PY",,"Yataity del Norte","1906055",,,,
"Paraguay","PY",,"Yataity","1906056","-25.307512195672","-57.6119257550059",,
"Paraguay","PY",,"Ybycuí","1906065",,,,
"Paraguay","PY",,"Ybytimí","1906071",,,,
"Paraguay","PY",,"Yegros","1906075","-26.4539163","-56.4024368",,
"Paraguay","PY",,"Ygatimí","1906077","-25.2851882471288","-57.6490850765538",,
"Paraguay","PY",,"Yhú","1906082",,,,
"Paraguay","PY",,"Ypacarai","1906083","-25.4030809","-57.2884213",,
"Paraguay","PY",,"Ypane","1906085","-25.3512009016335","-57.6144175907245",,
"Paraguay","PY",,"Yuty","1906094","-25.3007276230607","-57.6205960548047",,
"Paraguay","PY",,"Ñacunday","1905217",,,,
"Paraguay","PY",,"Ñumí","1905244","-25.9521384","-56.3292805",,
"Romania","RO",,"Abramut","1906883","47.3229578","22.2543947",,
"Romania","RO",,"Abram","1906882","47.3176199720038","22.3785344451676",,
"Romania","RO",,"Abrud","1906885","46.2691983872725","23.073694173194",,
"Romania","RO",,"Acas","1906899","47.5390572","22.7843354",,
"Romania","RO",,"Acatari","1906901","46.4820732","24.6306387",,
"Romania","RO",,"Adamclisi","1906922","44.0862180301197","27.9548316109083",,
"Romania","RO",,"Adamus","1906925","46.3047815030249","24.2438074729594",,
"Romania","RO",,"Adjud","1906942","46.0981860170346","27.1817331889616",,
"Romania","RO",,"Adunatii-Copaceni","1906960","44.2564074368378","26.0551818918387",,
"Romania","RO",,"Adunati","1906959","45.1845583925957","25.5999781519502",,
"Romania","RO",,"Adâncata","1906929","47.7388781333236","26.292384636569",,
"Romania","RO",,"Adâncata","1906930","47.7388781333236","26.292384636569",,
"Romania","RO",,"Afumati","1906971","44.0031245282083","23.4758547828119",,
"Romania","RO",,"Afumati","1906973","44.0031245282083","23.4758547828119",,
"Romania","RO",,"Agapia","1906977","47.1749157234185","26.2841987716477",,
"Romania","RO",,"Agas","1906985","46.4819854","26.2270592",,
"Romania","RO",,"Aghiresu","1906992","46.8720932","23.2377307",,
"Romania","RO",,"Agigea","1906996","44.0923374","28.6099789",,
"Romania","RO",,"Agnita","1907002","45.9775336984204","24.6268063168528",,
"Romania","RO",,"Agrij","1907007","47.0670482237753","23.0994216962892",,
"Romania","RO",,"Aita Mare","1907026","45.970229","25.5637373",,
"Romania","RO",,"Aiton","1907031","46.684227","23.7432308",,
"Romania","RO",,"Aiud","1907032","46.313706801251","23.7176966975817",,
"Romania","RO",,"Alba Iulia","1907045","45.811087522031","25.0736584741981",,
"Romania","RO",,"Albac","1907044","46.4501135275132","22.9634322594195",,
"Romania","RO",,"Albeni","1907052","45.0276207538843","23.6042061016219",,
"Romania","RO",,"Albesti-Paleologu","1907080","44.9550841506508","26.2285196938479",,
"Romania","RO",,"Albestii-Pamanteni","1907076","45.2127895739523","24.6701237251092",,
"Romania","RO",,"Albesti","1907057","44.5391715301681","27.129671651087",,
"Romania","RO",,"Albesti","1907059","44.5391715301681","27.129671651087",,
"Romania","RO",,"Albesti","1907061","44.5391715301681","27.129671651087",,
"Romania","RO",,"Albesti","1907062","44.5391715301681","27.129671651087",,
"Romania","RO",,"Albesti","1907066","44.5391715301681","27.129671651087",,
"Romania","RO",,"Albesti","1907068","44.5391715301681","27.129671651087",,
"Romania","RO",,"Alesd","1907121","47.062105843901","22.3976233414673",,
"Romania","RO",,"Alexandria","1907128","43.9703565","25.3317085",,
"Romania","RO",,"Alexandru Ioan Cuza","1907138","46.0870390292691","23.587723346833",,
"Romania","RO",,"Alexandru Odobescu","1907143","44.267433710473","27.0892116998118",,
"Romania","RO",,"Alexandru Vlahuta","1907146","45.5660383","27.0993574",,
"Romania","RO",,"Alexeni","1907151","44.6813750548154","26.7080362791401",,
"Romania","RO",,"Aliman","1907160","44.1840446753111","27.8535086011073",,
"Romania","RO",,"Alimpesti","1907164","45.1053408676165","23.8030069751731",,
"Romania","RO",,"Almajiu","1907175",,,,
"Romania","RO",,"Almasu Mare","1907198","47.3282538503913","22.5260975535124",,
"Romania","RO",,"Almasu","1907188","46.9438493599469","23.1295821721767",,
"Romania","RO",,"Almas","1907182","47.0075887757897","26.3485750859986",,
"Romania","RO",,"Altina","1907229","45.9298582656675","24.4611749449908",,
"Romania","RO",,"Alunis","1907236","46.2636897882725","25.1863831315275",,
"Romania","RO",,"Alunis","1907239","46.2636897882725","25.1863831315275",,
"Romania","RO",,"Alunis","1907241","46.2636897882725","25.1863831315275",,
"Romania","RO",,"Alunu","1907258","45.0166971241783","23.8253639128127",,
"Romania","RO",,"Amarastii de Jos","1907266","43.9532509569319","24.1652584453889",,
"Romania","RO",,"Amarastii de Sus","1907267","43.981143379239","24.1577699989837",,
"Romania","RO",,"Amarasti","1907264","44.7587241821924","24.1592826594979",,
"Romania","RO",,"Amara","1907262","44.6173543","27.314991",,
"Romania","RO",,"Amaru","1907271","44.9263651","26.5881564",,
"Romania","RO",,"Amzacea","1907279","43.9597967283089","28.3970686291629",,
"Romania","RO",,"Andrasesti","1907286","44.5784578850153","27.1409234902951",,
"Romania","RO",,"Andreiasu de Jos","1907293","45.7559803464759","26.82968543987",,
"Romania","RO",,"Andrid","1907300","47.5173241042186","22.3357653223165",,
"Romania","RO",,"Andrieseni","1907301","47.529151","27.2902192",,
"Romania","RO",,"Anina","1907327","45.0909182114175","21.8540286868365",,
"Romania","RO",,"Aninoasa","1907335","44.9726432290992","25.4369096927061",,
"Romania","RO",,"Aninoasa","1907336","44.9726432290992","25.4369096927061",,
"Romania","RO",,"Aninoasa","1907337","44.9726432290992","25.4369096927061",,
"Romania","RO",,"Apahida","1907358","46.8021725","23.7546388",,
"Romania","RO",,"Apata","1907363","45.950432","25.5331162",,
"Romania","RO",,"Apateu","1907366","46.6217667651671","21.7739476356075",,
"Romania","RO",,"Apa","1907355","47.7628880750016","23.2009878026386",,
"Romania","RO",,"Apele Vii","1907369","44.0671346964056","24.0631595340031",,
"Romania","RO",,"Apoldu de Jos","1907371","45.8806077857842","23.8455296043375",,
"Romania","RO",,"Apold","1907370","46.1273761","24.8203591",,
"Romania","RO",,"Apostolache","1907378","45.1294513926725","26.257880026494",,
"Romania","RO",,"Arad","1907387","46.1759065","21.3187686",,
"Romania","RO",,"Arbore","1907409","47.7312669","25.9200022",,
"Romania","RO",,"Arcani","1907411","45.0752736834021","23.1337320644857",,
"Romania","RO",,"Archis","1907418","46.4778558","22.0528201",,
"Romania","RO",,"Ardeoani","1907434","46.5267172","26.6102814",,
"Romania","RO",,"Ardud","1907439","47.6422032623651","22.8868480866925",,
"Romania","RO",,"Ardusat","1907441","47.6472949279695","23.3624217578369",,
"Romania","RO",,"Arefu","1907445","45.3289137","24.6079034",,
"Romania","RO",,"Argetoaia","1907458","44.5137166729425","23.3806631108642",,
"Romania","RO",,"Aricestii-Rahtivani","1907477","44.9493166636869","25.8333825472498",,
"Romania","RO",,"Aricestii-Zeletin","1907478","45.2194126","26.1805169",,
"Romania","RO",,"Arieseni","1907483","46.4781014047722","22.7578705186355",,
"Romania","RO",,"Arinis","1907492","47.5008819358256","23.2268523088371",,
"Romania","RO",,"Armasesti","1907509","45.0104880227801","24.0204344433916",,
"Romania","RO",,"Armenis","1907513","45.2093601","22.3100578",,
"Romania","RO",,"Aroneanu","1907520","47.2048079","27.6052551",,
"Romania","RO",,"Arpasu de Jos","1907526","45.7788540478754","24.6220747197295",,
"Romania","RO",,"Arsura","1907544","46.8146330665801","28.0244208359468",,
"Romania","RO",,"Asau","1907569","46.4410076446287","26.3840902140992",,
"Romania","RO",,"Astileu","1907586","47.0278142651368","22.3946271660971",,
"Romania","RO",,"Asuaju de Sus","1907591","47.5670327","23.1824512",,
"Romania","RO",,"Atel","1907608","46.1589263039272","24.4665893149233",,
"Romania","RO",,"Atid","1907611","46.4537198143811","25.046015798025",,
"Romania","RO",,"Atintis","1907612","46.4295651","24.1066698",,
"Romania","RO",,"Auseu","1907644","47.036855","22.4963927",,
"Romania","RO",,"Avram Iancu","1907662","46.6694822","21.5241933",,
"Romania","RO",,"Avrameni","1907654","48.0160884","26.9537769",,
"Romania","RO",,"Avramesti","1907656","44.8572526746409","24.166275933966",,
"Romania","RO",,"Avrig","1907665","45.7264318022576","24.3822376384727",,
"Romania","RO",,"Axente Sever","1907666","46.0940755962542","24.2174337420783",,
"Romania","RO",,"Axintele","1907668","44.6132059509819","26.7515883339994",,
"Romania","RO",,"Azuga","1907672","45.4436869826651","25.5677128938074",,
"Romania","RO",,"Baba Ana","1907673","44.968994117518","26.4622959145837",,
"Romania","RO",,"Babadag","1907676","44.892554888446","28.7149354075837",,
"Romania","RO",,"Babaita","1907679","44.1640039831559","25.3824413526319",,
"Romania","RO",,"Babana","1907680","44.8907849","24.7047047",,
"Romania","RO",,"Babeni","1907692","44.979086108424","24.2246977432547",,
"Romania","RO",,"Babeni","1907693","44.979086108424","24.2246977432547",,
"Romania","RO",,"Babiciu","1907701","44.0313276273952","24.5616586749026",,
"Romania","RO",,"Bacani","1907720","46.3213258","27.6807033",,
"Romania","RO",,"Bacau","1907724","46.5549533886031","26.9145996269397",,
"Romania","RO",,"Bacesti","1907739","44.7463194820084","23.6831120737885",,
"Romania","RO",,"Bacia","1907744","45.8025818","23.0062276",,
"Romania","RO",,"Baciu","1907749","44.33152","25.444291",,
"Romania","RO",,"Baclesu","1907760",,,,
"Romania","RO",,"Bagaciu","1907825","46.2704575884621","24.3739399323646",,
"Romania","RO",,"Bahna","1907843","44.774898777808","22.4976935464031",,
"Romania","RO",,"Bahnea","1907849","46.3734374118814","24.4832442631394",,
"Romania","RO",,"Baia Mare","1907866","47.6634173805842","23.5783808569002",,
"Romania","RO",,"Baia de Arama","1907859","44.9976739496973","22.8168942047472",,
"Romania","RO",,"Baia de Aries","1907860","46.38105176341","23.2816016588461",,
"Romania","RO",,"Baia de Cris","1907861","46.1747171126296","22.7135642809053",,
"Romania","RO",,"Baia de Fier","1907862","45.1701430361094","23.7665375880758",,
"Romania","RO",,"Baia-Sprie","1907871","47.6624182351679","23.6962752712788",,
"Romania","RO",,"Baia","1907854","47.4177578154042","26.2156779347337",,
"Romania","RO",,"Baia","1907856","47.4177578154042","26.2156779347337",,
"Romania","RO",,"Baicoi","1907886","45.0354858","25.8526695",,
"Romania","RO",,"Baiculesti","1907889","45.0636827683241","24.6944690065064",,
"Romania","RO",,"Baile Govora","1907914",,,,
"Romania","RO",,"Baile Herculane","1907916","44.8839077911081","22.4193407976645",,
"Romania","RO",,"Baile Olanesti","1907924","45.1814587301384","24.2574552408333",,
"Romania","RO",,"Baile Tusnad","1907936","46.1483388117249","25.8608220866073",,
"Romania","RO",,"Bailesti","1907934","44.021519369074","23.3444017134691",,
"Romania","RO",,"Baisoara","1907949","46.5775544","23.4615157",,
"Romania","RO",,"Baita de sub Codru","1907957","47.5297502","23.1498263",,
"Romania","RO",,"Baita","1907952","46.4825397258976","22.5825590587118",,
"Romania","RO",,"Baiut","1907959","47.6139872","23.9975195",,
"Romania","RO",,"Balabanesti","1907984","46.0954568","27.7220603",,
"Romania","RO",,"Balaceanu","1907989","45.2466367","27.1369657",,
"Romania","RO",,"Balacita","1907996","44.3846126897324","23.1257493172774",,
"Romania","RO",,"Balaciu","1907998","44.6355862","26.9030563",,
"Romania","RO",,"Balaci","1907995","44.3433909603697","24.9224385417323",,
"Romania","RO",,"Balanesti","1908020","45.0456211983678","23.3735279688933",,
"Romania","RO",,"Balan","1908013","47.1517993322359","23.3085592599974",,
"Romania","RO",,"Balan","1908015","47.1517993322359","23.3085592599974",,
"Romania","RO",,"Balasesti","1908039","46.1013374","27.6738766",,
"Romania","RO",,"Balauseri","1908047","46.4073178","24.6866087",,
"Romania","RO",,"Bala","1907981","44.8878259791486","22.8309923500817",,
"Romania","RO",,"Bala","1907982","44.8878259791486","22.8309923500817",,
"Romania","RO",,"Balcani","1908056","46.6492806","26.5641035",,
"Romania","RO",,"Balcauti","1908058","47.8926431","26.076976",,
"Romania","RO",,"Balcesti","1908071","45.1095683693639","23.6371514919248",,
"Romania","RO",,"Balc","1908060","47.2978398731373","22.5322253095832",,
"Romania","RO",,"Baldovinesti","1908080","44.3374836957294","25.0560543522521",,
"Romania","RO",,"Baleni","1908085","45.8079488298252","27.8482924403893",,
"Romania","RO",,"Balesti","1908092","46.7157699064893","27.5127778850468",,
"Romania","RO",,"Balesti","1908094","46.7157699064893","27.5127778850468",,
"Romania","RO",,"Balilesti","1908100","45.0655101404031","24.9389882975676",,
"Romania","RO",,"Balint","1908107","45.8124996","21.8536193",,
"Romania","RO",,"Balotesti","1908136","44.7381519536727","22.6359569411182",,
"Romania","RO",,"Balsa","1908138","46.0266820522057","23.0981729428416",,
"Romania","RO",,"Bals","1908140","44.3422219694643","24.1194341429841",,
"Romania","RO",,"Balta Alba","1908145","45.305903878732","27.2870735446571",,
"Romania","RO",,"Balta Doamnei","1908154","44.7593185117044","26.1675131312064",,
"Romania","RO",,"Baltatesti","1908177","47.1223803419782","26.3045489136755",,
"Romania","RO",,"Baltati","1908178","47.2240836639966","27.1211708521625",,
"Romania","RO",,"Balta","1908152","44.8877801789691","22.6346158093172",,
"Romania","RO",,"Balteni","1908202","44.8700475094257","23.2712546493111",,
"Romania","RO",,"Baltesti","1908214","45.1090568","26.1312304",,
"Romania","RO",,"Baluseni","1908224","47.6675673300019","26.7941127590611",,
"Romania","RO",,"Balvanesti","1908234","44.7980517016825","22.6766556411466",,
"Romania","RO",,"Banca","1908242","46.3475939","27.2914137",,
"Romania","RO",,"Band","1908250","46.577126272695","24.3684836025165",,
"Romania","RO",,"Baneasa","1908254","44.0661544857059","27.6957757322926",,
"Romania","RO",,"Baneasa","1908256","44.0661544857059","27.6957757322926",,
"Romania","RO",,"Baneasa","1908257","44.0661544857059","27.6957757322926",,
"Romania","RO",,"Banesti","1908265","47.5914201943832","26.521100586751",,
"Romania","RO",,"Bania","1908267","44.8765039478286","22.0425804807087",,
"Romania","RO",,"Banisor","1908270","47.1051092","22.8390931",,
"Romania","RO",,"Banita","1908272","45.4422137967585","23.26706825557",,
"Romania","RO",,"Banloc","1908279","45.3884113828912","21.1343045947847",,
"Romania","RO",,"Baraganul","1908304","44.8106789","27.5151509",,
"Romania","RO",,"Baraolt","1908319","46.074897828421","25.6034643589404",,
"Romania","RO",,"Barasti","1908328","47.3631775","26.3538318",,
"Romania","RO",,"Bara","1908292","46.5719927607891","24.8713451941476",,
"Romania","RO",,"Barbatesti","1908357","44.8579920811482","23.5070835975228",,
"Romania","RO",,"Barbatesti","1908358","44.8579920811482","23.5070835975228",,
"Romania","RO",,"Barbuletu","1908381","45.1161998498299","25.3044826666982",,
"Romania","RO",,"Barcanesti","1908396","44.6418530666649","26.6417116929603",,
"Romania","RO",,"Barcanesti","1908397","44.6418530666649","26.6417116929603",,
"Romania","RO",,"Barcani","1908398","45.6956568847999","26.0869462958868",,
"Romania","RO",,"Barcea","1908401","45.7520296453327","27.4718480791946",,
"Romania","RO",,"Bargaoani","1908422",,,,
"Romania","RO",,"Barghis","1908425","45.9828958","24.539716",,
"Romania","RO",,"Barla","1908435","44.426580353153","24.7792329679172",,
"Romania","RO",,"Barnova","1908454","47.0762160261664","27.6258654015871",,
"Romania","RO",,"Barsanesti","1908465","46.3307682","26.6899012",,
"Romania","RO",,"Barsesti","1908475","45.9093547215858","26.7397767627921",,
"Romania","RO",,"Baru","1908499","45.4668182672629","23.165535021963",,
"Romania","RO",,"Barza","1908510","44.3264820667433","24.1449956209775",,
"Romania","RO",,"Basarabi","1908532","44.1696444358093","28.4026397689769",,
"Romania","RO",,"Bascov","1908547","44.3890385981084","23.5173556798009",,
"Romania","RO",,"Basesti","1908557","47.4805909","23.1462242",,
"Romania","RO",,"Batarci","1908579","48.0356358","23.1510964",,
"Romania","RO",,"Batar","1908578","46.7094114971593","21.8016068568556",,
"Romania","RO",,"Bata","1908573","46.0171945","22.0387763",,
"Romania","RO",,"Batos","1908597","46.8867976466998","24.6538998936665",,
"Romania","RO",,"Batrana","1908600","45.7916909","22.5854927",,
"Romania","RO",,"Bautar","1908613","45.5166667","22.5666667",,
"Romania","RO",,"Bazna","1908632","46.197318531663","24.2830682478349",,
"Romania","RO",,"Beba","1908639",,,,
"Romania","RO",,"Beceni","1908644","45.3766047556252","26.7698721908403",,
"Romania","RO",,"Bechet","1908649","43.7841983","23.95595",,
"Romania","RO",,"Becicherecu Mic","1908662","45.8290399","21.0514234",,
"Romania","RO",,"Beclean","1908668","47.1783213794079","24.173945557008",,
"Romania","RO",,"Beclean","1908669","47.1783213794079","24.173945557008",,
"Romania","RO",,"Beica de Jos","1908699","46.7333082492269","24.7945575320235",,
"Romania","RO",,"Beidaud","1908702","44.7158169048576","28.5766256084218",,
"Romania","RO",,"Beius","1908714","46.6661077534671","22.3543103141413",,
"Romania","RO",,"Belcesti","1908730","47.3098690851265","27.0899690142669",,
"Romania","RO",,"Belciugatele","1908739","44.486394","26.4324273",,
"Romania","RO",,"Belint","1908773","45.7539206789535","21.7652039643208",,
"Romania","RO",,"Belin","1908771","45.9343694480273","25.5781691325373",,
"Romania","RO",,"Belis","1908776","46.6833392190575","23.0330569379582",,
"Romania","RO",,"Beliu","1908778","46.4935408","21.9864439",,
"Romania","RO",,"Beltiug","1908788","47.5474399714505","22.840915293635",,
"Romania","RO",,"Benesat","1908803","47.412724176061","23.2891489704067",,
"Romania","RO",,"Bengesti","1908811","45.0728806577657","23.5863230389508",,
"Romania","RO",,"Berbesti","1908825","44.5167553290021","24.0580172465701",,
"Romania","RO",,"Berca","1908834","45.2878998110282","26.6709323332416",,
"Romania","RO",,"Berceni","1908838","44.313734044081","26.1863463906138",,
"Romania","RO",,"Berceni","1908839","44.313734044081","26.1863463906138",,
"Romania","RO",,"Beresti-Bistrita","1908894","46.7112379031854","26.8619722496519",,
"Romania","RO",,"Beresti-Sat","1908899",,,,
"Romania","RO",,"Beresti-Tazlau","1908900","46.4684044680075","26.6745635561034",,
"Romania","RO",,"Beresti","1908889","46.2039233159851","27.1426454248657",,
"Romania","RO",,"Berevoesti","1908906","45.2294678151473","24.9380136829183",,
"Romania","RO",,"Berezeni","1908912","46.3735151","28.1521189",,
"Romania","RO",,"Berghin","1908915","46.0775387798178","23.7383137691474",,
"Romania","RO",,"Berislavesti","1908935","45.2474777335733","24.4269889419728",,
"Romania","RO",,"Beriu","1908936","45.7915357852221","23.1930077488489",,
"Romania","RO",,"Berlesti","1908940","45.0804956","27.4482217",,
"Romania","RO",,"Berliste","1908942","44.9905298","21.4668499",,
"Romania","RO",,"Bertea","1908947","45.2348334127782","25.8625778454587",,
"Romania","RO",,"Bertestii de Jos","1908951","44.8346313","27.7558747",,
"Romania","RO",,"Berthelot","1908953","45.6134352","22.8878639",,
"Romania","RO",,"Berveni","1908954","47.7581306632504","22.4771729331699",,
"Romania","RO",,"Berzasca","1908957","44.6468666654357","21.9508284107317",,
"Romania","RO",,"Berzovia","1908962","45.4250975080205","21.6293088774615",,
"Romania","RO",,"Berzunti","1908964","46.3992557892082","26.6883833201755",,
"Romania","RO",,"Bethausen","1908994","45.8331353","21.9573457",,
"Romania","RO",,"Bezdead","1909004","45.136695423792","25.4938843167018",,
"Romania","RO",,"Bicaz Chei","1909037","46.8346070008892","25.8955586027836",,
"Romania","RO",,"Bicazu Ardelean","1909038","46.8554326466846","25.921520073186",,
"Romania","RO",,"Bicaz","1909034","46.9100426353392","26.0859492368523",,
"Romania","RO",,"Bicaz","1909035","46.9100426353392","26.0859492368523",,
"Romania","RO",,"Bichis","1909056","46.3742625","24.0919683",,
"Romania","RO",,"Biertan","1909070","46.1364678026797","24.5222457182646",,
"Romania","RO",,"Biharia","1909076","46.4283772","22.7692249",,
"Romania","RO",,"Bilbor","1909088","47.0689639172247","25.4857019638566",,
"Romania","RO",,"Bilca","1909089","47.9182626","25.7545694",,
"Romania","RO",,"Bilciuresti","1909094","44.7392274","25.8141394",,
"Romania","RO",,"Biled","1909096","45.8867926103525","20.9583946048892",,
"Romania","RO",,"Birchis","1909135","45.9659971734352","22.1666658923355",,
"Romania","RO",,"Bisoca","1909252","45.5422326","26.706427",,
"Romania","RO",,"Bistra","1909255","46.3769783","23.1038683",,
"Romania","RO",,"Bistra","1909256","46.3769783","23.1038683",,
"Romania","RO",,"Bistret","1909261","43.8916824771989","23.4998007301135",,
"Romania","RO",,"Bistrita","1909269","47.136341239575","24.4943121941267",,
"Romania","RO",,"Bivolari","1909288","47.5217074","27.4486497",,
"Romania","RO",,"Bixad","1909294","46.1028756105665","25.8637056063594",,
"Romania","RO",,"Blagesti","1909304","46.6882758300817","26.6638133343298",,
"Romania","RO",,"Blagesti","1909306","46.6882758300817","26.6638133343298",,
"Romania","RO",,"Blajani","1909312","45.316134","26.8129286",,
"Romania","RO",,"Blajel","1909314","46.2067901","24.3237074",,
"Romania","RO",,"Blajeni","1909315","46.2138891","22.9091614",,
"Romania","RO",,"Blaj","1909313","44.2713169671518","24.198354362122",,
"Romania","RO",,"Blandiana","1909333","45.9776675705283","23.3888664813476",,
"Romania","RO",,"Blejesti","1909350","44.2976791310817","25.4686035566662",,
"Romania","RO",,"Blejoi","1909351","44.9949329320287","26.0046207133923",,
"Romania","RO",,"Bobicesti","1909401","44.3987733032768","24.1398544269062",,
"Romania","RO",,"Bobota","1909420","47.3825789424141","22.7654756223494",,
"Romania","RO",,"Bocicoiu Mare","1909440","47.963126","24.0155303",,
"Romania","RO",,"Bocsa","1909444","45.3757977302184","21.7152730565707",,
"Romania","RO",,"Bocsa","1909447","45.3757977302184","21.7152730565707",,
"Romania","RO",,"Bocsig","1909457","46.4201278568817","21.938245398573",,
"Romania","RO",,"Bodesti","1909471","45.0596212285443","23.8096340381545",,
"Romania","RO",,"Bodoc","1909489","45.9552015138859","25.8565166078612",,
"Romania","RO",,"Bod","1909461","45.7634703","25.6399108",,
"Romania","RO",,"Bogata","1909510","46.4559776909544","24.1173168751683",,
"Romania","RO",,"Bogati","1909518","44.8681761","25.1353133",,
"Romania","RO",,"Bogdan Voda","1909550","47.691691","24.2668828",,
"Romania","RO",,"Bogdana","1909525","43.9177045310075","25.1036567635601",,
"Romania","RO",,"Bogdana","1909526","43.9177045310075","25.1036567635601",,
"Romania","RO",,"Bogdand","1909532","47.4146120528974","22.9342746376644",,
"Romania","RO",,"Bogdanesti","1909540","46.2110044152014","26.6819458572408",,
"Romania","RO",,"Bogdanesti","1909541","46.2110044152014","26.6819458572408",,
"Romania","RO",,"Bogdanita","1909546","46.4590383","27.6855182",,
"Romania","RO",,"Bogda","1909522","45.9783326","21.572493",,
"Romania","RO",,"Boghesti","1909559","46.1588679","27.4095567",,
"Romania","RO",,"Boianu Mare","1909595","47.3824102909888","22.5213075313269",,
"Romania","RO",,"Boisoara","1909597","45.442161003681","24.3822573136084",,
"Romania","RO",,"Boiu Mare","1909621","47.3955975895653","23.5866464378032",,
"Romania","RO",,"Bolbosi","1909646","44.7460679","23.229409",,
"Romania","RO",,"Boldesti-Scaeni","1909654","45.022680723531","26.0319637508637",,
"Romania","RO",,"Boldesti","1909653","44.865916691145","26.5523515245483",,
"Romania","RO",,"Boldur","1909660","45.69246793408","21.7818707148461",,
"Romania","RO",,"Boldu","1909656","45.3229809943969","27.240021523496",,
"Romania","RO",,"Bolintin Deal","1909668","44.4565811227166","25.8201361263708",,
"Romania","RO",,"Bolintinu-din-Vale","1909674",,,,
"Romania","RO",,"Bolotesti","1909683","45.8368594492904","27.0723408262107",,
"Romania","RO",,"Bolvasnita","1909697","45.3455774","22.3101167",,
"Romania","RO",,"Borascu","1909715","44.6947201","23.284332",,
"Romania","RO",,"Borca","1909718","47.1829556453598","25.7701007899447",,
"Romania","RO",,"Borcea","1909721","44.3321700292059","27.7418796158372",,
"Romania","RO",,"Bordei Verde","1909736","45.0637394","27.5734247",,
"Romania","RO",,"Bordesti","1909742","45.5540730381626","27.0411586529229",,
"Romania","RO",,"Bordusani","1909754","44.4817167822613","27.9044194550278",,
"Romania","RO",,"Borlesti","1909774","47.681819380505","23.3311517568283",,
"Romania","RO",,"Boroaia","1909780","47.344624934596","26.3278437322788",,
"Romania","RO",,"Borod","1909785","46.991702","22.6155619",,
"Romania","RO",,"Borosneu Mare","1909804","45.8192316","26.0078365",,
"Romania","RO",,"Borsa","1909816","47.4109894698602","27.3619951153141",,
"Romania","RO",,"Borsa","1909817","47.4109894698602","27.3619951153141",,
"Romania","RO",,"Borsec","1909832","46.9695766062843","25.5609996087054",,
"Romania","RO",,"Bors","1909830","47.1170151","21.8023716",,
"Romania","RO",,"Bosanci","1909864","47.5867660337812","26.3137368572804",,
"Romania","RO",,"Bosorod","1909878","45.6828215","23.0939032",,
"Romania","RO",,"Boteni","1909903","45.1781039870427","25.1296886567732",,
"Romania","RO",,"Botesti","1909907","46.935741","26.5018536",,
"Romania","RO",,"Botesti","1909911","46.935741","26.5018536",,
"Romania","RO",,"Botesti","1909913","46.935741","26.5018536",,
"Romania","RO",,"Botiza","1909920","47.6685184","24.1515173",,
"Romania","RO",,"Botiz","1909921","47.8310957091158","22.9476795748289",,
"Romania","RO",,"Botoroaga","1909929","44.1450871","25.5578108",,
"Romania","RO",,"Botosana","1909931","47.6865651564008","25.9354531897569",,
"Romania","RO",,"Botosani","1909932","47.7432893855485","26.6650647894941",,
"Romania","RO",,"Botosesti-Paia","1909937","44.403898","23.2638116",,
"Romania","RO",,"Bozieni","1909976","46.8391631336079","27.151832326054",,
"Romania","RO",,"Bozioru","1909987","45.3834395","26.4953874",,
"Romania","RO",,"Bozovici","1909993","44.9221102506003","21.9984291063152",,
"Romania","RO",,"Brabova","1909996","44.3678752120649","23.4247822999648",,
"Romania","RO",,"Bradeanu","1910006","44.9263617","26.8686275",,
"Romania","RO",,"Bradeni","1910008","46.0805929956665","24.8303912005512",,
"Romania","RO",,"Bradesti","1910011","44.4888830867029","23.6269769296737",,
"Romania","RO",,"Bradesti","1910013","44.4888830867029","23.6269769296737",,
"Romania","RO",,"Bradulet","1910053","45.2798671","24.7828846",,
"Romania","RO",,"Bradut","1910055","46.1294071","25.609558",,
"Romania","RO",,"Bradu","1910040","45.7206635386683","24.3265911157117",,
"Romania","RO",,"Brad","1910003","46.7230100949812","26.9543700231874",,
"Romania","RO",,"Braesti","1910056","47.1556542079248","27.0990403413309",,
"Romania","RO",,"Braesti","1910057","47.1556542079248","27.0990403413309",,
"Romania","RO",,"Braesti","1910059","47.1556542079248","27.0990403413309",,
"Romania","RO",,"Bragadiru","1910061","44.3701394394709","25.9753976338751",,
"Romania","RO",,"Bragadiru","1910062","44.3701394394709","25.9753976338751",,
"Romania","RO",,"Brahasesti","1910068","46.0399173","27.3701456",,
"Romania","RO",,"Braila","1910075","45.2752381629098","27.957226312119",,
"Romania","RO",,"Bralostita","1910082","44.498321699668","23.5198794626313",,
"Romania","RO",,"Brancovenesti","1910089","46.8554083209184","24.7583145459128",,
"Romania","RO",,"Branesti","1910093","45.0408246111217","25.4191824927017",,
"Romania","RO",,"Branesti","1910095","45.0408246111217","25.4191824927017",,
"Romania","RO",,"Branesti","1910098","45.0408246111217","25.4191824927017",,
"Romania","RO",,"Branisca","1910104","45.9182266490729","22.7737669874685",,
"Romania","RO",,"Branistea","1910107","44.2425607276012","22.972005084688",,
"Romania","RO",,"Branistea","1910109","44.2425607276012","22.972005084688",,
"Romania","RO",,"Branistea","1910114","44.2425607276012","22.972005084688",,
"Romania","RO",,"Bran","1910083","45.5141732045761","25.3640385721835",,
"Romania","RO",,"Brasov","1910129","45.652556","25.6097033",,
"Romania","RO",,"Brastavatu","1910132","43.9060263","24.4070381",,
"Romania","RO",,"Bratca","1910139","46.9294295","22.6058213",,
"Romania","RO",,"Brateiu","1910145","46.1704523622673","24.42513450986",,
"Romania","RO",,"Brates","1910150","45.835166081108","26.0723347165133",,
"Romania","RO",,"Brazii","1910218","44.7611488569974","26.3610717905289",,
"Romania","RO",,"Brazii","1910219","44.7611488569974","26.3610717905289",,
"Romania","RO",,"Brazi","1910213","45.4841184","22.8341845",,
"Romania","RO",,"Breasta","1910224","44.3426345","23.6881521",,
"Romania","RO",,"Breaza","1910225","45.7050018337649","24.8819144734159",,
"Romania","RO",,"Breaza","1910227","45.7050018337649","24.8819144734159",,
"Romania","RO",,"Breaza","1910228","45.7050018337649","24.8819144734159",,
"Romania","RO",,"Breaza","1910230","45.7050018337649","24.8819144734159",,
"Romania","RO",,"Brebeni","1910242","44.3704457079738","24.4473810350837",,
"Romania","RO",,"Brebu Nou","1910266","45.2333332","22.1333333",,
"Romania","RO",,"Brebu","1910254","45.4201855960344","21.9925421100564",,
"Romania","RO",,"Brebu","1910257","45.4201855960344","21.9925421100564",,
"Romania","RO",,"Brestovat","1910281","45.8734183","21.6820062",,
"Romania","RO",,"Bretcu","1910287","46.0428594","26.3046826",,
"Romania","RO",,"Breznita Ocol","1910301","44.6728081340986","22.6116674402144",,
"Romania","RO",,"Breznita-Motru","1910300","44.5671847","23.2156707",,
"Romania","RO",,"Brezoaiele","1910306",,,,
"Romania","RO",,"Brezoi","1910307","45.341778991111","24.2405440631201",,
"Romania","RO",,"Brodina","1910339","47.781111","25.2723612",,
"Romania","RO",,"Broscauti","1910348","47.953382","26.4504247",,
"Romania","RO",,"Brosteni","1910360","45.0459383224783","21.6489760344232",,
"Romania","RO",,"Brosteni","1910361","45.0459383224783","21.6489760344232",,
"Romania","RO",,"Brosteni","1910364","45.0459383224783","21.6489760344232",,
"Romania","RO",,"Bruiu","1910382","45.8761451408745","24.6994969325733",,
"Romania","RO",,"Brusturi","1910387","47.1614779446687","23.2268015836546",,
"Romania","RO",,"Brusturoasa","1910394","46.5217547","26.1784401",,
"Romania","RO",,"Brânceni","1910086","43.8767849113942","25.3959622157487",,
"Romania","RO",,"Brâncoveni","1910090","44.3131602","24.3093239",,
"Romania","RO",,"Bucecea","1910404","47.7737641458996","26.4386520927086",,
"Romania","RO",,"Buces","1910412","46.1878938957102","22.9410741620769",,
"Romania","RO",,"Bucharest","1910415","44.4361391","26.1027436",,
"Romania","RO",,"Buchin","1910419","45.3666667","22.25",,
"Romania","RO",,"Bucinisu","1910425","43.9479616","24.2510085",,
"Romania","RO",,"Buciumeni","1910437","45.1563991677186","25.455333794779",,
"Romania","RO",,"Buciumeni","1910439","45.1563991677186","25.455333794779",,
"Romania","RO",,"Buciumi","1910447","46.1988622466228","26.7846391026774",,
"Romania","RO",,"Bucium","1910429","45.7406732351285","23.1826667017296",,
"Romania","RO",,"Bucosnita","1910462","45.3008733688458","22.2694013967857",,
"Romania","RO",,"Bucovat","1910465","45.7526721887426","21.3785402659164",,
"Romania","RO",,"Bucov","1910470","44.440242","25.0374716",,
"Romania","RO",,"Bucsani","1910486","44.8522443701885","24.2339393280228",,
"Romania","RO",,"Bucuresci","1910504","46.1281515","22.9031745",,
"Romania","RO",,"Bucu","1910496","44.6062077468669","27.4925829607453",,
"Romania","RO",,"Budacu de Jos","1910526","47.0857843068538","24.5210572602648",,
"Romania","RO",,"Buda","1910521","44.9645962618913","25.9187657243127",,
"Romania","RO",,"Budeasa","1910538","44.9285442642816","24.8218449607776",,
"Romania","RO",,"Budesti","1910549","44.6030430243035","23.9930289312836",,
"Romania","RO",,"Budesti","1910553","44.6030430243035","23.9930289312836",,
"Romania","RO",,"Budesti","1910558","44.6030430243035","23.9930289312836",,
"Romania","RO",,"Budesti","1910560","44.6030430243035","23.9930289312836",,
"Romania","RO",,"Budila","1910569","45.673549330746","25.8073213394172",,
"Romania","RO",,"Budureasa","1910588","46.6791819","22.4951739",,
"Romania","RO",,"Buduslau","1910594","47.4021600833232","22.2640974573397",,
"Romania","RO",,"Buftea","1910597","44.559917479799","25.9448417844149",,
"Romania","RO",,"Bughea de Jos","1910600","45.2593536155658","25.0038057284045",,
"Romania","RO",,"Buhoci","1910627","46.5665453","27.0194295",,
"Romania","RO",,"Buhusi","1910630","46.7255777765817","26.6961099160441",,
"Romania","RO",,"Bujoreni","1910648","45.1434370950615","24.3590450867424",,
"Romania","RO",,"Bujoru","1910656","45.8741893","22.6174358",,
"Romania","RO",,"Bulbucata","1910677","44.2800674058022","25.8144032603818",,
"Romania","RO",,"Bulzesti","1910704","44.5346534997961","23.8891554982507",,
"Romania","RO",,"Bulzesti","1910705","44.5346534997961","23.8891554982507",,
"Romania","RO",,"Bulz","1910702","46.9201785821402","22.6746466638112",,
"Romania","RO",,"Bumbesti-Jiu","1910715","45.1656882050787","23.3865375761511",,
"Romania","RO",,"Bunesti","1910732","45.0203037617345","24.7453103403978",,
"Romania","RO",,"Bunesti","1910733","45.0203037617345","24.7453103403978",,
"Romania","RO",,"Bunesti","1910735","45.0203037617345","24.7453103403978",,
"Romania","RO",,"Bunesti","1910736","45.0203037617345","24.7453103403978",,
"Romania","RO",,"Bunila","1910753","45.6992536883562","22.6757065148252",,
"Romania","RO",,"Buntesti","1910758","46.6127999","22.4685608",,
"Romania","RO",,"Burila Mare","1910787","44.453231","22.5729977",,
"Romania","RO",,"Burjuc","1910789","45.950006","22.4833491",,
"Romania","RO",,"Busteni","1910832","45.4147937047541","25.5367226843837",,
"Romania","RO",,"Bustuchin","1910837","44.9645178","23.728135",,
"Romania","RO",,"Butea","1910855","47.0736473","26.9357977",,
"Romania","RO",,"Buteni","1910860","46.3293044475158","22.1206924673295",,
"Romania","RO",,"Butimanu","1910865","44.6905232199895","25.8822724708471",,
"Romania","RO",,"Butoiesti","1910873","44.5880155","23.3723541",,
"Romania","RO",,"Buturugeni","1910891","44.3664136","25.8361692",,
"Romania","RO",,"Buzau","1910905","45.1485797929224","26.816966085641",,
"Romania","RO",,"Buza","1910896","46.9107086","24.1478272",,
"Romania","RO",,"Buzescu","1910914","44.0112221597321","25.2265579625768",,
"Romania","RO",,"Buzias","1910919","45.649167","21.60361",,
"Romania","RO",,"Buzoesti","1910926","44.5815316","24.918199",,
"Romania","RO",,"Bâlteni","1908199","44.8700475094257","23.2712546493111",,
"Romania","RO",,"Bâra","1908290","46.5719927607891","24.8713451941476",,
"Romania","RO",,"Bârca","1908388","43.9684755684716","23.6173267203358",,
"Romania","RO",,"Bârlad","1908436","46.2267501767622","27.6710008669776",,
"Romania","RO",,"Bârna","1908453","45.7203684","22.0572074",,
"Romania","RO",,"Bârsana","1908463","47.8175111614136","24.064365784351",,
"Romania","RO",,"Bârsa","1908462","47.3261758196657","23.2110308313407",,
"Romania","RO",,"Bârzava","1908513","46.4320255","25.8205036",,
"Romania","RO",,"Cabesti","1910931","46.7701548557709","22.3746922872706",,
"Romania","RO",,"Cacica","1910947","47.6381931","25.9001964",,
"Romania","RO",,"Caianu Mic","1910990","47.2397378227561","24.1279802994683",,
"Romania","RO",,"Caianu","1910985","46.784603","23.9184964",,
"Romania","RO",,"Caiuti","1911005","46.1836826777865","26.9244972660118",,
"Romania","RO",,"Cajvana","1911010","47.7016993","25.9669237",,
"Romania","RO",,"Calafat","1911014","43.9905608","22.9337351",,
"Romania","RO",,"Calafindesti","1911015","47.8549970420246","26.1145224553791",,
"Romania","RO",,"Calan","1911018","45.7359495473663","23.0026768914796",,
"Romania","RO",,"Calarasi","1911026","47.6071751391729","27.2591465423546",,
"Romania","RO",,"Calarasi","1911027","47.6071751391729","27.2591465423546",,
"Romania","RO",,"Calarasi","1911028","47.6071751391729","27.2591465423546",,
"Romania","RO",,"Calarasi","1911029","47.6071751391729","27.2591465423546",,
"Romania","RO",,"Calatele","1911040","46.7642788","23.0098605",,
"Romania","RO",,"Caldararu","1911049","44.4122238","26.2621468",,
"Romania","RO",,"Calimanesti","1911082","45.2381887660699","24.3390321608588",,
"Romania","RO",,"Calinesti-Oas","1911111","47.910573623458","23.2897620852862",,
"Romania","RO",,"Calinesti","1911089","44.8220864531507","25.049692537166",,
"Romania","RO",,"Calinesti","1911094","44.8220864531507","25.049692537166",,
"Romania","RO",,"Calinesti","1911097","44.8220864531507","25.049692537166",,
"Romania","RO",,"Calmatuiu","1911116","43.9694952","24.8652024",,
"Romania","RO",,"Calugareni","1911159","46.6315485757635","24.8798581232976",,
"Romania","RO",,"Calvini","1911191","45.2535181107371","26.293398043966",,
"Romania","RO",,"Camarasu","1911194","46.7982763","24.1427948",,
"Romania","RO",,"Camarzana","1911202","47.994351","23.308737",,
"Romania","RO",,"Camar","1911201","47.2990430479267","22.6165847290009",,
"Romania","RO",,"Candesti","1911275","45.3241106764352","24.9699431201464",,
"Romania","RO",,"Canesti","1911291","45.3975777","26.6027073",,
"Romania","RO",,"Capalna","1911308","45.8472397369118","23.6047309046069",,
"Romania","RO",,"Capalnita","1911314","46.3571573","25.5108234",,
"Romania","RO",,"Capleni","1911346","47.7073807979537","22.5000847887396",,
"Romania","RO",,"Capreni","1911356","44.7519298","23.6296223",,
"Romania","RO",,"Capusu Mare","1911411","46.7873332","23.2934979",,
"Romania","RO",,"Caracal","1911421","44.112167","24.3455897",,
"Romania","RO",,"Carand","1911449","46.4451222","22.0885928",,
"Romania","RO",,"Caransebes","1911454","45.4158373339898","22.2172059548256",,
"Romania","RO",,"Carasova","1911467","45.1996741403978","21.8618806008169",,
"Romania","RO",,"Carastelec","1911470","47.2998961","22.6982096",,
"Romania","RO",,"Caraula","1911484","44.1920775286706","23.2490743568331",,
"Romania","RO",,"Carbunari","1911492","44.8372565295719","21.743152093796",,
"Romania","RO",,"Carbunesti","1911498","45.2285696371956","26.2017431450628",,
"Romania","RO",,"Carcaliu","1911502","45.1866123585636","28.1464506097741",,
"Romania","RO",,"Carei","1911515","47.6832492303455","22.4629047790514",,
"Romania","RO",,"Carpen","1911580","44.337213700724","23.2574330064275",,
"Romania","RO",,"Carpinet","1911592","46.4559928","22.4937923",,
"Romania","RO",,"Carpinis","1911597","45.8323800105278","23.6609048195692",,
"Romania","RO",,"Carta","1911616","46.5327347113965","25.7603556549755",,
"Romania","RO",,"Carta","1911617","46.5327347113965","25.7603556549755",,
"Romania","RO",,"Cascioarele","1911645","44.1274371842522","26.4698561230463",,
"Romania","RO",,"Caseiu","1911649","47.1967690817832","23.8542957921232",,
"Romania","RO",,"Casimcea","1911658","44.7139884","28.379287",,
"Romania","RO",,"Casin","1911659","46.1970813248212","26.7420766333502",,
"Romania","RO",,"Castelu","1911677","44.2571022628707","28.3352807249101",,
"Romania","RO",,"Castra-Nova","1911680",,,,
"Romania","RO",,"Catalina","1911687","45.9672671229704","26.1583463871507",,
"Romania","RO",,"Cata","1911683","46.0902271","25.2811332",,
"Romania","RO",,"Catcau","1911710","47.2176494","23.789674",,
"Romania","RO",,"Cateasca","1911712","44.766667","25.083333",,
"Romania","RO",,"Catina","1911727","45.2910804095742","26.2567046412776",,
"Romania","RO",,"Catina","1911729","45.2910804095742","26.2567046412776",,
"Romania","RO",,"Catunele","1911739","44.859663739207","22.9203053568345",,
"Romania","RO",,"Cauas","1911754","47.5698274424165","22.5425103615429",,
"Romania","RO",,"Cavadinesti","1911767","46.0616651250632","28.0174362459435",,
"Romania","RO",,"Cavnic","1911771","47.6539041","23.8284706",,
"Romania","RO",,"Cazanesti","1911777","44.7234546620444","22.8904694929657",,
"Romania","RO",,"Cazanesti","1911782","44.7234546620444","22.8904694929657",,
"Romania","RO",,"Ceahlau","1911793","46.9963094228465","25.9229025888576",,
"Romania","RO",,"Ceamurlia de Jos","1911798","44.7423917952385","28.7263864492555",,
"Romania","RO",,"Ceanu Mare","1911807","46.6617228","23.9597635",,
"Romania","RO",,"Ceatalchioi","1911816","45.288554","28.7936599",,
"Romania","RO",,"Cefa","1911837","46.9149165990315","21.7121320431678",,
"Romania","RO",,"Cehal","1911842","47.3843237","22.5946859",,
"Romania","RO",,"Cehu Silvaniei","1911851","47.410902310241","23.1792106220154",,
"Romania","RO",,"Ceica","1911852","46.8583761","22.168755",,
"Romania","RO",,"Celaru","1911856","44.0399537000062","24.1298925857959",,
"Romania","RO",,"Cenade","1911867","46.0585089875157","24.0049517859325",,
"Romania","RO",,"Cenad","1911866","46.1333328","20.5833373",,
"Romania","RO",,"Cenei","1911876","45.715836","20.9038891",,
"Romania","RO",,"Cepari","1911885","47.2352563260281","24.4265054481669",,
"Romania","RO",,"Ceplenita","1911895","47.3772747","26.9592916",,
"Romania","RO",,"Cerasu","1911902","45.3237258899525","26.041290324608",,
"Romania","RO",,"Ceratu","1911905","45.0151679","23.4340991",,
"Romania","RO",,"Cerbal","1911908","45.7805299","22.7170898",,
"Romania","RO",,"Cerchezu","1911932","43.8240928","28.0975135",,
"Romania","RO",,"Cermei","1911955","46.5483172","21.8456523",,
"Romania","RO",,"Cernatesti","1911972","45.2637709904053","26.7594257631603",,
"Romania","RO",,"Cernatesti","1911973","45.2637709904053","26.7594257631603",,
"Romania","RO",,"Cernat","1911970","45.9653034406861","26.0226994743689",,
"Romania","RO",,"Cernavoda","1911984","44.3424149610694","28.0349381900033",,
"Romania","RO",,"Cerna","1911957","45.0799968631989","28.3001805998122",,
"Romania","RO",,"Cernesti","1911991","45.2631390501155","26.0276977558179",,
"Romania","RO",,"Cernica","1911998","44.4180068","26.282049",,
"Romania","RO",,"Cernisoara","1912003","45.0443618","23.9632346",,
"Romania","RO",,"Certeju de Sus","1912012","45.9738973","22.9704433",,
"Romania","RO",,"Certesti","1912015","46.0145520020333","27.6325004923903",,
"Romania","RO",,"Certeze","1912016","47.9015739017437","23.4664137964834",,
"Romania","RO",,"Ceru-Bacainti","1912017","45.9736942","23.271899",,
"Romania","RO",,"Cervenia","1912019","43.8335818","25.4605389",,
"Romania","RO",,"Cetariu","1912032","47.1420795854644","21.9970466790401",,
"Romania","RO",,"Cetatea de Balta","1912039","46.2502197416289","24.1748740657517",,
"Romania","RO",,"Cetateni","1912047","45.186334336514","25.2083279913466",,
"Romania","RO",,"Cetate","1912045","44.1081945171646","23.0500444249262",,
"Romania","RO",,"Ceuasul-de Campie","1912065",,,,
"Romania","RO",,"Cezieni","1912067","44.1809697297566","24.2691266473902",,
"Romania","RO",,"Cherechiu","1912118","47.381632","22.1247244",,
"Romania","RO",,"Chetani","1912149","46.4638168303733","24.0260840719857",,
"Romania","RO",,"Cheveresu Mare","1912163","45.6669491","21.4908299",,
"Romania","RO",,"Chiajna","1912165","44.4591974597914","25.9763139447249",,
"Romania","RO",,"Chichis","1912178","45.7736879129146","25.7999564638931",,
"Romania","RO",,"Chiesd","1912185","47.3835967736315","22.8848418659434",,
"Romania","RO",,"Chiheru de Jos","1912187","46.6874097","24.8815428",,
"Romania","RO",,"Chilia Veche","1912202","45.4163401538089","29.2918789124167",,
"Romania","RO",,"Chiliile","1912216","45.4467161213056","26.5978076163939",,
"Romania","RO",,"Chinteni","1912230","46.861747","23.5404553",,
"Romania","RO",,"Chiochis","1912239","46.9816300453685","24.1749744417795",,
"Romania","RO",,"Chiojdeanca","1912242","45.156627097018","26.2681484196128",,
"Romania","RO",,"Chiojdeni","1912243","45.5631307927539","26.8704055980453",,
"Romania","RO",,"Chiojdu","1912245","45.3531421456028","26.2113574029489",,
"Romania","RO",,"Chirnogeni","1912299","43.8998575909763","28.2404695191654",,
"Romania","RO",,"Chirnogi","1912300","44.2724833","26.9177192",,
"Romania","RO",,"Chirpar","1912309","45.8923083187753","24.5945288312721",,
"Romania","RO",,"Chiscani","1912317","45.1807352","27.9303113",,
"Romania","RO",,"Chiselet","1912323","44.1682825191752","26.8524636508056",,
"Romania","RO",,"Chisindia","1912326","46.2922682","22.0991123",,
"Romania","RO",,"Chisineu Cris","1912327","46.5242186","21.517705",,
"Romania","RO",,"Chislaz","1912331","47.2812543","22.2319488",,
"Romania","RO",,"Chitila","1912344","44.5054847","25.9880587",,
"Romania","RO",,"Chiuiesti","1912357","47.3008984264763","23.8783747370845",,
"Romania","RO",,"Chiuza","1912361","47.2347485","24.2407217",,
"Romania","RO",,"Ciacova","1912366","45.5099176582038","21.1301387936382",,
"Romania","RO",,"Cicanesti","1912391","45.2442679","24.604222",,
"Romania","RO",,"Cicarlau","1912392","47.691545","23.4037969",,
"Romania","RO",,"Ciceu-Giurgesti","1912397","47.2443844004651","24.018342205423",,
"Romania","RO",,"Cilibia","1912443","45.0601851","27.0652939",,
"Romania","RO",,"Cilieni","1912448","43.9023727588566","24.6126514418127",,
"Romania","RO",,"Cincu","1912510","45.9147222","24.8038241",,
"Romania","RO",,"Ciobanu","1912561","44.716811440149","27.9852092713506",,
"Romania","RO",,"Ciocanesti","1912585","44.8507521807799","24.9714074480608",,
"Romania","RO",,"Ciocanesti","1912588","44.8507521807799","24.9714074480608",,
"Romania","RO",,"Ciochina","1912609","44.5979187","27.0586914",,
"Romania","RO",,"Ciocile","1912613","44.8231354","27.2469821",,
"Romania","RO",,"Ciocârlia","1912598","44.1054734971819","28.2877351520116",,
"Romania","RO",,"Ciofrângeni","1912640","45.111554","24.5456141",,
"Romania","RO",,"Ciolpani","1912655","44.7253907","26.1052156",,
"Romania","RO",,"Ciomagesti","1912658","44.8368462","24.4490235",,
"Romania","RO",,"Ciorasti","1912692","44.9574979","24.1603761",,
"Romania","RO",,"Ciorogârla","1912707","44.4431596","25.8845622",,
"Romania","RO",,"Cioroiasiu","1912709",,,,
"Romania","RO",,"Ciortesti","1912723","46.917608","27.8472531",,
"Romania","RO",,"Ciprian Porumbescu","1912739","47.5708964880648","26.0613104040168",,
"Romania","RO",,"Ciresu","1912770","45.0566062367608","23.9118778301985",,
"Romania","RO",,"Ciresu","1912772","45.0566062367608","23.9118778301985",,
"Romania","RO",,"Cislau","1912850","45.2335014470135","26.3793956207589",,
"Romania","RO",,"Cisnadie","1912857","45.7136542040671","24.1489383827635",,
"Romania","RO",,"Ciucea","1912875","46.9658154","22.8233032",,
"Romania","RO",,"Ciuchici","1912879","44.9444214","21.6153552",,
"Romania","RO",,"Ciucsângeorgiu","1912889","46.3220179","25.9566158",,
"Romania","RO",,"Ciucurova","1912896","44.9140941649759","28.4810855874952",,
"Romania","RO",,"Ciudanovita","1912897","45.156643","21.7790764",,
"Romania","RO",,"Ciugud","1912900","46.0460646","23.612864",,
"Romania","RO",,"Ciuhoiu","1912906",,,,
"Romania","RO",,"Ciulnita","1912921","44.7823317615016","25.1617910677444",,
"Romania","RO",,"Ciumani","1912927","46.6782149","25.5182497",,
"Romania","RO",,"Ciumeghiu","1912933","46.7308244100129","21.582671120568",,
"Romania","RO",,"Ciupercenii Noi","1912974","43.9104264212524","22.9501512499712",,
"Romania","RO",,"Ciuperceni","1912967","44.3170146056174","25.3770590870429",,
"Romania","RO",,"Ciuperceni","1912971","44.3170146056174","25.3770590870429",,
"Romania","RO",,"Ciurea","1912985","46.8882987","27.1867993",,
"Romania","RO",,"Ciurila","1912998","46.6491245","23.5428265",,
"Romania","RO",,"Ciuruleasa","1913002","46.2698482513697","23.0474115269541",,
"Romania","RO",,"Cizer","1913015","47.0694589778848","22.8594123189608",,
"Romania","RO",,"Clejani","1913026","44.3173752","25.7061322",,
"Romania","RO",,"Cleja","1913025","46.4078339116841","26.9188885542332",,
"Romania","RO",,"Clinceni","1913033","44.3789644760887","25.9446070612506",,
"Romania","RO",,"Cluj-Napoca","1913066","46.769575","23.5898324",,
"Romania","RO",,"Coarnele Caprei","1913078","47.3911977","27.1072345",,
"Romania","RO",,"Cobadin","1913102","44.0622744763419","28.2368114661243",,
"Romania","RO",,"Cochirleanca","1913131","45.2094537","27.0398769",,
"Romania","RO",,"Cociuba Mare","1913142","46.7416952616034","21.9986025590684",,
"Romania","RO",,"Cocorastii-Misli","1913160",,,,
"Romania","RO",,"Cocora","1913152","44.7379979360283","27.0463219581938",,
"Romania","RO",,"Cocu","1913182","44.8530963","24.6577063",,
"Romania","RO",,"Codaesti","1913185","46.8712705","27.7691355",,
"Romania","RO",,"Codlea","1913190","45.695946859862","25.4457879596797",,
"Romania","RO",,"Cogealac","1913217","44.5604224660128","28.5593823497415",,
"Romania","RO",,"Cojasca","1913230","44.7229861687974","25.8464922352914",,
"Romania","RO",,"Cojocna","1913242","46.7507433","23.8317763",,
"Romania","RO",,"Colceag","1913255","44.9445006283676","26.3601114572989",,
"Romania","RO",,"Colibasi","1913276","45.0314834273676","25.6212940669598",,
"Romania","RO",,"Colonesti","1913290","46.582777824831","27.3001762436023",,
"Romania","RO",,"Colonesti","1913291","46.582777824831","27.3001762436023",,
"Romania","RO",,"Colti","1913360","45.3793289917995","26.3933019467779",,
"Romania","RO",,"Comana","1913377","44.1711305604401","26.1446730814948",,
"Romania","RO",,"Comana","1913378","44.1711305604401","26.1446730814948",,
"Romania","RO",,"Comandau","1913390","45.7576603261713","26.2758278864763",,
"Romania","RO",,"Comanesti","1913393","44.9368132540191","22.8660770330244",,
"Romania","RO",,"Comarna","1913405","47.0590267668233","27.7827792327048",,
"Romania","RO",,"Comarnic","1913406","45.2378368171474","25.6424056528808",,
"Romania","RO",,"Comisani","1913414","44.8729010662846","25.5879643648256",,
"Romania","RO",,"Comlosu Mare","1913421","45.8909322731537","20.6266925689923",,
"Romania","RO",,"Concesti","1913438","48.156607","26.5594043",,
"Romania","RO",,"Conop","1913454","46.1072743217247","21.8822554022894",,
"Romania","RO",,"Constanta","1913456","44.1719066","28.6320178",,
"Romania","RO",,"Constantin Daicoviciu","1913459","45.55","22.15",,
"Romania","RO",,"Contesti","1913472","43.7911483630821","25.494024992075",,
"Romania","RO",,"Copacele","1913490","45.5","22.1",,
"Romania","RO",,"Copacel","1913487","45.7438467737752","24.9979322183263",,
"Romania","RO",,"Copaceni","1913495","45.0010607412442","23.9810244037411",,
"Romania","RO",,"Copalau","1913512","47.6194274352622","26.8535378573887",,
"Romania","RO",,"Copalnic Manastur","1913514","47.5057662647281","23.6799932380936",,
"Romania","RO",,"Copsa Mica","1913526","46.1161128258833","24.2362861026594",,
"Romania","RO",,"Corabia","1913530","43.7775025699198","24.4967860156502",,
"Romania","RO",,"Corbasca","1913535","46.2881832","27.1622051",,
"Romania","RO",,"Corbeanca","1913538","44.4783612","25.5698138",,
"Romania","RO",,"Corbeni","1913542","45.3022686482545","24.6532400063569",,
"Romania","RO",,"Corbii Mari","1913551","44.5434806537585","25.49601184116",,
"Romania","RO",,"Corbita","1913553","46.151661","27.3054548",,
"Romania","RO",,"Corbi","1913547","45.2919232516551","24.8014924442316",,
"Romania","RO",,"Corbu","1913558","44.3993680083349","28.6610122311792",,
"Romania","RO",,"Corbu","1913562","44.3993680083349","28.6610122311792",,
"Romania","RO",,"Corbu","1913566","44.3993680083349","28.6610122311792",,
"Romania","RO",,"Corcova","1913595","44.6975725796946","23.0393778987335",,
"Romania","RO",,"Cordareni","1913596","47.9967281697777","26.5949786338523",,
"Romania","RO",,"Cordun","1913608","44.6865097","23.0445605",,
"Romania","RO",,"Corlatel","1913619","44.3977657014037","22.9342138313793",,
"Romania","RO",,"Corlateni","1913623","47.9332637136311","26.5557408754332",,
"Romania","RO",,"Cornatelu","1913640","44.7597071916503","25.6691331836332",,
"Romania","RO",,"Cornea","1913645","45.0410801","22.3251641",,
"Romania","RO",,"Cornereva","1913651","45.0633177410873","22.4184791339188",,
"Romania","RO",,"Cornesti","1913655","45.00676925343","23.1543970216098",,
"Romania","RO",,"Cornesti","1913661","45.00676925343","23.1543970216098",,
"Romania","RO",,"Cornetu","1913674","44.7395780272345","23.6209419859169",,
"Romania","RO",,"Corni","1913682","47.6466251817436","26.5765515861207",,
"Romania","RO",,"Corni","1913683","47.6466251817436","26.5765515861207",,
"Romania","RO",,"Cornu Luncii","1913711","47.4635175","26.1523976",,
"Romania","RO",,"Corod","1913729","47.7631009","23.0128883",,
"Romania","RO",,"Coroieni","1913740","47.3746538","23.7642987",,
"Romania","RO",,"Coroiesti","1913742","46.3563026","22.8172691",,
