country,country_code,region,city,id,osm_lat,osm_long,g_lat,g_long
Poland,PL,,Pleszew,1868542,51.8961121,17.7894584,51.8963285,17.7870549
Poland,PL,,Police,1869277,53.5486435,14.5657399,44.027851,-70.3595001
Poland,PL,,Polkowice,1869326,51.5047075,16.0718887,51.5024848,16.0620494
Poland,PL,,Poniatowa,1869442,51.19298,22.06505,51.192893,22.0650878
Poland,PL,,Poreba,1869616,49.98041,18.89047,50.48803,19.3389388
Poland,PL,,Poznan,1869871,52.4062306316991,16.9230018740802,52.406374,16.9251681
Poland,PL,,Prudnik,1870106,50.3212034,17.5805076,50.3206779,17.5742264
Poland,PL,,Pruszków,1870173,52.1643531,20.8017386,52.1704725,20.8118862
Poland,PL,,Przasnysz,1870188,53.018915,20.8792368,53.018984,20.880358
Poland,PL,,Przeworsk,1870376,50.0601735,22.4923769,50.0587,22.49377
Poland,PL,,Pszczyna,1870757,49.9717302,18.9467518,49.9857805,18.9477092
Poland,PL,,Pszów,1870760,50.0401131,18.3934614,50.0400034,18.3943993
Poland,PL,,Puck,1870800,54.7202658,18.4113053,54.7180477,18.4086339
Poland,PL,,Pyrzyce,1870923,53.1457,14.89267,53.1460852,14.8924044
Poland,PL,,Pyskowice,1870925,50.389989509588,18.6122397288715,50.3955793,18.6346378
Poland,PL,,Racibórz,1871029,50.0920807,18.2198419,50.0971137,18.209238
Poland,PL,,Radlin,1871122,50.86219,20.74944,50.0491414,18.4768769
Poland,PL,,Radomsko,1871158,51.0676691,19.4429971,51.0668544,19.4449387
Poland,PL,,Radom,1871157,51.4072078,21.1517282,51.4027236,21.1471333
Poland,PL,,Radzionków,1871320,50.4002717,18.9026247,50.3998141,18.9017625
Poland,PL,,Radzyn Podlaski,1871343,51.78092,22.62231,51.7832025,22.6218532
Poland,PL,,Rawa Mazowiecka,1871577,51.7624929,20.2519293,51.76623,20.25623
Poland,PL,,Rawicz,1871585,51.6106631,16.8663113,51.60945,16.85863
Poland,PL,,Reda,1871652,54.6170279118494,18.3373350437959,54.6053867,18.3471836
Poland,PL,,Rogozno,1872116,52.7522783,16.9935892,52.74965,17.00343
Poland,PL,,Ruda Slaska,1872717,50.2661534084538,18.8693677222047,50.2558286,18.8555704
Poland,PL,,Rumia,1872911,54.5669051272622,18.3830505559246,54.5707832,18.3878224
Poland,PL,,Rybnik,1873141,50.0963409,18.5443907,50.1021742,18.5462847
Poland,PL,,Ryki,1873243,51.62795,21.930331,51.6256317,21.9326302
Poland,PL,,Rypin,1873274,53.0661002,19.4089968,53.0657106,19.4094097
Poland,PL,,Rzeszów,1873471,50.0318274461826,21.998254402044,50.0409469,21.9992806
Poland,PL,,Sandomierz,1873856,50.6802453854745,21.7507209867693,50.6822405,21.7501781
Poland,PL,,Sanok,1873883,49.5587563,22.2052358,49.5550187,22.2060658
Poland,PL,,Sepolno Krajenskie,1874660,53.4548316,17.5342744,53.4513,17.53162
Poland,PL,,Siedlce,1874810,52.165046189362,22.2711933385952,52.1676031,22.2901645
Poland,PL,,Siemianowice Slaskie,1874962,50.3134789007809,19.0264667169085,50.3264314,19.0295714
Poland,PL,,Siemiatycze,1874974,52.42718,22.86474,52.42732,22.86373
Poland,PL,,Sieradz,1875079,51.5980077,18.739202,51.5956014,18.7302994
Poland,PL,,Sierpc,1875136,52.8540162689415,19.6661744735914,52.8568142,19.669432
Poland,PL,,Skarzysko-Kamienna,1875391,51.1186148,20.8763885,51.114294,20.8477827
Poland,PL,,Skawina,1875405,49.9749987,19.8264064,49.9751815,19.8288749
Poland,PL,,Skierniewice,1875434,51.9568581,20.1430044,51.9547169,20.1583303
Poland,PL,,Skoczów,1875449,49.7999039,18.7877583,49.8031512,18.790762
Poland,PL,,Skwierzyna,1875710,52.5964925,15.5018923,52.5991741,15.5060653
Poland,PL,,Sochaczew,1876132,52.2269697,20.2422249,52.2293372,20.238359
Poland,PL,,Solec Kujawski,1876279,53.0728948194097,18.2352796516497,53.0832531,18.2258318
Poland,PL,,Sopot,1876347,54.4393002810328,18.5444000399632,54.441581,18.5600956
Poland,PL,,Sosnowiec,1876402,50.2806917,19.1349298,50.2862638,19.1040791
Poland,PL,,Srem,1876555,52.0849612,17.0161982,52.0887,17.01506
Poland,PL,,Sroda Wielkopolska,1876568,52.22731,17.27071,52.22908,17.27607
Poland,PL,,Stalowa Wola,1876638,50.5685372,22.065133,50.5826005,22.053586
Poland,PL,,Starachowice,1876747,51.0516284,21.0766063,51.0368289,21.0709769
Poland,PL,,Stargard Szczecinski,1876966,53.33772,15.03801,53.3364746,15.0503771
Poland,PL,,Starogard Gdanski,1876982,53.9686434,18.5315061,53.965614,18.5162736
Poland,PL,,Stary Sacz,1877102,49.5636575,20.6355942,49.564452,20.6327686
Poland,PL,,Staszów,1877160,50.5612276,21.1677849,50.5629974,21.1659309
Poland,PL,,Strzegom,1877797,50.964752,16.341493,50.9604662,16.3510375
Poland,PL,,Strzelce Krajenskie,1877810,52.87762,15.52896,52.87728,15.52966
Poland,PL,,Strzelce Opolskie,1877816,50.5150273,18.3009698,50.51092,18.29987
Poland,PL,,Strzelin,1877842,50.7807868,17.0694063,50.7812167,17.0646124
Poland,PL,,Sucha Beskidzka,1878058,49.74079,19.5905975,49.74127,19.58636
Poland,PL,,Suchedniów,1878105,51.0457749,20.8352486,51.04762,20.82927
Poland,PL,,Sulechów,1878220,52.08159,15.62445,52.0831645,15.6253179
Poland,PL,,Sulecin,1878222,52.4413768,15.1161501,52.44387,15.11697
Poland,PL,,Sulejówek,1878234,52.2467668,21.2825065,52.2524241,21.2690107
Poland,PL,,Swarzedz,1878407,52.4040043,17.0754106,52.4125371,17.0855512
Poland,PL,,Swidnica,1878458,50.8424835,16.4870549,50.8498434,16.475679
Poland,PL,,Swidnik,1878464,51.2206511,22.69802,51.2168207,22.6914272
Poland,PL,,Swidwin,1878489,53.7747456,15.7764508,53.77564,15.7742
Poland,PL,,Swiebodzice,1878494,50.8598813,16.3204183,50.8575475,16.3213376
Poland,PL,,Swiecie,1878517,53.410423,18.4531473,53.4093843,18.4473864
Poland,PL,,Swinoujscie,1878705,53.909585,14.2511363,53.9100327,14.2475775
Poland,PL,,Syców,1878761,51.30998,17.72354,51.30787,17.72016
Poland,PL,,Szczecinek,1878949,53.70761,16.69497,53.7100713,16.6993602
Poland,PL,,Szczecin,1878965,53.4301652,14.5513137,53.4285438,14.5528116
Poland,PL,,Szczytno,1879127,53.56251,20.9926504,53.56354,20.99519
Poland,PL,,Szprotawa,1879351,51.5654113,15.5409284,51.56696,15.53798
Poland,PL,,Szubin,1879381,53.0117503,17.7439402,53.00942,17.73989
Poland,PL,,Tarnobrzeg,1879753,50.5718757,21.6785203,50.5729079,21.6790698
Poland,PL,,Tarnowskie Góry,1879795,50.4445194,18.8554757,50.4359468,18.8460247
Poland,PL,,Tarnów,1879802,50.0141972,20.9892812,50.0121011,20.9858407
Poland,PL,,Tczew,1879858,54.0937844,18.7932433,54.0919269,18.7773072
Poland,PL,,Tomaszów Lubelski,1880123,50.45334,23.41916,50.447024,23.4163099
Poland,PL,,Tomaszów Mazowiecki,1880124,51.53169,20.00823,51.5311945,20.0086471
Poland,PL,,Torun,1880236,53.0144377,18.6050215,53.0137902,18.5984437
Poland,PL,,Trzcianka,1880469,54.3166667,23.0166667,53.0418691,16.4616755
Poland,PL,,Trzebiatów,1880528,54.06316,15.26623,54.0611912,15.2647391
Poland,PL,,Trzebinia,1880560,50.1593043,19.4687463,50.15847,19.4694
Poland,PL,,Trzebnica,1880570,51.3094786,17.0619434,51.3104211,17.0632716
Poland,PL,,Tuchola,1880706,53.5879803,17.8595315,53.58762,17.85955
Poland,PL,,Turek,1880779,52.01595,18.50191,52.0145541,18.5009145
Poland,PL,,Tychy,1880974,50.1179845,18.9971783,50.1218007,19.0200022
Poland,PL,,Ustka,1881357,54.5811254,16.8612962,54.5805607,16.861891
Poland,PL,,Ustron,1881370,49.7181286,18.8029975,49.719657,18.8120576
Poland,PL,,Ustrzyki Dolne,1881373,49.4302117,22.5876673,49.4303242,22.5942366
Poland,PL,,Wabrzezno,1881519,53.28034,18.94807,53.2799634,18.9478368
Poland,PL,,Wadowice,1881547,49.8834278,19.4925191,49.8827856,19.4939579
Poland,PL,,Wagrowiec,1881572,52.8071754,17.1973241,52.80848,17.19966
Poland,PL,,Warka,1881833,51.78404,21.18552,51.7840019,21.1909879
Poland,PL,,Warsaw,1881861,52.2319238,21.0067265,52.2296756,21.0122287
Poland,PL,,Wegorzewo,1882083,54.21158,21.74174,54.21359,21.7416301
Poland,PL,,Wegrow,1882091,52.39891,22.01793,52.3991566,22.0164265
Poland,PL,,Wejherowo,1882141,54.6018059,18.2394766,54.6003216,18.2330487
Poland,PL,,Wieliczka,1882488,49.9824012,20.0601634,49.9870619,20.0647971
Poland,PL,,Wielun,1882626,51.2194283,18.5742549,51.2186,18.56892
Poland,PL,,Wojkowice,1883618,50.9796607,17.0689343,50.3647682,19.0367909
Poland,PL,,Wolbrom,1884125,50.3848386,19.7598844,50.37939,19.7584
Poland,PL,,Wolsztyn,1884474,52.1104513,16.1181109,52.1150435,16.1169851
Poland,PL,,Wroclaw,2673802,51.1122376,17.0344333,51.1078852,17.0385376
Poland,PL,,Wronki,1884642,52.7101225,16.3742272,52.7103395,16.3803948
Poland,PL,,Wrzesnia,1884690,52.3246178,17.5650594,52.32382,17.56654
Poland,PL,,Wschowa,1884717,51.8038854,16.3171939,51.8071084,16.3164767
Poland,PL,,Wysokie Mazowieckie,1885086,52.9150595,22.5127252,52.9148,22.51003
Poland,PL,,Wyszków,1885143,52.5925473,21.4581053,52.5928523,21.458395
Poland,PL,,Zabki,1885393,52.29353,21.11569,52.2870682,21.1079604
Poland,PL,,Zabkowice Slaskie,1885394,50.58928,16.81169,50.5893617,16.8132419
Poland,PL,,Zabrze,1885499,50.308417,18.7866909,50.3249278,18.7857186
Poland,PL,,Zagan,1885608,51.619,15.30765,51.6178445,15.3248325
Poland,PL,,Zakopane,1885795,49.2947723,19.9503207,49.299181,19.9495621
Poland,PL,,Zambrów,1886021,52.98552,22.24117,52.9849941,22.2413857
Poland,PL,,Zamosc,1886075,50.7183958,23.2558211,50.7230879,23.2519686
Poland,PL,,Zary,1886325,51.638303,15.1402286,51.6420121,15.1369992
Poland,PL,,Zawadzkie,1886541,50.6062717,18.491615,50.60435,18.48514
Poland,PL,,Zawiercie,1886563,50.4844121,19.4332434,50.487743,19.4166259
Poland,PL,,Zdunska Wola,1886795,51.60277,18.93344,51.5990328,18.9393251
Poland,PL,,Zdzieszowice,1886848,50.42212,18.11483,50.42422,18.12477
Poland,PL,,Zgierz,1887124,51.8559434,19.4056443,51.8550576,19.4060704
Poland,PL,,Zgorzelec,1887157,51.1516536,15.0080064,51.1496361,15.0065645
Poland,PL,,Ziebice,1887171,50.600292,17.0403344,50.5983,17.03888
Poland,PL,,Zielona Góra,1887233,51.9382922,15.5045677,51.9356214,15.5061862
Poland,PL,,Zielonka,1887269,53.4666667,19.9666667,52.3034398,21.1607239
Poland,PL,,Znin,1887399,52.848462,17.7218791,52.8493847,17.719477
Poland,PL,,Zory,1887509,50.0455347,18.6944152,50.0447236,18.7006401
Poland,PL,,Zychlin,1887749,52.2440088,19.6260932,52.24396,19.62596
Poland,PL,,Zyrardow,1887807,52.0541266,20.4435825,52.048652,20.445988
Poland,PL,,_ód_,2674141,52.2091446415147,19.3208964469204,51.7720115,19.4739492
Puerto Rico,PR,,Aguadilla,2514582,18.4802920121097,-67.1447246413174,18.4274454,-67.1540698
Puerto Rico,PR,,Aibonito,2514587,18.4427027332609,-66.072105822681,18.1399594,-66.2660016
Puerto Rico,PR,,Arecibo,2514606,18.4336699419365,-66.674944778606,18.472445,-66.7157306
Puerto Rico,PR,,Caguas,2514671,18.2424647334066,-66.0151729504442,18.2341217,-66.0484989
Puerto Rico,PR,,Carolina,2514717,18.3969303273275,-65.9684978262445,18.3807819,-65.9573872
Puerto Rico,PR,,Catano,2514725,18.4394192728806,-66.1850016041148,18.445414,-66.139425
Puerto Rico,PR,,Cayey,2514726,18.1225967669774,-66.1782949453827,18.1119051,-66.166
Puerto Rico,PR,,Culebra,2514794,18.3129096181351,-65.3038870656952,18.3030119,-65.3009914
Puerto Rico,PR,,Fajardo,2514868,18.362207792524,-65.6065623486611,18.3257869,-65.6523838
Puerto Rico,PR,,Guanica,2514900,17.9463517943554,-66.9219446461853,17.9727778,-66.9202778
Puerto Rico,PR,,Guayama,2514905,17.9733894956119,-66.1363427226217,17.9841328,-66.1137767
Puerto Rico,PR,,Guaynabo,2514908,18.3490457844988,-66.1083081683599,18.3574502,-66.1109998
Puerto Rico,PR,,Hormigueros,2515102,18.1346902351215,-67.1145454256389,18.1396799,-67.1274019
Puerto Rico,PR,,Humacao,2515106,18.1333582656725,-65.7876712243706,18.1496828,-65.8273847
Puerto Rico,PR,,Las Piedras,2515227,18.3652265,-66.9704558,18.183014,-65.8662742
Puerto Rico,PR,,Levittown,2515237,18.4595953912111,-66.1882383693258,18.4499457,-66.1815558
Puerto Rico,PR,,Luquillo,2515267,18.368663926803,-65.7121531490841,18.3724507,-65.7165511
Puerto Rico,PR,,Manati,2515285,18.4495889183608,-66.4877286990214,18.430958,-66.484242
Puerto Rico,PR,,Maricao,2515297,18.1720847754275,-66.9422647519004,18.1807902,-66.9799001
Puerto Rico,PR,,Mayaguez,2515307,18.3822081054316,-67.4802639129429,18.2013463,-67.1451517
Puerto Rico,PR,,Naguabo,2515339,18.2110304918127,-65.7360946741689,18.2116247,-65.7348841
Puerto Rico,PR,,Ponce,2515430,18.0027157125375,-66.6072498613634,18.0110768,-66.6140616
Puerto Rico,PR,,Sabana Grande,2675086,18.0877012145931,-66.9754117762641,18.0777392,-66.9604549
Puerto Rico,PR,,San Juan,2515532,18.4464186,-66.0755069,18.4663338,-66.1057217
Puerto Rico,PR,,Yauco,2515660,18.0799163834063,-66.8587051061739,18.034964,-66.8498983
Portugal,PT,,A dos Cunhados,1888000,39.1519962,-9.2979195,39.15,-9.3166667
Portugal,PT,,Abrantes,1887904,39.46439,-8.1976,39.4644087,-8.1978187
Portugal,PT,,Abraveses,1887906,,,40.6763372,-7.9212963
Portugal,PT,,Adaúfe,1887955,,,41.5846912,-8.4055189
Portugal,PT,,Aguada de Cima,1888068,,,40.5220096,-8.4282885
Portugal,PT,,Aguçadoura,1888118,,,41.4305446,-8.7769774
Portugal,PT,,Albufeira,1888196,37.08902,-8.25198,37.0889909,-8.2522825
Portugal,PT,,Alcabideche,1888198,38.7338374,-9.4090463,38.7374185,-9.3995928
Portugal,PT,,Alcains,1888210,39.9151369,-7.4614654,39.915402,-7.4610772
Portugal,PT,,Alcanede,1888213,39.4161695,-8.8246766,39.4138415,-8.8232197
Portugal,PT,,Alcanena,1888214,39.4585519,-8.6697497,39.4597829,-8.6671488
Portugal,PT,,Alcobaça,1888244,39.5500331,-8.9833496,39.5499672,-8.9829267
Portugal,PT,,Alcochete,1888247,38.75612,-8.96104,38.7560327,-8.9610319
Portugal,PT,,Alcoentre,1888248,,,39.2088308,-8.9595838
Portugal,PT,,Alcácer do Sal,1888201,38.37113,-8.51945,38.3711256,-8.5194512
Portugal,PT,,Aldeia de Paio Pires,1888318,,,38.6268514,-9.076445
Portugal,PT,,Alenquer,1888417,39.056633,-9.0076057,39.0561271,-9.0062025
Portugal,PT,,Alfena,1888440,41.2343267,-8.5210196,41.2379421,-8.5252438
Portugal,PT,,Alferrarede,1888443,39.4736219,-8.1868765,39.478918,-8.1885323
Portugal,PT,,Algés,1888467,38.7016557,-9.229244,38.6994956,-9.2292727
Portugal,PT,,Alhadas,1888477,,,40.1857316,-8.7889424
Portugal,PT,,Alhandra,1888481,40.5639112,-8.4195821,38.9270008,-9.0089446
Portugal,PT,,Alhos Vedros,1888485,,,38.6558549,-9.0222186
Portugal,PT,,Aljezur,1888490,37.3146971,-8.8045321,37.3146982,-8.8045361
Portugal,PT,,Aljubarrota,1888491,38.7574352619102,-9.24634991006481,39.5638282,-8.9354197
Portugal,PT,,Aljustrel,1888493,37.8825232,-8.1574792,37.8767818,-8.1663171
Portugal,PT,,Almada,1888500,38.6802692,-9.1558311,38.6802856,-9.1584882
Portugal,PT,,Almancil,1888508,37.1205865,-8.0411216,37.0875295,-8.0307816
Portugal,PT,,Almargem do Bispo,1888515,,,38.8474143,-9.2713219
Portugal,PT,,Almeirim,1888529,39.2127275,-8.6274181,39.2096371,-8.6286796
Portugal,PT,,Alpiarça,1888572,39.25991,-8.58447,39.259906,-8.584473
Portugal,PT,,Alvor,1888679,37.1277964,-8.5939441,37.1287074,-8.5939421
Portugal,PT,,Amadora,1888685,38.7595158,-9.2357888,38.7622841,-9.2399106
Portugal,PT,,Amarante,1888687,41.2696685,-8.0781428,41.2697487,-8.0783357
Portugal,PT,,Amora,1888762,38.6206092,-9.1288462,38.6293712,-9.1283679
Portugal,PT,,Amor,1888764,39.8032927,-8.8602192,39.8031038,-8.8663909
Portugal,PT,,Angra,1888819,38.6593519,-27.2195486,41.0576997,-8.283154
Portugal,PT,,Antas,1888840,40.9431397,-7.3879955,41.4047735,-8.5043347
Portugal,PT,,Anta,1888836,41.2724,-7.6364197,41.0041499,-8.6217742
Portugal,PT,,Apelação,1888859,,,38.8160426,-9.1304473
Portugal,PT,,Apúlia,1888865,41.4856188386093,-8.76199067451616,41.4844149,-8.7695965
Portugal,PT,,Aradas,1888868,40.982583951221,-8.51096619453878,40.6181841,-8.6420709
Portugal,PT,,Arazede,1888882,40.2817583,-8.6520337,40.2821928,-8.6540847
Portugal,PT,,Arcos,1888896,41.0493657,-7.5719414,38.5592301,-28.4097382
Portugal,PT,,Arcozelo,1888913,40.3840741,-7.7882029,41.0629861,-8.6366879
Portugal,PT,,Areosa,1888960,40.5097421,-8.4328275,41.7127024,-8.8502062
Portugal,PT,,Arganil,1888971,39.6748002,-7.9761704,40.219465,-8.0538457
Portugal,PT,,Argoncilhe,1888981,,,41.023584,-8.5414582
Portugal,PT,,Armação de Pêra,1889003,37.1034062,-8.3623645,37.1032917,-8.3618422
Portugal,PT,,Arrentela,1889084,,,38.6200911,-9.1043892
Portugal,PT,,Arrifana,1889089,40.2307662,-8.27727,40.5697592,-7.2102615
Portugal,PT,,Arrifes,1889099,37.7620638,-25.6933089,37.760365,-25.7013016
Portugal,PT,,Arruda dos Vinhos,1889127,38.98303,-9.07763,38.983124,-9.0777754
Portugal,PT,,Arões,1889053,40.800117,-8.301078,40.7969516,-8.2943492
Portugal,PT,,Atouguia da Baleia,1889205,,,39.3386527,-9.3259673
Portugal,PT,,Avanca,1889208,,,40.8088334,-8.5738511
Portugal,PT,,Aveiras de Cima,1889215,39.1425181,-8.886316,39.1376947,-8.8999548
Portugal,PT,,Aveiro,1889216,40.6410423,-8.6537996,40.6411848,-8.6536169
Portugal,PT,,Aves,1889248,38.7434589053134,-9.17155270257343,41.3712405,-8.4005237
Portugal,PT,,Avintes,1889260,41.1202815,-8.549369,41.1065807,-8.5515182
Portugal,PT,,Azambuja,1889266,39.06862,-8.86912,39.0686227,-8.8691172
Portugal,PT,,Baguim do Monte,1889363,,,41.181877,-8.529916
Portugal,PT,,Baltar,1889451,41.1929021,-8.3864375,41.194395,-8.3827888
Portugal,PT,,Barcarena,1889506,38.7315692,-9.2780907,38.7290793,-9.2859808
Portugal,PT,,Barcelos,1889509,41.5314496,-8.6192306,41.531539,-8.6189584
Portugal,PT,,Barreiro,1889580,38.6642092,-9.0768002,38.6642405,-9.0766589
Portugal,PT,,Barrosas,1889646,,,41.3304757,-8.2690179
Portugal,PT,,Batalha,1889658,39.6580646,-8.8246474,39.657844,-8.8242629
Portugal,PT,,Beduido,1889680,,,40.7791667,-8.5552778
Portugal,PT,,Beja,1889697,38.015388,-7.8650978,38.0156245,-7.8652348
Portugal,PT,,Belas,1889701,38.7759197,-9.2639449,38.7733588,-9.2715376
Portugal,PT,,Benavente,1889751,38.97831,-8.81882,38.9783135,-8.8188163
Portugal,PT,,Benedita,1889756,37.08767575,-8.73450515,39.4272548,-8.9783878
Portugal,PT,,Bobadela,1889888,38.8081283,-9.0992649,38.8078088,-9.1011814
Portugal,PT,,Boliqueime,1889953,37.1337939,-8.1579243,37.1332045,-8.1590779
Portugal,PT,,Bombarral,1889955,39.2667959,-9.1583288,39.2668993,-9.157871
Portugal,PT,,Borba,1889974,38.8033836,-7.4566966,38.8032957,-7.456812
Portugal,PT,,Bougado,1890040,41.3411089,-8.5434078,41.336859,-8.573688
Portugal,PT,,Bragança,1890062,41.8069977,-6.7594927,41.8071762,-6.7591908
Portugal,PT,,Braga,1890058,41.5514024,-8.4230533,41.5517605,-8.4229034
Portugal,PT,,Branca,1890063,40.4193694,-7.7343871,40.7435713,-8.4905843
Portugal,PT,,Brito,1890123,40.0690777,-8.8062877,41.4548787,-8.366525
Portugal,PT,,Buarcos,1890155,40.165469,-8.8786228,40.1657564,-8.8777639
Portugal,PT,,Bucelas,1890158,38.9016248,-9.118728,38.9017568,-9.1176971
Portugal,PT,,Cacilhas,1890363,38.6876141,-9.1479271,38.6863544,-9.1486559
Portugal,PT,,Caldas da Rainha,1890424,39.4069113,-9.1362549,39.4070697,-9.1345843
Portugal,PT,,Caldas de Vizela,1890432,,,41.37561,-8.306474
Portugal,PT,,Caldelas,1890444,39.7304581,-8.7031837,41.4863356,-8.3455948
Portugal,PT,,Calendário,1890447,41.400966839414,-8.52574585982942,41.3921629,-8.5290721
Portugal,PT,,Camacha,1890486,32.679439,-16.8448679,32.6791667,-16.8447222
Portugal,PT,,Camarate,1890492,,,38.804363,-9.1407717
Portugal,PT,,Campanário,1890526,32.6684714,-17.0325289,32.664093,-17.036638
Portugal,PT,,Campo Maior,1890568,39.0113104,-7.0686645,39.0100385,-7.0681948
Portugal,PT,,Campo,1890554,39.6166644,-7.4412002,40.6950815,-7.9385322
Portugal,PT,,Campo,1890556,39.6166644,-7.4412002,40.6950815,-7.9385322
Portugal,PT,,Candoso,1890638,,,41.282173,-7.2217233
Portugal,PT,,Canedo,1890642,41.0399853,-8.4503004,41.0118083,-8.4630566
Portugal,PT,,Canelas,1890652,37.119167,-8.350833,41.0797342,-8.6014852
Portugal,PT,,Caneças,1890640,,,38.8126662,-9.2264457
Portugal,PT,,Canidelo,1890677,,,41.1243379,-8.6423465
Portugal,PT,,Caniço,1890673,32.65238,-16.8409696,32.6469802,-16.8399623
Portugal,PT,,Cantanhede,1890688,40.3463073,-8.5941907,40.3463025,-8.5941691
Portugal,PT,,Caparica,1890702,38.7845616,-27.2529429,38.6684284,-9.1901099
Portugal,PT,,Caranguejeira,1890727,39.7438071,-8.7084194,39.7440941,-8.7076387
Portugal,PT,,Carcavelos,1890755,38.6883935,-9.3306822,38.6875448,-9.334225
Portugal,PT,,Carnaxide,1890791,38.7306760436811,-9.23418762499866,38.7270157,-9.241986
Portugal,PT,,Carregado,1890862,39.0230782,-8.9768885,39.0217913,-8.9768003
Portugal,PT,,Cartaxo,1890918,39.16194,-8.7862,39.1618139,-8.7863793
Portugal,PT,,Carvalhosa,1890994,,,41.2959425,-8.3669448
Portugal,PT,,Cascais,1891452,38.6966708,-9.4206096,38.6972772,-9.4217563
Portugal,PT,,Castanheira de Pêra,1891506,40.0047265,-8.2091368,40.0059172,-8.2083098
Portugal,PT,,Castanheira do Ribatejo,1891507,38.9930986,-8.9715412,38.9933682,-8.9734576
Portugal,PT,,Castelo Branco,1891541,39.8204214,-7.4992062,39.8238927,-7.4918851
Portugal,PT,,Castelões de Cepeda,1891567,,,41.2009197,-8.330565
Portugal,PT,,Castro Daire,1891582,40.89663,-7.93545,40.8966296,-7.9354527
Portugal,PT,,Castro Marim,1891585,37.2179367,-7.4457102,37.2175202,-7.4454817
Portugal,PT,,Castro Verde,1891588,37.6977,-8.08244,37.6976259,-8.0818608
Portugal,PT,,Cercal,1891717,37.8004722,-8.6732964,37.8023322,-8.6730862
Portugal,PT,,Charneca de Caparica,1891888,,,38.6164428,-9.1849562
Portugal,PT,,Chaves,1891908,41.74183,-7.47207,41.7413961,-7.4719681
Portugal,PT,,Coimbra,1892064,40.2114939,-8.4292178,40.211491,-8.4292014
Portugal,PT,,Colares,1892079,40.8507446715955,-8.6604454729804,38.8004206,-9.463664
Portugal,PT,,Coronado,1892197,41.2803445,-8.5450953,41.2828515,-8.5638435
Portugal,PT,,Corroios,1892218,38.6410735,-9.1513751,38.6429495,-9.1553489
Portugal,PT,,Cortegaça,1892242,40.9420856,-8.6571601,40.9416671,-8.6591178
Portugal,PT,,Coruche,1892307,40.7928065,-7.5400169,38.9580968,-8.5283737
Portugal,PT,,Cova da Piedade,1892412,38.6676986,-9.1648071,38.6735821,-9.1558263
Portugal,PT,,Covilhã,1892473,40.28267,-7.50339,40.2826491,-7.5032603
Portugal,PT,,Custoias,1892634,41.2002682,-8.6555973,41.2037465,-8.6395001
Portugal,PT,,Câmara de Lobos,1890488,32.648624,-16.9759378,32.6485722,-16.9759942
Portugal,PT,,Darque,1892656,41.6819565,-8.8028883,41.6828557,-8.7887526
Portugal,PT,,Eixo,1892819,38.7485122777057,-9.16690642050965,40.6287096,-8.5656309
Portugal,PT,,Elvas,1892821,38.8811,-7.16383,38.8810976,-7.1638337
Portugal,PT,,Entroncamento,1892858,39.46475,-8.469,39.4647466,-8.4690042
Portugal,PT,,Ericeira,1892876,38.9722722,-9.4195032,38.9629498,-9.4154642
Portugal,PT,,Esmoriz,1892970,40.9602526,-8.6228198,40.957406,-8.6273622
Portugal,PT,,Espinho,1893023,41.0085019,-8.6394057,41.0067207,-8.6443274
Portugal,PT,,Estoril,1893096,38.7042214,-9.3983819,38.7061788,-9.3978191
Portugal,PT,,Estremoz,1893121,38.8455644,-7.5911905,38.8455094,-7.5916812
Portugal,PT,,Estômbar,1893093,37.1458603,-8.4845958,37.1461505,-8.4867103
Portugal,PT,,Fafe,1893141,41.44867,-8.17214,41.4486745,-8.1721399
Portugal,PT,,Fajã de Baixo,1893164,37.7557518,-25.6476813,37.7614495,-25.6539512
Portugal,PT,,Famões,1893205,38.7912413,-9.2108576,38.7903189,-9.2113117
Portugal,PT,,Faro,1893228,37.0162731,-7.9352448,37.0153597,-7.935113
Portugal,PT,,Fazendas de Almeirim,1893259,39.1875629,-8.5924925,39.1825175,-8.5917571
Portugal,PT,,Feira,1893268,40.6809081,-8.2748351,40.93,-8.552
Portugal,PT,,Ferreira do Alentejo,1893357,38.0585086,-8.1138197,38.0582886,-8.1164335
Portugal,PT,,Ferreiras,1893365,37.1274139,-8.243115,37.1281907,-8.2433258
Portugal,PT,,Ferreira,1893363,38.5696332,-7.3564276,41.2786156,-8.3786052
Portugal,PT,,Ferreiros,1893374,40.9375558,-8.3085713,41.5360317,-8.4402145
Portugal,PT,,Figueira da Foz,1893428,40.1678607,-8.8574457,40.1507844,-8.8512131
Portugal,PT,,Figueiró,1893472,40.1515126,-8.5809951,41.3089182,-8.3382579
Portugal,PT,,Fiães,1893412,40.9945448,-8.5247308,40.9916947,-8.5325587
Portugal,PT,,Foz do Sousa,1893789,,,41.0962396,-8.5021894
Portugal,PT,,Frazão,1893846,41.263701,-8.4041612,41.2619391,-8.4086909
Portugal,PT,,Freamunde,1893849,,,41.2886007,-8.339151
Portugal,PT,,Funchal,1893955,32.6475146,-16.9099496,32.6472539,-16.9050922
Portugal,PT,,Fundão,1893962,40.13683,-7.49951,40.1369358,-7.4994551
Portugal,PT,,Fátima,1893246,39.6342057,-8.6711041,39.6223896,-8.6640324
Portugal,PT,,Fânzeres,1893215,41.1709902,-8.5429006,41.1714897,-8.5283528
Portugal,PT,,Gafanha da Encarnação,1894001,40.6280651519742,-8.73526449743775,40.6201537,-8.7326297
Portugal,PT,,Gafanha da Nazaré,1894002,,,40.6371769,-8.7202318
Portugal,PT,,Galegos,1894038,39.3696062,-7.3259068,41.566827,-8.548543
Portugal,PT,,Gandra,1894089,40.849097,-8.394723,41.1995376,-8.4301434
Portugal,PT,,Gemunde,1894147,,,41.2699794,-8.6470412
Portugal,PT,,Godim,1894212,41.1663232,-7.7988392,41.1686718,-7.8035879
Portugal,PT,,Golegã,1894228,39.4015162,-8.4871843,39.4026951,-8.489076
Portugal,PT,,Gondomar,1894272,41.1368598,-8.5322142,41.1431715,-8.5378795
Portugal,PT,,Grijó,1894383,40.9623473,-8.1043065,41.0266805,-8.5813112
Portugal,PT,,Grândola,1894344,38.17604,-8.56819,38.1760368,-8.5681864
Portugal,PT,,Guarda,1894401,40.5381736,-7.2687455,40.5371319,-7.2678502
Portugal,PT,,Guia,1894427,39.9468816,-8.7849203,37.1265524,-8.3011979
Portugal,PT,,Guifões,1894432,41.2002131,-8.6657693,41.2010557,-8.6649938
Portugal,PT,,Guimarães,1894444,41.44459,-8.29372,41.4419546,-8.2956069
Portugal,PT,,Gulpilhares,1894465,41.0695340150413,-8.62529139149987,41.0784795,-8.652206
Portugal,PT,,Horta,1894478,38.542629,-28.62726,38.5911111,-28.6963889
Portugal,PT,,Joane,1894571,,,41.4373025,-8.4117319
Portugal,PT,,Jovim,1894595,,,41.1182921,-8.5237745
Portugal,PT,,Lagoa,1894722,37.1362908,-8.4540842,37.1347289,-8.452625
Portugal,PT,,Lagoa,1894726,37.1362908,-8.4540842,37.1347289,-8.452625
Portugal,PT,,Lagos,1894739,37.1010903,-8.6724909,37.101906,-8.6732385
Portugal,PT,,Lamego,1894804,41.0985717,-7.811517,41.0987271,-7.810938
Portugal,PT,,Laranjeiro,1894896,38.6557959,-9.1543508,38.6566979,-9.1497494
Portugal,PT,,Lavos,1894927,40.0911063,-8.8725112,40.0908863,-8.8378809
Portugal,PT,,Lavra,1894932,38.7180294672307,-9.14092790366893,41.2603482,-8.7166871
Portugal,PT,,Leiria,1894955,39.744342,-8.807257,39.7443404,-8.8072495
Portugal,PT,,Leça da Palmeira,1894940,,,41.1967838,-8.6964682
Portugal,PT,,Leça do Bailio,1894942,,,41.2101373,-8.6247405
Portugal,PT,,Linda-a-Velha,1894994,38.7119117,-9.2289737,38.7130666,-9.2355178
Portugal,PT,,Lisbon,1895008,38.7128335,-9.1328948,38.706932,-9.1356321
Portugal,PT,,Lobão,1895022,40.8410643430071,-8.47633022741356,40.9842033,-8.4894589
Portugal,PT,,Lordelo,1895109,40.848398,-8.413249,41.2429296,-8.4206551
Portugal,PT,,Lordelo,1895110,40.848398,-8.413249,41.2429296,-8.4206551
Portugal,PT,,Lorvão,1895119,,,40.2632171,-8.3172593
Portugal,PT,,Loulé,1895125,37.1373896,-8.023576,37.1375348,-8.0234077
Portugal,PT,,Loures,1895155,38.8308469,-9.168411,38.8302277,-9.167097
Portugal,PT,,Lourinhã,1895170,39.2424817,-9.3121141,39.2424772,-9.3122891
Portugal,PT,,Louriçal,1895158,40.0049816,-8.740127,40.0042429,-8.7393244
Portugal,PT,,Lourosa,1895178,40.863399,-8.369982,40.9875028,-8.5472305
Portugal,PT,,Lousã,1895188,40.1110971,-8.2457545,40.1108833,-8.2475206
Portugal,PT,,Lustosa,1895234,,,41.3386271,-8.3219004
Portugal,PT,,Luz,1895244,39.0237325,-27.9908201,39.0216667,-27.9897222
Portugal,PT,,Macedo de Cavaleiros,1895263,41.5362124,-6.9560267,41.5362591,-6.9562166
Portugal,PT,,Maceira,1895267,41.5959178,-8.4287713,39.6906308,-8.9014138
Portugal,PT,,Machico,1895281,32.717651,-16.7677589,32.7158351,-16.7666274
Portugal,PT,,Macieira de Cambra,1895289,40.856826,-8.376887,40.8578747,-8.3720327
Portugal,PT,,Madalena,1895316,38.534252,-28.527727,38.536739,-28.52179
Portugal,PT,,Mafra,1895332,38.93588045,-9.33435015,38.9369167,-9.3263901
Portugal,PT,,Maia,1895351,41.2328564,-8.6215636,41.232863,-8.6215648
Portugal,PT,,Malveira,1895417,38.9297388,-9.2504403,38.9291481,-9.2600098
Portugal,PT,,Mangualde,1895441,40.6069449,-7.7592564,40.6057146,-7.7659509
Portugal,PT,,Margaride,1895486,41.4427115776661,-8.29980779595203,41.3634866,-8.2048946
Portugal,PT,,Marinha Grande,1895502,39.7505619,-8.931238,39.7505839,-8.9315584
Portugal,PT,,Marinhais,1895503,,,39.0496198,-8.704767
Portugal,PT,,Marinhas,1895508,41.5594125,-8.7830678,41.5571513,-8.7809904
Portugal,PT,,Matosinhos,1895644,41.1834652,-8.6807995,41.183,-8.6797736
Portugal,PT,,Meadela,1895676,,,41.7134642,-8.7984041
Portugal,PT,,Mealhada,1895677,40.3791441,-8.4516085,40.3781056,-8.4514455
Portugal,PT,,Meinedo,1895720,41.2487336,-8.2586949,41.248229,-8.2573676
Portugal,PT,,Milharado,1895838,,,38.9494878,-9.195967
Portugal,PT,,Milheirós de Poiares,1895842,,,40.9195334,-8.4771651
Portugal,PT,,Milheirós,1895843,40.9117927802469,-8.48269276736312,41.2175547,-8.587889
Portugal,PT,,Miranda do Corvo,1895880,40.0941517,-8.3336555,40.0941163,-8.333549
Portugal,PT,,Mirandela,1895885,41.4901991,-7.1772158,41.4901152,-7.1775919
Portugal,PT,,Mira,1895877,39.3848614,-7.3005802,40.4279011,-8.7353059
Portugal,PT,,Mogadouro,1895921,41.3423673,-6.7126645,41.3390636,-6.7199688
Portugal,PT,,Moita,1895986,38.6548821,-8.9889616,38.6547918,-8.9939741
Portugal,PT,,Moncarapacho,1896021,37.0842089,-7.7882465,37.0846147,-7.787655
Portugal,PT,,Monchique,1896024,37.3180440266828,-8.55502893507122,37.3180243,-8.5560169
Portugal,PT,,Monte Gordo,1896385,38.9617871,-8.9933927,37.1822909,-7.4492107
Portugal,PT,,Monte Redondo,1896449,,,39.9043953,-8.831484
Portugal,PT,,Montemor-o-Novo,1896414,38.6483392,-8.2093285,38.6449591,-8.2154246
Portugal,PT,,Montijo,1896504,38.7058306,-8.9744534,38.7058499,-8.9746182
Portugal,PT,,Moreira de Conegos,1896534,41.3823018,-8.3355971,41.3812207,-8.3370175
Portugal,PT,,Moreira,1896541,40.7368031,-7.5010122,41.2486461,-8.6496296
Portugal,PT,,Moscavide,1896571,38.7776556,-9.102411,38.7795744,-9.1027279
Portugal,PT,,Moura,1896633,38.1409785,-7.4500699,38.144141,-7.4494328
Portugal,PT,,Mozelos,1896682,,,40.9991803,-8.5562132
Portugal,PT,,Nazaré,1896778,39.6068967,-9.0702827,39.5967972,-9.072055
Portugal,PT,,Negrelos,1896787,40.3747897,-7.9055335,40.7472395,-8.0611138
Portugal,PT,,Nelas,1896795,40.5304903,-7.8552801,40.5300111,-7.8552646
Portugal,PT,,Nogueira da Regedoura,1896824,,,41.0039089,-8.6008204
Portugal,PT,,Nogueira,1896833,41.772505,-6.8153638,41.528173,-8.4129082
Portugal,PT,,Odemira,1896905,37.5976,-8.6422,37.5970235,-8.6418636
Portugal,PT,,Odivelas,1896909,38.7926342,-9.1826701,38.7926705,-9.1827242
Portugal,PT,,Oiã,1896912,,,40.5410366,-8.5397026
Portugal,PT,,Olhão,1896938,37.0271058,-7.8412693,37.0265427,-7.8404492
Portugal,PT,,Olival,1896956,38.790255,-9.1676298,39.7107265,-8.6012616
Portugal,PT,,Oliveira de Azemeis,1896958,40.8389346,-8.4782621,40.8399841,-8.4763059
Portugal,PT,,Oliveira do Bairro,1896963,40.5157005,-8.4934051,40.5154441,-8.4940241
Portugal,PT,,Oliveira do Douro,1896965,,,41.1262301,-8.5797629
Portugal,PT,,Oliveira do Hospital,1896967,40.3596176,-7.861729,40.3597158,-7.8616632
Portugal,PT,,Oliveira,1896970,40.85357,-8.354541,41.226891,-8.0687478
Portugal,PT,,Oliveirinha,1896977,40.3646538,-7.909825,40.6077026,-8.5913689
Portugal,PT,,Ourém,1897025,39.65679,-8.57963,39.6568005,-8.5791816
Portugal,PT,,Ovar,1897097,40.8596202,-8.6252722,40.8597029,-8.6253782
Portugal,PT,,Palmela,1897270,38.569601,-8.9011653,38.5783182,-8.8997047
Portugal,PT,,Pampilhosa,1897285,40.3323767021845,-8.41914166722588,40.3371689,-8.4354526
Portugal,PT,,Pardilhó,1897401,,,40.7975152,-8.6248077
Portugal,PT,,Parede,1897407,38.6904954,-9.3532234,38.6873513,-9.3559736
Portugal,PT,,Pataias,1897468,39.6697872,-8.9992733,39.6687316,-8.9984845
Portugal,PT,,Paço de Arcos,1897109,38.6949504,-9.2933244,38.6949416,-9.2936168
Portugal,PT,,Paços de Brandão,1897129,40.972028,-8.5838204,40.9735318,-8.58873
Portugal,PT,,Paços de Ferreira,1897130,41.2786224,-8.378618,41.2786156,-8.3786052
Portugal,PT,,Pedroso,1897603,39.1876075,-7.6228281,41.0643234,-8.5562926
Portugal,PT,,Pedrouços,1897606,38.6964794254106,-9.22028406064023,41.1892504,-8.5847355
Portugal,PT,,Penafiel,1897646,41.2072787,-8.2857841,41.2069962,-8.2856512
Portugal,PT,,Peniche,1897701,39.3566221,-9.3812853,39.3564861,-9.3814725
Portugal,PT,,Perafita,1897726,,,41.2238901,-8.698869
Portugal,PT,,Pero Pinheiro,1897815,38.79933975,-9.2195596,38.8534094,-9.3227864
Portugal,PT,,Perozinho,1897822,,,41.062755,-8.5927673
Portugal,PT,,Peso da Régua,1897832,41.1660023,-7.7866469,41.1655201,-7.7861842
Portugal,PT,,Pinhal Novo,1897946,38.6328731,-8.9132129,38.6315229,-8.9170657
Portugal,PT,,Poceirão,1898049,38.3946499603481,-7.96611937813119,38.6332781,-8.7414522
Portugal,PT,,Poiares,1898092,41.177563,-7.7266082,40.21,-8.2591667
Portugal,PT,,Pombal,1898128,39.9161947,-8.6282264,39.913781,-8.6274914
Portugal,PT,,Ponta Delgada,1898147,37.7463058,-25.6668573,37.7364354,-25.6726553
Portugal,PT,,Ponta do Sol,1898150,32.681067,-17.104073,32.6799341,-17.1037304
Portugal,PT,,Ponte de Sor,1898181,39.2488056,-8.0109215,39.2478443,-8.0096389
Portugal,PT,,Ponte,1898203,40.33739535,-7.7990538,41.4651064,-8.3319212
Portugal,PT,,Pontinha,1898217,38.7622108,-9.1968418,38.7638927,-9.1996548
Portugal,PT,,Pontével,1898215,39.1520688,-8.8381222,39.1491563,-8.8400836
Portugal,PT,,Portalegre,1898239,39.2912457,-7.4325451,39.2913968,-7.4323455
Portugal,PT,,Portimão,1898302,37.1382138,-8.5376764,37.137634,-8.5343991
Portugal,PT,,Porto Salvo,1898377,38.7182557,-9.3012461,38.7172105,-9.2990925
Portugal,PT,,Porto Santo,1898378,33.0682789,-16.3418659,33.0604398,-16.3332783
Portugal,PT,,Porto de Mós,1898340,39.6024615,-8.8186118,39.6024944,-8.818522
Portugal,PT,,Porto,1898375,41.1485925,-8.6110201,41.149968,-8.6102426
Portugal,PT,,Pragal,1898560,38.6664926571721,-9.17917798574336,38.6674442,-9.1795691
Portugal,PT,,Praia da Vitória,1898572,38.7291867,-27.0658475,38.7333333,-27.0663889
Portugal,PT,,Póvoa de Lanhoso,1898473,41.5771222,-8.2770536,41.5773085,-8.2767635
Portugal,PT,,Póvoa de Santa Iria,1898487,,,38.8599057,-9.0731618
Portugal,PT,,Póvoa de Santo Adrião,1898489,38.8000062,-9.1598269,38.8002516,-9.1644198
Portugal,PT,,Póvoa de Varzim,1898496,41.3826345,-8.7627894,41.3826418,-8.7627856
Portugal,PT,,Quarteira,1898640,37.0712719,-8.1022591,37.0680124,-8.1041516
Portugal,PT,,Queijas,1898658,38.7189876,-9.2626268,38.7190176,-9.2633183
Portugal,PT,,Queluz,1898677,38.7425025,-9.2683088,38.7554532,-9.2534045
Portugal,PT,,Quinta do Anjo,1898820,38.5673561,-8.9418786,38.5659703,-8.9445388
Portugal,PT,,Rabo de Peixe,1898961,37.8144525,-25.5818499,37.8102778,-25.5861111
Portugal,PT,,Ramada,1898974,38.8053197,-9.1875812,38.8036459,-9.19121
Portugal,PT,,Real,1899054,41.5583666,-8.4455411,41.5578681,-8.443365
Portugal,PT,,Rebordosa,1899090,41.21971,-8.4108299,41.2202729,-8.423058
Portugal,PT,,Recarei,1899103,41.1543799,-8.4110351,41.1602326,-8.4248355
Portugal,PT,,Redondo,1899119,38.6481608,-7.5502077,38.6498022,-7.5480068
Portugal,PT,,Refojos de Basto,1899127,,,41.5584744,-8.0189271
Portugal,PT,,Reguengos de Monsaraz,1899182,38.42344,-7.53356,38.4234584,-7.5335735
Portugal,PT,,Riachos,1899267,39.4322104,-8.5045875,39.4453128,-8.5141974
Portugal,PT,,Ribeira Brava,1899298,32.6693994,-17.0662818,32.6703109,-17.0652872
Portugal,PT,,Ribeira Grande,1899358,37.81937,-25.520081,37.8217271,-25.5238679
Portugal,PT,,Ribeirão,1899360,41.3530937,-8.5611748,41.357217,-8.5596912
Portugal,PT,,Rio Maior,1899454,39.33659,-8.93631,39.3369294,-8.9362669
Portugal,PT,,Rio Meão,1899459,40.9610295,-8.5708065,40.9582098,-8.5804117
Portugal,PT,,Rio Tinto,1899469,41.1777759,-8.5595646,41.184096,-8.5667321
Portugal,PT,,Rio de Loba,1899431,,,40.6752511,-7.8841776
Portugal,PT,,Rio de Mouro,1899443,38.7843232096309,-9.32116830087837,38.7753762,-9.3344194
Portugal,PT,,Ronfe,1899564,,,41.4357338,-8.391782
Portugal,PT,,Rosto do Cão,1899596,,,37.7460824,-25.6391287
Portugal,PT,,Sacavém,1899677,38.7954222,-9.0995909,38.7909757,-9.1065542
Portugal,PT,,Salreu,1899749,,,40.7371728,-8.5608663
Portugal,PT,,Salvaterra de Magos,1899764,39.02553,-8.79381,39.0252072,-8.7933847
Portugal,PT,,Samora Correia,1899786,38.927603,-8.8644857,38.9261079,-8.8709149
Portugal,PT,,Sande,1899805,41.3619448012363,-8.46852664126206,41.1051038,-8.1809111
Portugal,PT,,Sandim,1899812,41.8552023,-7.1862163,41.0368882,-8.5140601
Portugal,PT,,Sangalhos,1899825,40.4919126,-8.4716056,40.492666,-8.4738865
Portugal,PT,,Santa Bárbara de Nexe,1899864,37.1038292,-7.9639131,37.1040917,-7.9641859
Portugal,PT,,Santa Catarina da Serra,1899870,,,39.68068,-8.686457
Portugal,PT,,Santa Cruz do Bispo,1899904,41.2171574,-8.6746269,41.2179906,-8.6741545
Portugal,PT,,Santa Cruz,1899911,32.6900912,-16.7939772,32.6884131,-16.7894497
Portugal,PT,,Santa Iria de Azoia,1899940,,,38.8463512,-9.0880448
Portugal,PT,,Santarém,1900020,39.2358549,-8.6875558,39.2361817,-8.687075
Portugal,PT,,Santiago do Cacém,1900049,38.0181455,-8.6927737,38.0139568,-8.6976129
Portugal,PT,,Santo André,1900085,38.0619858,-8.7855011,38.0618274,-8.7822163
Portugal,PT,,Santo André,1900087,38.0619858,-8.7855011,38.0618274,-8.7822163
Portugal,PT,,Santo Antão do Tojal,1900092,,,38.8536429,-9.1429806
Portugal,PT,,Santo António da Charneca,1900098,,,38.6247119,-9.0336643
Portugal,PT,,Santo Tirso,1900149,41.3437218,-8.477337,41.3426681,-8.4774652
Portugal,PT,,Seia,1900678,40.420237,-7.7029234,40.4203801,-7.7032128
Portugal,PT,,Selho,1900726,41.4424221317015,-8.31993524208444,41.425907,-8.354505
Portugal,PT,,Senhora da Hora,1900760,41.1880824,-8.6544954,41.1844871,-8.6607884
Portugal,PT,,Seroa,1900851,,,41.2620306,-8.4408868
Portugal,PT,,Serpa,1900853,37.9435439,-7.5989584,37.9408039,-7.5930246
Portugal,PT,,Sertã,1900911,39.80482,-8.0989468,39.8046111,-8.0990546
Portugal,PT,,Serzedelo,1900914,,,41.4021704,-8.3770684
Portugal,PT,,Serzedo,1900916,,,41.0514752,-8.6167899
Portugal,PT,,Sesimbra,1900918,38.44484,-9.1028266,38.4448408,-9.1020137
Portugal,PT,,Setúbal,1900940,38.5245129,-8.8933165,38.5245145,-8.8930658
Portugal,PT,,Silvalde,1900962,40.9925015,-8.6347419,40.9923281,-8.6264681
Portugal,PT,,Silveira,1900989,39.1113712,-9.3631411,39.1160192,-9.369471
Portugal,PT,,Silves,1901000,37.192452653802,-8.43899447527564,37.1899033,-8.4385902
Portugal,PT,,Sines,1901011,37.9515021,-8.8753325,37.9513395,-8.8758956
Portugal,PT,,Sintra,1901019,38.79846,-9.3881,38.7984458,-9.3881121
Portugal,PT,,Sobrado,1901051,37.1713839,-8.3294486,41.2103021,-8.4625879
Portugal,PT,,Sobralinho,1901074,38.9172750434155,-9.02739746409163,38.9173873,-9.0262177
Portugal,PT,,Sobreda,1901089,40.4546462,-7.8128363,38.6484332,-9.1853912
Portugal,PT,,Sobreira,1901101,41.1465113,-8.3890989,41.1453671,-8.3904242
Portugal,PT,,Soure,1901159,40.0593261,-8.6269268,40.0593351,-8.6270956
Portugal,PT,,Souto da Carpalhosa,1901185,39.8459092,-8.8236554,39.8454339,-8.8214764
Portugal,PT,,Souto,1901214,40.864092,-8.405301,40.8874949,-8.5604051
Portugal,PT,,Sátão,1900644,40.7402401,-7.7353206,40.740417,-7.7360954
Portugal,PT,,São Bartolomeu de Messines,1900161,37.2559126,-8.2865527,37.2578961,-8.2905577
Portugal,PT,,São Brás de Alportel,1900184,37.1529622,-7.8879138,37.1502805,-7.8883064
Portugal,PT,,São Domingos de Rana,1900222,,,38.7028061,-9.341175
Portugal,PT,,São Félix da Marinha,1900236,,,41.0337896,-8.6234542
Portugal,PT,,São João da Madeira,1900281,40.9019426,-8.489698,40.9023778,-8.489503
Portugal,PT,,São João da Talha,1900291,38.8226851,-9.0978894,38.8257535,-9.0921518
Portugal,PT,,São João de Ver,1900302,40.9555329,-8.551177,40.9536193,-8.5508339
Portugal,PT,,São João dos Montes,1900308,,,38.9393276,-9.0188731
Portugal,PT,,São João,1900309,39.4146344,-7.4569297,38.4152778,-28.3327778
Portugal,PT,,São Mamede de Infesta,1900350,41.1907288,-8.6113337,41.1901946,-8.6118937
Portugal,PT,,São Pedro da Cadeira,1900443,39.070721,-9.3717271,39.0694202,-9.3720826
Portugal,PT,,São Pedro da Cova,1900444,,,41.1537148,-8.5106049
Portugal,PT,,São Pedro do Sul,1900463,40.76026,-8.06705,40.7597521,-8.0638909
Portugal,PT,,São Roque,1900498,32.6709554,-16.9282244,37.7542627,-25.6421124
Portugal,PT,,São Teotónio,1900533,37.5115498,-8.7070505,37.5119876,-8.7078484
Portugal,PT,,Tavarede,1901335,40.1655377,-8.846059,40.1662784,-8.8444064
Portugal,PT,,Tavira,1901341,37.1262918,-7.6498271,37.1258122,-7.6498408
Portugal,PT,,Teixoso,1901361,,,40.3145417,-7.4568573
Portugal,PT,,Telões,1901398,,,41.3098632,-8.108731
Portugal,PT,,Terrugem,1901438,38.8439354,-7.3492859,38.8510934,-9.3746211
Portugal,PT,,Tomar,1901495,39.60359,-8.41276,39.603677,-8.4128291
Portugal,PT,,Tondela,1901499,40.51642,-8.08053,40.5164108,-8.0808034
Portugal,PT,,Torres Novas,1901559,39.47938,-8.54137,39.4777809,-8.5408923
Portugal,PT,,Torres Vedras,1901562,39.0930856,-9.260741,39.0877471,-9.2594479
Portugal,PT,,Trafaria,1901620,38.6732832,-9.2324273,38.6696556,-9.2388493
Portugal,PT,,Tramagal,1901626,39.4516068,-8.2585705,39.458438,-8.2470836
Portugal,PT,,Turquel,1901746,,,39.4637729,-8.9773598
Portugal,PT,,Unhos,1901765,,,38.8258708,-9.1212599
Portugal,PT,,Vagos,1901799,40.5552934,-8.6814363,40.5552654,-8.6814574
Portugal,PT,,Valadares,1901804,38.7755926227667,-9.16067870930199,41.1005252,-8.6388447
Portugal,PT,,Valbom,1901833,41.1304053,-8.5616029,41.1385545,-8.5625826
Portugal,PT,,Vale da Amoreira,1901869,,,38.6426139,-9.0397666
Portugal,PT,,Vale,1902277,38.741843306164,-13.1387667826958,40.9816445,-8.4399186
Portugal,PT,,Valongo,1902314,41.1895462,-8.4980295,41.1872658,-8.5021855
Portugal,PT,,Valpaços,1902319,41.60705,-7.31005,41.6074846,-7.3100748
Portugal,PT,,Venda do Pinheiro,1902453,38.9256052,-9.2313491,38.9252637,-9.2320857
Portugal,PT,,Vendas Novas,1902474,38.6774,-8.45523,38.6773682,-8.4552114
Portugal,PT,,Ventosa,1902495,41.1429147367071,-8.61238777193474,39.0675718,-9.3092821
Portugal,PT,,Vialonga,1902551,,,38.8740231,-9.0833965
Portugal,PT,,Viana do Castelo,1902554,41.694908,-8.8304609,41.6945675,-8.8301632
Portugal,PT,,Vila Chã,1902627,41.008866,-8.1907447,39.8601659,-8.5627895
Portugal,PT,,Vila Franca de Xira,1902702,38.9544913,-8.9894438,38.9542819,-8.9896863
Portugal,PT,,Vila Franca do Campo,1902703,37.717417,-25.4347283,37.7145316,-25.4334029
Portugal,PT,,Vila Frescainha,1902710,,,41.526854,-8.650848
Portugal,PT,,Vila Nova da Telha,1902759,,,41.2514089,-8.667667
Portugal,PT,,Vila Nova de Famalicão,1902765,41.4210659,-8.499396,41.412385,-8.5205959
Portugal,PT,,Vila Nova de Gaia,1902768,41.1355703,-8.6337053,41.1358915,-8.6331883
Portugal,PT,,Vila Nova de Milfontes,1902770,37.7255076,-8.7839205,37.7277186,-8.7852687
Portugal,PT,,Vila Praia de Âncora,1902810,41.8206997,-8.8703336,41.8169282,-8.8591939
Portugal,PT,,Vila Real de Santo António,1902865,37.1944547,-7.4155798,37.1950945,-7.4145798
Portugal,PT,,Vila Real,1902866,41.2966556,-7.74678,41.2958976,-7.7463528
Portugal,PT,,Vila Verde,1902967,41.65173,-8.43699,41.6515061,-8.4359365
Portugal,PT,,Vila Viçosa,1902979,41.0056251,-8.2171963,38.7774034,-7.4166874
Portugal,PT,,Vila do Conde,1902680,41.3539012,-8.7433515,41.3537975,-8.7428718
Portugal,PT,,Vilar de Andorinho,1902826,,,41.1106145,-8.5792082
Portugal,PT,,Vilar do Paraíso,1902858,,,41.1076296,-8.6197036
Portugal,PT,,Vilarinho,1902922,40.888763,-8.364704,41.3647795,-8.3363371
Portugal,PT,,Vilela,1902995,40.3277099,-7.9071305,41.2361437,-8.384535
Portugal,PT,,Viseu,1903055,40.6572866,-7.9147719,40.6575445,-7.9142793
Portugal,PT,,Vizela,1903070,41.37503,-8.30363,41.3752175,-8.3031729
Portugal,PT,,Vizela,1903071,41.37503,-8.30363,41.3752175,-8.3031729
Portugal,PT,,Válega,1902213,,,40.8313585,-8.5770786
Portugal,PT,,,1888111,38.741843306164,-13.1387667826958,39.399872,-8.224454
Portugal,PT,,,1888122,38.741843306164,-13.1387667826958,39.399872,-8.224454
Portugal,PT,,,1889131,38.741843306164,-13.1387667826958,39.399872,-8.224454
Portugal,PT,,,1894515,38.741843306164,-13.1387667826958,39.399872,-8.224454
Portugal,PT,,Évora,1893131,38.5709457,-7.9095186,38.570983,-7.9096023
Paraguay,PY,,Abaí,1903599,-25.887721064907,-55.7087877762616,-26.0373244,-55.9497805
Paraguay,PY,,Acahay,1903603,,,-25.91107,-57.111801
Paraguay,PY,,Alberdi,1903620,-25.389267711406,-57.1422529902558,-26.19,-58.13
Paraguay,PY,,Alto Verá,1903628,,,-26.583333,-55.633333
Paraguay,PY,,Altos,1903627,-25.2617939,-57.2492994,-25.2631384,-57.2536314
Paraguay,PY,,Antequera,1903641,-24.0863273,-57.2014633,-25.7894392,-56.4518209
Paraguay,PY,,Areguá,1903648,-25.3133549,-57.3868008,-25.2952778,-57.4147222
Paraguay,PY,,Arroyos y Esteros,1903655,-25.0541561,-57.0970807,-25.05027,-57.09198
Paraguay,PY,,Asunción,1903658,-25.2964298,-57.6468045,-25.2821972,-57.6351
Paraguay,PY,,Atyrá,1903660,-25.2786077,-57.1704852,-25.2821812,-57.1718054
Paraguay,PY,,Ayolas,1903663,-27.3873033,-56.8516435,-27.3863909,-56.8479781
Paraguay,PY,,Bella Vista,1903690,-27.0431892,-55.5781729,-22.1166667,-56.5166667
Paraguay,PY,,Bella Vista,1903691,-27.0431892,-55.5781729,-22.1166667,-56.5166667
Paraguay,PY,,Belén,1903688,-22.346352,-60.449636,-23.4697466,-57.2635114
Paraguay,PY,,Benjamín Aceval,1903694,-25.3020857720887,-57.6511621302795,-24.9967489,-57.5504453
Paraguay,PY,,Borja,1903703,,,-25.9527778,-56.4972222
Paraguay,PY,,Buena Vista,1903704,-26.2206738137659,-56.0828791129121,-26.18128,-56.083111
Paraguay,PY,,Caacupé,1903707,-25.3880361,-57.1439025,-25.3861111,-57.1408333
Paraguay,PY,,Caaguazú,1903709,-25.1804216855414,-55.8584885263134,-25.46982,-56.01535
Paraguay,PY,,Caapucú,1903714,-26.2338289,-57.1819622,-26.23251,-57.18351
Paraguay,PY,,Caazapá,1903719,-26.2537809815255,-56.0447155574449,-26.199961,-56.368069
Paraguay,PY,,Cambyretá,1903736,,,-27.3586457,-55.766177
Paraguay,PY,,Capiatá,1903781,,,-25.3592,-57.444149
Paraguay,PY,,Capitán Bado,1903790,,,-23.26,-55.54
Paraguay,PY,,Capitán Meza,1903792,-26.8282867,-55.3385909,-26.9355003,-55.2328259
Paraguay,PY,,Capitán Miranda,1903793,-25.2837111695636,-57.5590200253925,-27.2148866,-55.7967517
Paraguay,PY,,Capiíbary,1903783,,,-24.8,-56.033333
Paraguay,PY,,Caraguatay,1903801,,,-25.2380404,-56.828301
Paraguay,PY,,Carapeguá,1903803,-25.767636,-57.2425331,-25.76712,-57.248402
Paraguay,PY,,Carayaó,1903804,,,-25.2,-56.4
Paraguay,PY,,Carlos Antonio López,1903808,-26.399023,-54.7504791,-26.3980997,-54.7604286
Paraguay,PY,,Carmen del Paraná,1903812,,,-27.22106,-56.158749
Paraguay,PY,,Cerrito,1903833,-23.2387179008499,-58.3932355171275,-27.3330369,-57.6382382
Paraguay,PY,,Chore,1903854,,,-24.1866187,-56.5812701
Paraguay,PY,,Concepción,1904146,-22.8212785075266,-57.1191319245817,-23.402901,-57.429249
Paraguay,PY,,Coronel Bogado,1904152,-27.1603312,-56.2408552,-27.16482,-56.24509
Paraguay,PY,,Coronel Martínez,1904156,-25.759302,-56.6177134,-25.76,-56.62
Paraguay,PY,,Coronel Oviedo,1904157,-25.4491003,-56.4419319,-25.4166667,-56.45
Paraguay,PY,,Corpus Christi,1904159,,,-24.0771878,-54.9419122
Paraguay,PY,,Curuguaty,1904179,,,-24.47757,-55.70314
Paraguay,PY,,Desmochados,1904196,,,-27.1196278,-58.0910915
Paraguay,PY,,Doctor Botrell,1904201,,,-25.6157306,-56.3390681
Paraguay,PY,,Doctor Cecilio Báez,1904202,-25.2986201655835,-57.6489101066583,-25.0514891,-56.3250869
Paraguay,PY,,Doctor Juan León Mallorquín,1904204,,,-25.424549,-55.261162
Paraguay,PY,,Doctor Juan Manuel Frutos,1904205,,,-25.3800109,-55.8301177
Paraguay,PY,,Doctor Pedro P. Peña,1904207,,,-22.45,-62.35
Paraguay,PY,,Edelira,1904215,-26.7240012,-55.345843,-26.7642338,-55.2784141
Paraguay,PY,,Emboscada,1904227,-25.1245285,-57.3493031,-25.1233333,-57.3552778
Paraguay,PY,,Encarnación,1904229,-27.3339115,-55.8654024,-27.339758,-55.866362
Paraguay,PY,,Escobar,1904232,-25.2737343125695,-57.5915536077114,-25.6416178,-57.0365148
Paraguay,PY,,Eusebio Ayala,1904892,-25.3058793122179,-57.60465987361,-25.386299,-56.96315
Paraguay,PY,,Fernando de la Mora,1904899,-25.3960239365066,-54.647706272579,-25.32,-57.54
Paraguay,PY,,Filadelfia,1904900,-22.3470708,-60.0296124,-22.34823,-60.029129
Paraguay,PY,,Fram,1904932,,,-27.097026,-56.0166377
Paraguay,PY,,Fuerte Olimpo,1904935,-21.0418006,-57.8701704,-21.03595,-57.87516
Paraguay,PY,,Félix Pérez Cardozo,1904897,-26.5351235066201,-55.2611957915893,-25.750509,-56.527111
Paraguay,PY,,General Artigas,1904951,,,-26.94,-56.22
Paraguay,PY,,General Delgado,1904952,,,-27.0895402,-56.5252148
Paraguay,PY,,General Elizardo Aquino,1904956,,,-24.4436327,-56.9014072
Paraguay,PY,,General Higinio Morínigo,1904961,-26.0669659713719,-56.0958851059675,-25.1553359,-55.4651618
Paraguay,PY,,General José Eduvigis Díaz,1904963,,,-27.2013259,-58.3688379
Paraguay,PY,,Guarambaré,1904974,-25.4920858,-57.4558665,-25.496639,-57.456329
Paraguay,PY,,Hohenau,1904990,-27.0720669,-55.6393873,-27.0786111,-55.6452778
Paraguay,PY,,Horqueta,1904991,-23.3437337,-57.051737,-23.344259,-57.04409
Paraguay,PY,,Humaitá,1904996,-25.2833582606851,-57.6415411058555,-27.0668636,-58.5058262
Paraguay,PY,,Independencia,1905005,-25.7241235,-56.0971747,-25.6952845,-56.2594033
Paraguay,PY,,Isla Pucú,1905018,-25.2999992,-56.9000015,-25.31077,-56.905682
Paraguay,PY,,Isla Umbú,1905020,,,-26.9822405,-58.2719045
Paraguay,PY,,Itacurubí de la Cordillera,1905024,,,-25.4636386,-56.8507894
Paraguay,PY,,Itacurubí del Rosario,1905025,,,-24.53977,-56.827019
Paraguay,PY,,Itanara,1905030,,,-23.816667,-55.783333
Paraguay,PY,,Itapé,1905031,,,-25.85,-56.616667
Paraguay,PY,,Itapúa Poty,1905033,,,-26.6324065,-55.5191857
Paraguay,PY,,Itaquyry,1905035,,,-24.9852879,-55.1513801
Paraguay,PY,,Itauguá,1905037,,,-25.3833333,-57.3333333
Paraguay,PY,,Iturbe,1905040,-25.4015746779355,-54.6470791885382,-26.0599,-56.485298
Paraguay,PY,,Itá,1905029,-22.172794,-56.339035,-25.50857,-57.359951
Paraguay,PY,,Jesús,1905048,-27.0575537,-55.7425716,-27.05,-55.783333
Paraguay,PY,,Juan de Mena,1905063,-25.28602565,-57.62382445,-24.9537404,-56.7650799
Paraguay,PY,,La Colmena,1905075,-25.8856298,-56.8404292,-25.8830556,-56.8347222
Paraguay,PY,,La Paz,1905094,-25.29554205,-57.652383,-26.991085,-55.8941037
Paraguay,PY,,Lambaré,1905086,-25.3419208238195,-57.6141268500303,-25.3458154,-57.6099099
Paraguay,PY,,Laureles,1905104,,,-27.2475936,-57.4598975
Paraguay,PY,,Leandro Oviedo,1905106,,,-26.7430691,-56.2789638
Paraguay,PY,,Lima,1905108,-25.35245745,-57.60355255,-23.8862773,-56.4775937
Paraguay,PY,,Limpio,1905109,,,-25.1683333,-57.4941667
Paraguay,PY,,Loma Grande,1905111,-25.1776796,-57.2317318,22.1662047,-100.9541746
Paraguay,PY,,Los Cedrales,1905123,,,-25.6576859,-54.721983
Paraguay,PY,,Luque,1905135,-25.2654669,-57.493415,-25.27,-57.4872222
Paraguay,PY,,Maciel,1905139,-26.1821779,-56.4737292,-26.1833333,-56.4722222
Paraguay,PY,,Mariano Roque Alonso,1905150,-25.2885210838119,-57.6601777424977,-25.2122222,-57.5330556
Paraguay,PY,,Mayor Pablo Lagerenza,1905163,,,-19.92,-60.79
Paraguay,PY,,Mbocayaty,1905172,-25.3288526588931,-57.6141794534644,-25.721041,-56.416729
Paraguay,PY,,Mbutuy,1905176,,,-24.976524,-56.3125056
Paraguay,PY,,Mbuyapey,1905177,,,-26.222561,-56.757881
Paraguay,PY,,Naranjal,1905220,,,-25.9718022,-55.1900227
Paraguay,PY,,Natalicio Talavera,1905224,-25.7813486428154,-56.4457194490237,-25.6544259,-56.3125056
Paraguay,PY,,Natalio,1905226,-26.7561139,-55.1391204,-26.7565476,-55.1403426
Paraguay,PY,,Nemby,1905231,-25.3898416968772,-57.5462595678397,-25.3961603,-57.536292
Paraguay,PY,,Nueva Alborada,1905234,,,-27.2684442,-55.6828448
Paraguay,PY,,Nueva Colombia,1905237,-25.1878929,-57.3054591,-25.1844545,-57.3072772
Paraguay,PY,,Nueva Germania,1905239,,,-23.9,-56.566667
Paraguay,PY,,Nueva Italia,1905240,,,-25.6127554,-57.4655544
Paraguay,PY,,Nueva Londres,1905241,,,-25.4073151,-56.547633
Paraguay,PY,,Obligado,1905247,-27.0559703,-55.6287872,-27.0521599,-55.6190095
Paraguay,PY,,Paraguarí,1905276,-26.0757291691219,-57.0936668936303,-26.174027,-57.1013188
Paraguay,PY,,Paso de Patria,1905290,-25.4142567768944,-57.5536345216405,-27.24375,-58.55574
Paraguay,PY,,Pedro Juan Caballero,1905307,-22.5460854,-55.7365214,-22.53274,-55.747681
Paraguay,PY,,Pilar,1905317,-26.8618839,-58.3024033,-26.867689,-58.296188
Paraguay,PY,,Pirapo,1905325,-26.8591737,-55.5442873,-26.8552666,-55.541359
Paraguay,PY,,Pirayú,1905327,,,-25.483333,-57.233333
Paraguay,PY,,Piribebuy,1905328,-25.2845755329783,-57.6422106627633,-25.46599,-57.041019
Paraguay,PY,,Pozo Colorado,1905352,-23.4513068,-58.8324876,-23.4954946,-58.7931723
Paraguay,PY,,Presidente Franco,1905366,-25.2794431540464,-57.63766637118,-25.5333333,-54.6166667
Paraguay,PY,,Primero de Marzo,1905370,,,-25.1534542,-56.9295395
Paraguay,PY,,Puerto Pinasco,1905481,-22.6299992,-57.8400002,-22.6462275,-57.8410062
Paraguay,PY,,Quiindy,1905685,-25.9757816,-57.2324307,-25.97843,-57.23188
Paraguay,PY,,Quyquyhó,1905687,,,-26.23,-56.99
Paraguay,PY,,Repatriación,1905704,,,-25.5376671,-55.9901675
Paraguay,PY,,Salto del Guairá,1905740,-24.0618937,-54.3073576,-24.0565852,-54.3084645
Paraguay,PY,,San Alberto,1905751,,,-24.9734854,-54.9143893
Paraguay,PY,,San Antonio,1905755,-25.2769852750339,-57.6048735291356,-25.4305339,-57.5476145
Paraguay,PY,,San Bernardino,1905763,-25.3104338,-57.2965439,-25.27,-57.32
Paraguay,PY,,San Carlos,1905767,-22.788722,-57.929685,-22.2467829,-57.2903334
Paraguay,PY,,San Cosme y Damián,1905772,,,-27.3201981,-56.3320773
Paraguay,PY,,San Cristóbal,1905773,,,-25.8833333,-55.4666667
Paraguay,PY,,San Estanislao,1905774,,,-24.6653378,-56.455192
Paraguay,PY,,San Joaquín,1905782,-25.3405802252784,-57.6292616512435,-25.0276365,-56.0445093
Paraguay,PY,,San José Obrero,1905789,,,-25.1768417,-56.9182856
Paraguay,PY,,San José de los Arroyos,1905786,,,-25.54,-56.73
Paraguay,PY,,San Juan Bautista de Ñeembucú,1905797,,,-26.696011,-57.80304
Paraguay,PY,,San Juan Bautista,1905799,-26.6693823,-57.1460873,-26.67277,-57.147381
Paraguay,PY,,San Juan Nepomuceno,1905804,-26.1133099,-55.9385121,-26.115971,-55.934952
Paraguay,PY,,San Juan del Paraná,1905801,,,-27.2924948,-55.9469958
Paraguay,PY,,San Lorenzo,1905811,,,-25.350349,-57.511051
Paraguay,PY,,San Lázaro,1905808,,,-22.1066099,-57.9631353
Paraguay,PY,,San Miguel,1905820,-26.5349295,-57.0406849,-26.53231,-57.040611
Paraguay,PY,,San Patricio,1905825,-26.976687,-56.8273098,-26.977871,-56.8349
Paraguay,PY,,San Pedro de Ycuamandiyú,1905828,-24.0910287,-57.0775238,-24.08872,-57.076519
Paraguay,PY,,San Pedro del Paraná,1905827,,,-26.837721,-56.209969
Paraguay,PY,,San Rafael del Parana,1905831,,,-26.6530372,-54.9364069
Paraguay,PY,,San Salvador,1905845,-25.2708083139694,-57.599774522005,-25.94706,-56.47163
Paraguay,PY,,Santa Elena,1905855,,,-25.416809,-56.80098
Paraguay,PY,,Santa María,1905865,-23.89716,-59.940915,-26.7831462,-56.9407946
Paraguay,PY,,Santa Rita,1905869,,,-25.7917136,-55.0879338
Paraguay,PY,,Santa Rosa,1905876,1.287819,-77.4391564,-26.89172,-56.851742
Paraguay,PY,,Santiago,1905886,-27.1425511,-56.7643101,-27.1435718,-56.7664844
Paraguay,PY,,Sapucaí,1905898,-25.6911384,-56.8626766,-25.678341,-56.951038
Paraguay,PY,,Tacuaras,1905925,,,-26.816667,-58.1
Paraguay,PY,,Tacuatí,1905928,,,-23.4595396,-56.7383988
Paraguay,PY,,Tavai,1905944,-26.1791087,-55.4992306,-26.483333,-56.35
Paraguay,PY,,Tobatí,1905975,-25.2603916,-57.0837769,-25.266331,-57.084709
Paraguay,PY,,Trinidad,1905993,-27.163707102004,-56.235058768375,-27.1283551,-55.7078363
Paraguay,PY,,Unión,1906006,-25.3425710793601,-57.5380758540337,-24.81307,-56.524879
Paraguay,PY,,Valenzuela,1906016,,,-25.5949816,-56.873283
Paraguay,PY,,Veinticinco de Diciembre,1906021,,,-24.8146253,-56.7271669
Paraguay,PY,,Villa Elisa,1906030,,,-25.3679761,-57.5929166
Paraguay,PY,,Villa Florida,1906031,-26.4061714,-57.1199187,-26.413919,-57.12429
Paraguay,PY,,Villa Franca,1906032,,,-26.3186785,-58.1465855
Paraguay,PY,,Villa Hayes,1906033,-25.0947145,-57.5258446,-25.08769,-57.529629
Paraguay,PY,,Villa Oliva,1906039,,,-26.02,-57.87
Paraguay,PY,,Villalbin,1906034,,,-27.13942,-57.932961
Paraguay,PY,,Villarrica,1906044,-25.7813596,-56.4477224,-25.78447,-56.450699
Paraguay,PY,,Villeta,1906048,,,-25.51,-57.56
Paraguay,PY,,Yabebyry,1906049,,,-27.395781,-57.13942
Paraguay,PY,,Yaguarón,1906051,,,-25.569851,-57.28196
Paraguay,PY,,Yataity del Norte,1906055,,,-24.8472072,-56.3530514
Paraguay,PY,,Yataity,1906056,-25.307512195672,-57.6119257550059,-25.683333,-56.466667
Paraguay,PY,,Ybycuí,1906065,,,-26.014139,-57.016319
Paraguay,PY,,Ybytimí,1906071,,,-25.7594388,-56.8001977
Paraguay,PY,,Yegros,1906075,-26.4539163,-56.4024368,-26.454691,-56.406502
Paraguay,PY,,Ygatimí,1906077,-25.2851882471288,-57.6490850765538,-24.12219,-55.648449
Paraguay,PY,,Yhú,1906082,,,-25.06402,-55.924641
Paraguay,PY,,Ypacarai,1906083,-25.4030809,-57.2884213,-25.406469,-57.282749
Paraguay,PY,,Ypane,1906085,-25.3512009016335,-57.6144175907245,-25.45,-57.53
Paraguay,PY,,Yuty,1906094,-25.3007276230607,-57.6205960548047,-26.619841,-56.247318
Paraguay,PY,,Ñacunday,1905217,,,-26.0159116,-54.6931605
Paraguay,PY,,Ñumí,1905244,-25.9521384,-56.3292805,-25.9486231,-56.3320773
Romania,RO,,Abramut,1906883,47.3229578,22.2543947,47.3229144,22.2546057
Romania,RO,,Abram,1906882,47.3176199720038,22.3785344451676,47.3166667,22.3833333
Romania,RO,,Abrud,1906885,46.2691983872725,23.073694173194,46.2738889,23.0633333
Romania,RO,,Acas,1906899,47.5390572,22.7843354,47.5333333,22.7833333
Romania,RO,,Acatari,1906901,46.4820732,24.6306387,46.479789,24.6353545
Romania,RO,,Adamclisi,1906922,44.0862180301197,27.9548316109083,44.0835216,27.9518288
Romania,RO,,Adamus,1906925,46.3047815030249,24.2438074729594,46.304229,24.2413007
Romania,RO,,Adjud,1906942,46.0981860170346,27.1817331889616,46.1,27.1797222
Romania,RO,,Adunatii-Copaceni,1906960,44.2564074368378,26.0551818918387,44.25,26.05
Romania,RO,,Adunati,1906959,45.1845583925957,25.5999781519502,45.1832782,25.6015293
Romania,RO,,Adâncata,1906929,47.7388781333236,26.292384636569,47.7359382,26.2899333
Romania,RO,,Adâncata,1906930,47.7388781333236,26.292384636569,47.7359382,26.2899333
Romania,RO,,Afumati,1906971,44.0031245282083,23.4758547828119,44.525,26.2522222
Romania,RO,,Afumati,1906973,44.0031245282083,23.4758547828119,44.525,26.2522222
Romania,RO,,Agapia,1906977,47.1749157234185,26.2841987716477,47.1735451,26.2893952
Romania,RO,,Agas,1906985,46.4819854,26.2270592,46.4809937,26.2295318
Romania,RO,,Aghiresu,1906992,46.8720932,23.2377307,46.8725,23.2416667
Romania,RO,,Agigea,1906996,44.0923374,28.6099789,44.0916667,28.6113889
Romania,RO,,Agnita,1907002,45.9775336984204,24.6268063168528,45.9730556,24.6172222
Romania,RO,,Agrij,1907007,47.0670482237753,23.0994216962892,47.0671238,23.0943935
Romania,RO,,Aita Mare,1907026,45.970229,25.5637373,45.9670572,25.5635224
Romania,RO,,Aiton,1907031,46.684227,23.7432308,46.6852778,23.7388889
Romania,RO,,Aiud,1907032,46.313706801251,23.7176966975817,46.3122222,23.7291667
Romania,RO,,Alba Iulia,1907045,45.811087522031,25.0736584741981,46.076691,23.580099
Romania,RO,,Albac,1907044,46.4501135275132,22.9634322594195,46.4534292,22.949816
Romania,RO,,Albeni,1907052,45.0276207538843,23.6042061016219,45.0333333,23.6
Romania,RO,,Albesti-Paleologu,1907080,44.9550841506508,26.2285196938479,44.957284,26.2286285
Romania,RO,,Albestii-Pamanteni,1907076,45.2127895739523,24.6701237251092,,
Romania,RO,,Albesti,1907057,44.5391715301681,27.129671651087,46.2333333,24.85
Romania,RO,,Albesti,1907059,44.5391715301681,27.129671651087,46.2333333,24.85
Romania,RO,,Albesti,1907061,44.5391715301681,27.129671651087,46.2333333,24.85
Romania,RO,,Albesti,1907062,44.5391715301681,27.129671651087,46.2333333,24.85
Romania,RO,,Albesti,1907066,44.5391715301681,27.129671651087,46.2333333,24.85
Romania,RO,,Albesti,1907068,44.5391715301681,27.129671651087,46.2333333,24.85
Romania,RO,,Alesd,1907121,47.062105843901,22.3976233414673,47.0572222,22.3969444
Romania,RO,,Alexandria,1907128,43.9703565,25.3317085,43.9686111,25.3333333
Romania,RO,,Alexandru Ioan Cuza,1907138,46.0870390292691,23.587723346833,47.1333,26.85
Romania,RO,,Alexandru Odobescu,1907143,44.267433710473,27.0892116998118,44.2666667,27.0833333
Romania,RO,,Alexandru Vlahuta,1907146,45.5660383,27.0993574,46.424651,27.6413264
Romania,RO,,Alexeni,1907151,44.6813750548154,26.7080362791401,44.67805,26.71128
Romania,RO,,Aliman,1907160,44.1840446753111,27.8535086011073,44.25,27.6666667
Romania,RO,,Alimpesti,1907164,45.1053408676165,23.8030069751731,45.1004776,23.8011179
Romania,RO,,Almajiu,1907175,,,,
Romania,RO,,Almasu Mare,1907198,47.3282538503913,22.5260975535124,46.1106669,23.1163988
Romania,RO,,Almasu,1907188,46.9438493599469,23.1295821721767,46.9454645,23.1300925
Romania,RO,,Almas,1907182,47.0075887757897,26.3485750859986,46.2820917,22.228679
Romania,RO,,Altina,1907229,45.9298582656675,24.4611749449908,44.4297222,24.3641667
Romania,RO,,Alunis,1907236,46.2636897882725,25.1863831315275,46.8941662,24.8205851
Romania,RO,,Alunis,1907239,46.2636897882725,25.1863831315275,46.8941662,24.8205851
Romania,RO,,Alunis,1907241,46.2636897882725,25.1863831315275,46.8941662,24.8205851
Romania,RO,,Alunu,1907258,45.0166971241783,23.8253639128127,45.0175136,23.8246647
Romania,RO,,Amarastii de Jos,1907266,43.9532509569319,24.1652584453889,43.957722,24.1754
Romania,RO,,Amarastii de Sus,1907267,43.981143379239,24.1577699989837,43.9808576,24.1574796
Romania,RO,,Amarasti,1907264,44.7587241821924,24.1592826594979,44.7666667,24.15
Romania,RO,,Amara,1907262,44.6173543,27.314991,44.62,27.32
Romania,RO,,Amaru,1907271,44.9263651,26.5881564,44.9277778,26.5888889
Romania,RO,,Amzacea,1907279,43.9597967283089,28.3970686291629,43.9588889,28.3961111
Romania,RO,,Andrasesti,1907286,44.5784578850153,27.1409234902951,44.5780548,27.1431289
Romania,RO,,Andreiasu de Jos,1907293,45.7559803464759,26.82968543987,45.7533059,26.8334989
Romania,RO,,Andrid,1907300,47.5173241042186,22.3357653223165,47.5166667,22.35
Romania,RO,,Andrieseni,1907301,47.529151,27.2902192,47.5333333,27.2833333
Romania,RO,,Anina,1907327,45.0909182114175,21.8540286868365,45.0916667,21.8533333
Romania,RO,,Aninoasa,1907335,44.9726432290992,25.4369096927061,45.3786111,22.31
Romania,RO,,Aninoasa,1907336,44.9726432290992,25.4369096927061,45.3786111,22.31
Romania,RO,,Aninoasa,1907337,44.9726432290992,25.4369096927061,45.3786111,22.31
Romania,RO,,Apahida,1907358,46.8021725,23.7546388,46.8031144,23.7525896
Romania,RO,,Apata,1907363,45.950432,25.5331162,45.9495023,25.5306954
Romania,RO,,Apateu,1907366,46.6217667651671,21.7739476356075,46.6212124,21.7726499
Romania,RO,,Apa,1907355,47.7628880750016,23.2009878026386,47.7666667,23.2
Romania,RO,,Apele Vii,1907369,44.0671346964056,24.0631595340031,44.0666667,24.0666667
Romania,RO,,Apoldu de Jos,1907371,45.8806077857842,23.8455296043375,45.8792973,23.8462185
Romania,RO,,Apold,1907370,46.1273761,24.8203591,46.116667,24.816667
Romania,RO,,Apostolache,1907378,45.1294513926725,26.257880026494,45.1333333,26.2666667
Romania,RO,,Arad,1907387,46.1759065,21.3187686,46.1666667,21.3166667
Romania,RO,,Arbore,1907409,47.7312669,25.9200022,47.7333333,25.9333333
Romania,RO,,Arcani,1907411,45.0752736834021,23.1337320644857,45.0833333,23.1333333
Romania,RO,,Archis,1907418,46.4778558,22.0528201,46.4773812,22.0518268
Romania,RO,,Ardeoani,1907434,46.5267172,26.6102814,46.5333333,26.6
Romania,RO,,Ardud,1907439,47.6422032623651,22.8868480866925,47.642281,22.888559
Romania,RO,,Ardusat,1907441,47.6472949279695,23.3624217578369,47.65,23.3666667
Romania,RO,,Arefu,1907445,45.3289137,24.6079034,45.3333333,24.6
Romania,RO,,Argetoaia,1907458,44.5137166729425,23.3806631108642,44.5175192,23.3737204
Romania,RO,,Aricestii-Rahtivani,1907477,44.9493166636869,25.8333825472498,44.95,25.8333333
Romania,RO,,Aricestii-Zeletin,1907478,45.2194126,26.1805169,45.2166667,26.1666667
Romania,RO,,Arieseni,1907483,46.4781014047722,22.7578705186355,46.4767119,22.7549531
Romania,RO,,Arinis,1907492,47.5008819358256,23.2268523088371,47.5022794,23.2237172
Romania,RO,,Armasesti,1907509,45.0104880227801,24.0204344433916,44.75,26.5833333
Romania,RO,,Armenis,1907513,45.2093601,22.3100578,45.2096841,22.3091321
Romania,RO,,Aroneanu,1907520,47.2048079,27.6052551,47.2,27.6
Romania,RO,,Arpasu de Jos,1907526,45.7788540478754,24.6220747197295,45.7833333,24.6166667
Romania,RO,,Arsura,1907544,46.8146330665801,28.0244208359468,46.8133333,28.0222222
Romania,RO,,Asau,1907569,46.4410076446287,26.3840902140992,46.4399466,26.400959
Romania,RO,,Astileu,1907586,47.0278142651368,22.3946271660971,47.0333333,22.3833333
Romania,RO,,Asuaju de Sus,1907591,47.5670327,23.1824512,47.5666667,23.1833333
Romania,RO,,Atel,1907608,46.1589263039272,24.4665893149233,46.15,24.4666667
Romania,RO,,Atid,1907611,46.4537198143811,25.046015798025,46.4534697,25.0478746
Romania,RO,,Atintis,1907612,46.4295651,24.1066698,46.433333,24.1
Romania,RO,,Auseu,1907644,47.036855,22.4963927,47.0344603,22.4955413
Romania,RO,,Avram Iancu,1907662,46.6694822,21.5241933,46.540116,21.9159211
Romania,RO,,Avrameni,1907654,48.0160884,26.9537769,48.0166667,26.95
Romania,RO,,Avramesti,1907656,44.8572526746409,24.166275933966,46.334717,25.0091156
Romania,RO,,Avrig,1907665,45.7264318022576,24.3822376384727,45.72718,24.39072
Romania,RO,,Axente Sever,1907666,46.0940755962542,24.2174337420783,46.0899161,24.2135826
Romania,RO,,Axintele,1907668,44.6132059509819,26.7515883339994,44.621231,26.738274
Romania,RO,,Azuga,1907672,45.4436869826651,25.5677128938074,45.445,25.5552778
Romania,RO,,Baba Ana,1907673,44.968994117518,26.4622959145837,44.9686148,26.4601046
Romania,RO,,Babadag,1907676,44.892554888446,28.7149354075837,44.8913109,28.7172231
Romania,RO,,Babaita,1907679,44.1640039831559,25.3824413526319,44.1666667,25.3833333
Romania,RO,,Babana,1907680,44.8907849,24.7047047,44.880926,24.6937161
Romania,RO,,Babeni,1907692,44.979086108424,24.2246977432547,44.9703869,24.2353304
Romania,RO,,Babeni,1907693,44.979086108424,24.2246977432547,44.9703869,24.2353304
Romania,RO,,Babiciu,1907701,44.0313276273952,24.5616586749026,44.0339793,24.5584145
Romania,RO,,Bacani,1907720,46.3213258,27.6807033,46.3185497,27.675322
Romania,RO,,Bacau,1907724,46.5549533886031,26.9145996269397,46.571289,26.925171
Romania,RO,,Bacesti,1907739,44.7463194820084,23.6831120737885,46.822979,27.24301
Romania,RO,,Bacia,1907744,45.8025818,23.0062276,45.8035396,23.00982
Romania,RO,,Baciu,1907749,44.33152,25.444291,46.7927778,23.525
Romania,RO,,Baclesu,1907760,,,,
Romania,RO,,Bagaciu,1907825,46.2704575884621,24.3739399323646,46.27,24.37
Romania,RO,,Bahna,1907843,44.774898777808,22.4976935464031,46.7833333,26.7833333
Romania,RO,,Bahnea,1907849,46.3734374118814,24.4832442631394,46.3714762,24.4755115
Romania,RO,,Baia Mare,1907866,47.6634173805842,23.5783808569002,47.6666667,23.5833333
Romania,RO,,Baia de Arama,1907859,44.9976739496973,22.8168942047472,44.993735,22.815171
Romania,RO,,Baia de Aries,1907860,46.38105176341,23.2816016588461,46.3794444,23.2797222
Romania,RO,,Baia de Cris,1907861,46.1747171126296,22.7135642809053,46.1732769,22.7127168
Romania,RO,,Baia de Fier,1907862,45.1701430361094,23.7665375880758,45.177696,23.760911
Romania,RO,,Baia-Sprie,1907871,47.6624182351679,23.6962752712788,47.6608333,23.6886111
Romania,RO,,Baia,1907854,47.4177578154042,26.2156779347337,47.4203,26.2169
Romania,RO,,Baia,1907856,47.4177578154042,26.2156779347337,47.4203,26.2169
Romania,RO,,Baicoi,1907886,45.0354858,25.8526695,45.0383599,25.8713929
Romania,RO,,Baiculesti,1907889,45.0636827683241,24.6944690065064,44.437711,26.097367
Romania,RO,,Baile Govora,1907914,,,45.08,24.1797222
Romania,RO,,Baile Herculane,1907916,44.8839077911081,22.4193407976645,44.8786111,22.4141667
Romania,RO,,Baile Olanesti,1907924,45.1814587301384,24.2574552408333,45.2038996,24.2427255
Romania,RO,,Baile Tusnad,1907936,46.1483388117249,25.8608220866073,46.146941,25.860563
Romania,RO,,Bailesti,1907934,44.021519369074,23.3444017134691,44.028111,23.35288
Romania,RO,,Baisoara,1907949,46.5775544,23.4615157,46.5755556,23.4675
Romania,RO,,Baita de sub Codru,1907957,47.5297502,23.1498263,47.5333333,23.15
Romania,RO,,Baita,1907952,46.4825397258976,22.5825590587118,46.0324658,22.8926394
Romania,RO,,Baiut,1907959,47.6139872,23.9975195,47.6166667,24.0
Romania,RO,,Balabanesti,1907984,46.0954568,27.7220603,46.1,27.7166667
Romania,RO,,Balaceanu,1907989,45.2466367,27.1369657,45.2488581,27.1348325
Romania,RO,,Balacita,1907996,44.3846126897324,23.1257493172774,44.38,23.13
Romania,RO,,Balaciu,1907998,44.6355862,26.9030563,44.634786,26.8962419
Romania,RO,,Balaci,1907995,44.3433909603697,24.9224385417323,44.34052,24.9222439
Romania,RO,,Balanesti,1908020,45.0456211983678,23.3735279688933,44.2470843,24.4805118
Romania,RO,,Balan,1908013,47.1517993322359,23.3085592599974,46.6497222,25.81
Romania,RO,,Balan,1908015,47.1517993322359,23.3085592599974,46.6497222,25.81
Romania,RO,,Balasesti,1908039,46.1013374,27.6738766,46.1,27.6666667
Romania,RO,,Balauseri,1908047,46.4073178,24.6866087,46.40905,24.6919
Romania,RO,,Bala,1907981,44.8878259791486,22.8309923500817,44.883333,22.833333
Romania,RO,,Bala,1907982,44.8878259791486,22.8309923500817,44.883333,22.833333
Romania,RO,,Balcani,1908056,46.6492806,26.5641035,46.6380084,26.5550982
Romania,RO,,Balcauti,1908058,47.8926431,26.076976,47.8912476,26.0714022
Romania,RO,,Balcesti,1908071,45.1095683693639,23.6371514919248,44.028111,23.35288
Romania,RO,,Balc,1908060,47.2978398731373,22.5322253095832,47.2977602,22.5335297
Romania,RO,,Baldovinesti,1908080,44.3374836957294,25.0560543522521,44.389675,24.0447462
Romania,RO,,Baleni,1908085,45.8079488298252,27.8482924403893,44.8166667,25.6666667
Romania,RO,,Balesti,1908092,46.7157699064893,27.5127778850468,44.028111,23.35288
Romania,RO,,Balesti,1908094,46.7157699064893,27.5127778850468,44.028111,23.35288
Romania,RO,,Balilesti,1908100,45.0655101404031,24.9389882975676,44.028111,23.35288
Romania,RO,,Balint,1908107,45.8124996,21.8536193,45.8137543,21.8548461
Romania,RO,,Balotesti,1908136,44.7381519536727,22.6359569411182,44.6166667,26.1
Romania,RO,,Balsa,1908138,46.0266820522057,23.0981729428416,46.0286363,23.1001591
Romania,RO,,Bals,1908140,44.3422219694643,24.1194341429841,44.35,24.0994444
Romania,RO,,Balta Alba,1908145,45.305903878732,27.2870735446571,45.3,27.2833333
Romania,RO,,Balta Doamnei,1908154,44.7593185117044,26.1675131312064,44.7576377,26.1703131
Romania,RO,,Baltatesti,1908177,47.1223803419782,26.3045489136755,47.1224713,26.3057958
Romania,RO,,Baltati,1908178,47.2240836639966,27.1211708521625,47.2235828,27.1195278
Romania,RO,,Balta,1908152,44.8877801789691,22.6346158093172,44.5296133,23.4752684
Romania,RO,,Balteni,1908202,44.8700475094257,23.2712546493111,44.8666667,23.2833333
Romania,RO,,Baltesti,1908214,45.1090568,26.1312304,45.109303,26.1284104
Romania,RO,,Baluseni,1908224,47.6675673300019,26.7941127590611,47.6687223,26.7943072
Romania,RO,,Balvanesti,1908234,44.7980517016825,22.6766556411466,44.7976371,22.6807363
Romania,RO,,Banca,1908242,46.3475939,27.2914137,46.300385,27.8110122
Romania,RO,,Band,1908250,46.577126272695,24.3684836025165,46.5762629,24.3743048
Romania,RO,,Baneasa,1908254,44.0661544857059,27.6957757322926,44.05,26.0833333
Romania,RO,,Baneasa,1908256,44.0661544857059,27.6957757322926,44.05,26.0833333
Romania,RO,,Baneasa,1908257,44.0661544857059,27.6957757322926,44.05,26.0833333
Romania,RO,,Banesti,1908265,47.5914201943832,26.521100586751,45.1,25.7666667
Romania,RO,,Bania,1908267,44.8765039478286,22.0425804807087,44.8802778,22.0447222
Romania,RO,,Banisor,1908270,47.1051092,22.8390931,47.1062503,22.8363989
Romania,RO,,Banita,1908272,45.4422137967585,23.26706825557,45.45,23.2666667
Romania,RO,,Banloc,1908279,45.3884113828912,21.1343045947847,45.3898896,21.1392785
Romania,RO,,Baraganul,1908304,44.8106789,27.5151509,44.8095462,27.5169375
Romania,RO,,Baraolt,1908319,46.074897828421,25.6034643589404,46.075,25.6
Romania,RO,,Barasti,1908328,47.3631775,26.3538318,44.6166667,24.6833333
Romania,RO,,Bara,1908292,46.5719927607891,24.8713451941476,45.8931,21.8806
Romania,RO,,Barbatesti,1908357,44.8579920811482,23.5070835975228,44.866667,23.5
Romania,RO,,Barbatesti,1908358,44.8579920811482,23.5070835975228,44.866667,23.5
Romania,RO,,Barbuletu,1908381,45.1161998498299,25.3044826666982,45.1333333,25.3
Romania,RO,,Barcanesti,1908396,44.6418530666649,26.6417116929603,44.8833333,26.05
Romania,RO,,Barcanesti,1908397,44.6418530666649,26.6417116929603,44.8833333,26.05
Romania,RO,,Barcani,1908398,45.6956568847999,26.0869462958868,45.7,26.0833333
Romania,RO,,Barcea,1908401,45.7520296453327,27.4718480791946,45.75,27.4666667
Romania,RO,,Bargaoani,1908422,,,47.0,26.65
Romania,RO,,Barghis,1908425,45.9828958,24.539716,45.985761,24.5368215
Romania,RO,,Barla,1908435,44.426580353153,24.7792329679172,44.4262092,24.7791171
Romania,RO,,Barnova,1908454,47.0762160261664,27.6258654015871,47.0883585,27.6179845
Romania,RO,,Barsanesti,1908465,46.3307682,26.6899012,46.3333333,26.7
Romania,RO,,Barsesti,1908475,45.9093547215858,26.7397767627921,45.9102552,26.7395272
Romania,RO,,Baru,1908499,45.4668182672629,23.165535021963,45.4666667,23.1666667
Romania,RO,,Barza,1908510,44.3264820667433,24.1449956209775,44.3268692,24.7861193
Romania,RO,,Basarabi,1908532,44.1696444358093,28.4026397689769,44.1736111,28.4083333
Romania,RO,,Bascov,1908547,44.3890385981084,23.5173556798009,44.9,24.8166667
Romania,RO,,Basesti,1908557,47.4805909,23.1462242,47.29,23.9
Romania,RO,,Batarci,1908579,48.0356358,23.1510964,48.0333333,23.1666667
Romania,RO,,Batar,1908578,46.7094114971593,21.8016068568556,46.7099053,21.8036643
Romania,RO,,Bata,1908573,46.0171945,22.0387763,44.0989346,25.7926524
Romania,RO,,Batos,1908597,46.8867976466998,24.6538998936665,46.8865613,24.6517966
Romania,RO,,Batrana,1908600,45.7916909,22.5854927,45.7918105,22.5843507
Romania,RO,,Bautar,1908613,45.5166667,22.5666667,45.5194881,22.5368679
Romania,RO,,Bazna,1908632,46.197318531663,24.2830682478349,46.200547,24.280737
Romania,RO,,Beba,1908639,,,46.1320202,20.2992527
Romania,RO,,Beceni,1908644,45.3766047556252,26.7698721908403,45.38036,26.7664671
Romania,RO,,Bechet,1908649,43.7841983,23.95595,43.78033,23.9568
Romania,RO,,Becicherecu Mic,1908662,45.8290399,21.0514234,45.8333333,21.05
Romania,RO,,Beclean,1908668,47.1783213794079,24.173945557008,47.1797222,24.1797222
Romania,RO,,Beclean,1908669,47.1783213794079,24.173945557008,47.1797222,24.1797222
Romania,RO,,Beica de Jos,1908699,46.7333082492269,24.7945575320235,46.7342359,24.7967137
Romania,RO,,Beidaud,1908702,44.7158169048576,28.5766256084218,44.7164191,28.5777376
Romania,RO,,Beius,1908714,46.6661077534671,22.3543103141413,46.661449,22.359859
Romania,RO,,Belcesti,1908730,47.3098690851265,27.0899690142669,47.309655,27.086376
Romania,RO,,Belciugatele,1908739,44.486394,26.4324273,44.4833333,26.4333333
Romania,RO,,Belint,1908773,45.7539206789535,21.7652039643208,45.7536111,21.7661111
Romania,RO,,Belin,1908771,45.9343694480273,25.5781691325373,45.9333333,25.5666667
Romania,RO,,Belis,1908776,46.6833392190575,23.0330569379582,46.6844444,23.0291667
Romania,RO,,Beliu,1908778,46.4935408,21.9864439,46.4934786,21.9877342
Romania,RO,,Beltiug,1908788,47.5474399714505,22.840915293635,47.55,22.85
Romania,RO,,Benesat,1908803,47.412724176061,23.2891489704067,47.409117,23.288858
Romania,RO,,Bengesti,1908811,45.0728806577657,23.5863230389508,45.0759973,23.5863662
Romania,RO,,Berbesti,1908825,44.5167553290021,24.0580172465701,44.988183,23.86822
Romania,RO,,Berca,1908834,45.2878998110282,26.6709323332416,45.2853841,26.6829241
Romania,RO,,Berceni,1908838,44.313734044081,26.1863463906138,44.315289,26.19171
Romania,RO,,Berceni,1908839,44.313734044081,26.1863463906138,44.315289,26.19171
Romania,RO,,Beresti-Bistrita,1908894,46.7112379031854,26.8619722496519,46.7118791,26.8652089
Romania,RO,,Beresti-Sat,1908899,,,46.2425854,27.1331914
Romania,RO,,Beresti-Tazlau,1908900,46.4684044680075,26.6745635561034,46.4666667,26.6666667
Romania,RO,,Beresti,1908889,46.2039233159851,27.1426454248657,46.1,27.8833333
Romania,RO,,Berevoesti,1908906,45.2294678151473,24.9380136829183,45.2267717,24.9362258
Romania,RO,,Berezeni,1908912,46.3735151,28.1521189,46.3761111,28.1477778
Romania,RO,,Berghin,1908915,46.0775387798178,23.7383137691474,46.0721085,23.7367482
Romania,RO,,Berislavesti,1908935,45.2474777335733,24.4269889419728,45.2507819,24.4226996
Romania,RO,,Beriu,1908936,45.7915357852221,23.1930077488489,45.7881784,23.1932643
Romania,RO,,Berlesti,1908940,45.0804956,27.4482217,44.028111,23.35288
Romania,RO,,Berliste,1908942,44.9905298,21.4668499,44.9901763,21.4664432
Romania,RO,,Bertea,1908947,45.2348334127782,25.8625778454587,45.2333333,25.8666667
Romania,RO,,Bertestii de Jos,1908951,44.8346313,27.7558747,44.8370752,27.7564699
Romania,RO,,Berthelot,1908953,45.6134352,22.8878639,44.4410685,26.0877717
Romania,RO,,Berveni,1908954,47.7581306632504,22.4771729331699,47.7546831,22.4714395
Romania,RO,,Berzasca,1908957,44.6468666654357,21.9508284107317,44.649365,21.946589
Romania,RO,,Berzovia,1908962,45.4250975080205,21.6293088774615,45.4267648,21.6294902
Romania,RO,,Berzunti,1908964,46.3992557892082,26.6883833201755,46.4101122,26.649943
Romania,RO,,Bethausen,1908994,45.8331353,21.9573457,45.8352911,21.9581161
Romania,RO,,Bezdead,1909004,45.136695423792,25.4938843167018,45.15,25.5166667
Romania,RO,,Bicaz Chei,1909037,46.8346070008892,25.8955586027836,46.832066,25.8814673
Romania,RO,,Bicazu Ardelean,1909038,46.8554326466846,25.921520073186,46.8772683,25.8820969
Romania,RO,,Bicaz,1909034,46.9100426353392,26.0859492368523,46.9108333,26.0911111
Romania,RO,,Bicaz,1909035,46.9100426353392,26.0859492368523,46.9108333,26.0911111
Romania,RO,,Bichis,1909056,46.3742625,24.0919683,46.3753746,24.0911289
Romania,RO,,Biertan,1909070,46.1364678026797,24.5222457182646,46.133333,24.516667
Romania,RO,,Biharia,1909076,46.4283772,22.7692249,47.1536111,21.9216667
Romania,RO,,Bilbor,1909088,47.0689639172247,25.4857019638566,47.0656143,25.4864041
Romania,RO,,Bilca,1909089,47.9182626,25.7545694,47.9157451,25.7455317
Romania,RO,,Bilciuresti,1909094,44.7392274,25.8141394,44.437711,26.097367
Romania,RO,,Biled,1909096,45.8867926103525,20.9583946048892,45.8833333,20.9666667
Romania,RO,,Birchis,1909135,45.9659971734352,22.1666658923355,45.9666667,22.1666667
Romania,RO,,Bisoca,1909252,45.5422326,26.706427,45.5427848,26.7064908
Romania,RO,,Bistra,1909255,46.3769783,23.1038683,46.3787007,23.1021078
Romania,RO,,Bistra,1909256,46.3769783,23.1038683,46.3787007,23.1021078
Romania,RO,,Bistret,1909261,43.8916824771989,23.4998007301135,47.1333333,24.5
Romania,RO,,Bistrita,1909269,47.136341239575,24.4943121941267,47.1333333,24.5
Romania,RO,,Bivolari,1909288,47.5217074,27.4486497,47.518761,27.448999
Romania,RO,,Bixad,1909294,46.1028756105665,25.8637056063594,47.935112,23.3950902
Romania,RO,,Blagesti,1909304,46.6882758300817,26.6638133343298,46.6781021,26.695262
Romania,RO,,Blagesti,1909306,46.6882758300817,26.6638133343298,46.6781021,26.695262
Romania,RO,,Blajani,1909312,45.316134,26.8129286,45.322415,26.80867
Romania,RO,,Blajel,1909314,46.2067901,24.3237074,46.208762,24.326706
Romania,RO,,Blajeni,1909315,46.2138891,22.9091614,46.2157984,22.9057577
Romania,RO,,Blaj,1909313,44.2713169671518,24.198354362122,46.1752778,23.9144444
Romania,RO,,Blandiana,1909333,45.9776675705283,23.3888664813476,45.9792909,23.3856994
Romania,RO,,Blejesti,1909350,44.2976791310817,25.4686035566662,44.3,25.4666667
Romania,RO,,Blejoi,1909351,44.9949329320287,26.0046207133923,44.989028,26.0126977
Romania,RO,,Bobicesti,1909401,44.3987733032768,24.1398544269062,44.3979427,24.1412347
Romania,RO,,Bobota,1909420,47.3825789424141,22.7654756223494,47.3833333,22.7666667
Romania,RO,,Bocicoiu Mare,1909440,47.963126,24.0155303,47.9618199,24.0131328
Romania,RO,,Bocsa,1909444,45.3757977302184,21.7152730565707,45.37191,21.719919
Romania,RO,,Bocsa,1909447,45.3757977302184,21.7152730565707,45.37191,21.719919
Romania,RO,,Bocsig,1909457,46.4201278568817,21.938245398573,46.420132,21.94673
Romania,RO,,Bodesti,1909471,45.0596212285443,23.8096340381545,47.03231,26.4171409
Romania,RO,,Bodoc,1909489,45.9552015138859,25.8565166078612,45.95,25.85
Romania,RO,,Bod,1909461,45.7634703,25.6399108,45.7666667,25.65
Romania,RO,,Bogata,1909510,46.4559776909544,24.1173168751683,46.453782,24.118921
Romania,RO,,Bogati,1909518,44.8681761,25.1353133,46.5279464,24.5481643
Romania,RO,,Bogdan Voda,1909550,47.691691,24.2668828,47.42,24.16
Romania,RO,,Bogdana,1909525,43.9177045310075,25.1036567635601,43.922287,25.082663
Romania,RO,,Bogdana,1909526,43.9177045310075,25.1036567635601,43.922287,25.082663
Romania,RO,,Bogdand,1909532,47.4146120528974,22.9342746376644,47.418235,22.935798
Romania,RO,,Bogdanesti,1909540,46.2110044152014,26.6819458572408,46.2166667,26.6833333
Romania,RO,,Bogdanesti,1909541,46.2110044152014,26.6819458572408,46.2166667,26.6833333
Romania,RO,,Bogdanita,1909546,46.4590383,27.6855182,46.4589881,27.6837
Romania,RO,,Bogda,1909522,45.9783326,21.572493,45.9791662,21.5772443
Romania,RO,,Boghesti,1909559,46.1588679,27.4095567,46.1563649,27.405475
Romania,RO,,Boianu Mare,1909595,47.3824102909888,22.5213075313269,47.3818739,22.5249355
Romania,RO,,Boisoara,1909597,45.442161003681,24.3822573136084,45.4333333,24.3833333
Romania,RO,,Boiu Mare,1909621,47.3955975895653,23.5866464378032,47.4,23.5833333
Romania,RO,,Bolbosi,1909646,44.7460679,23.229409,44.7456419,23.2262564
Romania,RO,,Boldesti-Scaeni,1909654,45.022680723531,26.0319637508637,45.03,26.03
Romania,RO,,Boldesti,1909653,44.865916691145,26.5523515245483,44.8651509,26.549744
Romania,RO,,Boldur,1909660,45.69246793408,21.7818707148461,45.6929475,21.7822876
Romania,RO,,Boldu,1909656,45.3229809943969,27.240021523496,45.3222222,27.2444444
Romania,RO,,Bolintin Deal,1909668,44.4565811227166,25.8201361263708,44.451371,25.824516
Romania,RO,,Bolintinu-din-Vale,1909674,,,44.4461657,25.7577837
Romania,RO,,Bolotesti,1909683,45.8368594492904,27.0723408262107,45.8393282,27.0695682
Romania,RO,,Bolvasnita,1909697,45.3455774,22.3101167,45.3451887,22.3089852
Romania,RO,,Borascu,1909715,44.6947201,23.284332,44.693355,23.2762736
Romania,RO,,Borca,1909718,47.1829556453598,25.7701007899447,47.1789433,25.7794843
Romania,RO,,Borcea,1909721,44.3321700292059,27.7418796158372,44.3333333,27.75
Romania,RO,,Bordei Verde,1909736,45.0637394,27.5734247,45.0660412,27.5735625
Romania,RO,,Bordesti,1909742,45.5540730381626,27.0411586529229,45.5567113,27.0419115
Romania,RO,,Bordusani,1909754,44.4817167822613,27.9044194550278,45.1079758,26.9666911
Romania,RO,,Borlesti,1909774,47.681819380505,23.3311517568283,46.7764424,26.5042751
Romania,RO,,Boroaia,1909780,47.344624934596,26.3278437322788,47.35,26.3333333
Romania,RO,,Borod,1909785,46.991702,22.6155619,46.9927021,22.6138097
Romania,RO,,Borosneu Mare,1909804,45.8192316,26.0078365,45.8166667,26.0
Romania,RO,,Borsa,1909816,47.4109894698602,27.3619951153141,47.6552778,24.6630556
Romania,RO,,Borsa,1909817,47.4109894698602,27.3619951153141,47.6552778,24.6630556
Romania,RO,,Borsec,1909832,46.9695766062843,25.5609996087054,46.9666667,25.57
Romania,RO,,Bors,1909830,47.1170151,21.8023716,47.1166667,21.8166667
Romania,RO,,Bosanci,1909864,47.5867660337812,26.3137368572804,47.5833333,26.3166667
Romania,RO,,Bosorod,1909878,45.6828215,23.0939032,45.682559,23.0915083
Romania,RO,,Boteni,1909903,45.1781039870427,25.1296886567732,45.171338,25.120654
Romania,RO,,Botesti,1909907,46.935741,26.5018536,46.8,27.8833333
Romania,RO,,Botesti,1909911,46.935741,26.5018536,46.8,27.8833333
Romania,RO,,Botesti,1909913,46.935741,26.5018536,46.8,27.8833333
Romania,RO,,Botiza,1909920,47.6685184,24.1515173,47.666667,24.15
Romania,RO,,Botiz,1909921,47.8310957091158,22.9476795748289,47.827125,22.942651
Romania,RO,,Botoroaga,1909929,44.1450871,25.5578108,44.1483333,25.5447222
Romania,RO,,Botosana,1909931,47.6865651564008,25.9354531897569,47.6852676,25.9351301
Romania,RO,,Botosani,1909932,47.7432893855485,26.6650647894941,47.746231,26.666809
Romania,RO,,Botosesti-Paia,1909937,44.403898,23.2638116,44.4047429,23.2570491
Romania,RO,,Bozieni,1909976,46.8391631336079,27.151832326054,46.8390142,27.1485092
Romania,RO,,Bozioru,1909987,45.3834395,26.4953874,45.386072,26.498531
Romania,RO,,Bozovici,1909993,44.9221102506003,21.9984291063152,44.9261062,21.9990649
Romania,RO,,Brabova,1909996,44.3678752120649,23.4247822999648,44.3704679,23.427183
Romania,RO,,Bradeanu,1910006,44.9263617,26.8686275,44.9222222,26.8588889
Romania,RO,,Bradeni,1910008,46.0805929956665,24.8303912005512,46.0833333,24.8333333
Romania,RO,,Bradesti,1910011,44.4888830867029,23.6269769296737,44.4833333,23.6333333
Romania,RO,,Bradesti,1910013,44.4888830867029,23.6269769296737,44.4833333,23.6333333
Romania,RO,,Bradulet,1910053,45.2798671,24.7828846,45.2833333,24.7666667
Romania,RO,,Bradut,1910055,46.1294071,25.609558,46.1289647,25.6101146
Romania,RO,,Bradu,1910040,45.7206635386683,24.3265911157117,46.1243333,22.7873333
Romania,RO,,Brad,1910003,46.7230100949812,26.9543700231874,46.1243333,22.7873333
Romania,RO,,Braesti,1910056,47.1556542079248,27.0990403413309,47.86042,26.46269
Romania,RO,,Braesti,1910057,47.1556542079248,27.0990403413309,47.86042,26.46269
Romania,RO,,Braesti,1910059,47.1556542079248,27.0990403413309,47.86042,26.46269
Romania,RO,,Bragadiru,1910061,44.3701394394709,25.9753976338751,43.7666667,25.5166667
Romania,RO,,Bragadiru,1910062,44.3701394394709,25.9753976338751,43.7666667,25.5166667
Romania,RO,,Brahasesti,1910068,46.0399173,27.3701456,46.0402603,27.3693836
Romania,RO,,Braila,1910075,45.2752381629098,27.957226312119,45.2691944,27.9574722
Romania,RO,,Bralostita,1910082,44.498321699668,23.5198794626313,44.4982565,23.5187013
Romania,RO,,Brancovenesti,1910089,46.8554083209184,24.7583145459128,46.8570528,24.757905
Romania,RO,,Branesti,1910093,45.0408246111217,25.4191824927017,44.457306,26.3393504
Romania,RO,,Branesti,1910095,45.0408246111217,25.4191824927017,44.457306,26.3393504
Romania,RO,,Branesti,1910098,45.0408246111217,25.4191824927017,44.457306,26.3393504
Romania,RO,,Branisca,1910104,45.9182266490729,22.7737669874685,45.9173402,22.7727483
Romania,RO,,Branistea,1910107,44.2425607276012,22.972005084688,44.6833333,25.5833333
Romania,RO,,Branistea,1910109,44.2425607276012,22.972005084688,44.6833333,25.5833333
Romania,RO,,Branistea,1910114,44.2425607276012,22.972005084688,44.6833333,25.5833333
Romania,RO,,Bran,1910083,45.5141732045761,25.3640385721835,45.5113889,25.3641667
Romania,RO,,Brasov,1910129,45.652556,25.6097033,45.655651,25.6108
Romania,RO,,Brastavatu,1910132,43.9060263,24.4070381,43.9075645,24.4076918
Romania,RO,,Bratca,1910139,46.9294295,22.6058213,46.9242078,22.6053445
Romania,RO,,Brateiu,1910145,46.1704523622673,24.42513450986,46.1692413,24.4231005
Romania,RO,,Brates,1910150,45.835166081108,26.0723347165133,45.8342844,26.0706541
Romania,RO,,Brazii,1910218,44.7611488569974,26.3610717905289,44.7667,26.35
Romania,RO,,Brazii,1910219,44.7611488569974,26.3610717905289,44.7667,26.35
Romania,RO,,Brazi,1910213,45.4841184,22.8341845,45.4877079,22.8401851
Romania,RO,,Breasta,1910224,44.3426345,23.6881521,44.3426177,23.6886025
Romania,RO,,Breaza,1910225,45.7050018337649,24.8819144734159,45.1872222,25.6622222
Romania,RO,,Breaza,1910227,45.7050018337649,24.8819144734159,45.1872222,25.6622222
Romania,RO,,Breaza,1910228,45.7050018337649,24.8819144734159,45.1872222,25.6622222
Romania,RO,,Breaza,1910230,45.7050018337649,24.8819144734159,45.1872222,25.6622222
Romania,RO,,Brebeni,1910242,44.3704457079738,24.4473810350837,44.3666667,24.45
Romania,RO,,Brebu Nou,1910266,45.2333332,22.1333333,45.232838,22.136155
Romania,RO,,Brebu,1910254,45.4201855960344,21.9925421100564,45.1833333,25.7666667
Romania,RO,,Brebu,1910257,45.4201855960344,21.9925421100564,45.1833333,25.7666667
Romania,RO,,Brestovat,1910281,45.8734183,21.6820062,45.655651,25.6108
Romania,RO,,Bretcu,1910287,46.0428594,26.3046826,46.0419938,26.3034403
Romania,RO,,Breznita Ocol,1910301,44.6728081340986,22.6116674402144,44.6666667,22.6166667
Romania,RO,,Breznita-Motru,1910300,44.5671847,23.2156707,44.57,23.22
Romania,RO,,Brezoaiele,1910306,,,,
Romania,RO,,Brezoi,1910307,45.341778991111,24.2405440631201,45.3370891,24.2473143
Romania,RO,,Brodina,1910339,47.781111,25.2723612,47.8833333,25.4166667
Romania,RO,,Broscauti,1910348,47.953382,26.4504247,47.95,26.45
Romania,RO,,Brosteni,1910360,45.0459383224783,21.6489760344232,47.2403368,25.6976665
Romania,RO,,Brosteni,1910361,45.0459383224783,21.6489760344232,47.2403368,25.6976665
Romania,RO,,Brosteni,1910364,45.0459383224783,21.6489760344232,47.2403368,25.6976665
Romania,RO,,Bruiu,1910382,45.8761451408745,24.6994969325733,45.8759963,24.6990418
Romania,RO,,Brusturi,1910387,47.1614779446687,23.2268015836546,47.1589448,22.238043
Romania,RO,,Brusturoasa,1910394,46.5217547,26.1784401,46.5172068,26.1870668
Romania,RO,,Brânceni,1910086,43.8767849113942,25.3959622157487,43.8796072,25.3933729
Romania,RO,,Brâncoveni,1910090,44.3131602,24.3093239,44.3144923,24.3065645
Romania,RO,,Bucecea,1910404,47.7737641458996,26.4386520927086,47.775597,26.443814
Romania,RO,,Buces,1910412,46.1878938957102,22.9410741620769,46.1890579,22.9369375
Romania,RO,,Bucharest,1910415,44.4361391,26.1027436,44.437711,26.097367
Romania,RO,,Buchin,1910419,45.3666667,22.25,45.3630627,22.2427907
Romania,RO,,Bucinisu,1910425,43.9479616,24.2510085,43.95,24.25
Romania,RO,,Buciumeni,1910437,45.1563991677186,25.455333794779,45.15,25.45
Romania,RO,,Buciumeni,1910439,45.1563991677186,25.455333794779,45.15,25.45
Romania,RO,,Buciumi,1910447,46.1988622466228,26.7846391026774,47.0481,23.0453
Romania,RO,,Bucium,1910429,45.7406732351285,23.1826667017296,46.264,23.176
Romania,RO,,Bucosnita,1910462,45.3008733688458,22.2694013967857,44.437711,26.097367
Romania,RO,,Bucovat,1910465,45.7526721887426,21.3785402659164,44.9740689,26.079016
Romania,RO,,Bucov,1910470,44.440242,25.0374716,44.9740689,26.079016
Romania,RO,,Bucsani,1910486,44.8522443701885,24.2339393280228,45.7005,27.18881
Romania,RO,,Bucuresci,1910504,46.1281515,22.9031745,44.437711,26.097367
Romania,RO,,Bucu,1910496,44.6062077468669,27.4925829607453,44.6064839,27.4908717
Romania,RO,,Budacu de Jos,1910526,47.0857843068538,24.5210572602648,47.0865803,24.5189048
Romania,RO,,Buda,1910521,44.9645962618913,25.9187657243127,44.8237971,26.1841489
Romania,RO,,Budeasa,1910538,44.9285442642816,24.8218449607776,44.933632,24.830938
Romania,RO,,Budesti,1910549,44.6030430243035,23.9930289312836,44.237045,26.455227
Romania,RO,,Budesti,1910553,44.6030430243035,23.9930289312836,44.237045,26.455227
Romania,RO,,Budesti,1910558,44.6030430243035,23.9930289312836,44.237045,26.455227
Romania,RO,,Budesti,1910560,44.6030430243035,23.9930289312836,44.237045,26.455227
Romania,RO,,Budila,1910569,45.673549330746,25.8073213394172,45.6732381,25.8054686
Romania,RO,,Budureasa,1910588,46.6791819,22.4951739,46.666667,22.5
Romania,RO,,Buduslau,1910594,47.4021600833232,22.2640974573397,47.4,22.2666667
Romania,RO,,Buftea,1910597,44.559917479799,25.9448417844149,44.57,25.95
Romania,RO,,Bughea de Jos,1910600,45.2593536155658,25.0038057284045,45.2666667,25.0
Romania,RO,,Buhoci,1910627,46.5665453,27.0194295,46.5666667,27.0166667
Romania,RO,,Buhusi,1910630,46.7255777765817,26.6961099160441,46.724227,26.696173
Romania,RO,,Bujoreni,1910648,45.1434370950615,24.3590450867424,45.2166667,24.5833333
Romania,RO,,Bujoru,1910656,45.8741893,22.6174358,43.710496,25.5601219
Romania,RO,,Bulbucata,1910677,44.2800674058022,25.8144032603818,44.2833333,25.8
Romania,RO,,Bulzesti,1910704,44.5346534997961,23.8891554982507,44.5184131,23.8987304
Romania,RO,,Bulzesti,1910705,44.5346534997961,23.8891554982507,44.5184131,23.8987304
Romania,RO,,Bulz,1910702,46.9201785821402,22.6746466638112,46.9129444,22.6748134
Romania,RO,,Bumbesti-Jiu,1910715,45.1656882050787,23.3865375761511,45.1786111,23.3813889
Romania,RO,,Bunesti,1910732,45.0203037617345,24.7453103403978,47.5144669,26.2842949
Romania,RO,,Bunesti,1910733,45.0203037617345,24.7453103403978,47.5144669,26.2842949
Romania,RO,,Bunesti,1910735,45.0203037617345,24.7453103403978,47.5144669,26.2842949
Romania,RO,,Bunesti,1910736,45.0203037617345,24.7453103403978,47.5144669,26.2842949
Romania,RO,,Bunila,1910753,45.6992536883562,22.6757065148252,45.6979398,22.6761034
Romania,RO,,Buntesti,1910758,46.6127999,22.4685608,46.6166667,22.4666667
Romania,RO,,Burila Mare,1910787,44.453231,22.5729977,44.4542846,22.5753134
Romania,RO,,Burjuc,1910789,45.950006,22.4833491,45.9505921,22.4900634
Romania,RO,,Busteni,1910832,45.4147937047541,25.5367226843837,45.4116667,25.5372222
Romania,RO,,Bustuchin,1910837,44.9645178,23.728135,44.954429,23.720435
Romania,RO,,Butea,1910855,47.0736473,26.9357977,47.0698885,26.9346864
Romania,RO,,Buteni,1910860,46.3293044475158,22.1206924673295,46.3288898,22.1223923
Romania,RO,,Butimanu,1910865,44.6905232199895,25.8822724708471,44.696053,25.877958
Romania,RO,,Butoiesti,1910873,44.5880155,23.3723541,44.94,26.03
Romania,RO,,Buturugeni,1910891,44.3664136,25.8361692,44.3666667,25.8333333
Romania,RO,,Buzau,1910905,45.1485797929224,26.816966085641,45.14806,26.823339
Romania,RO,,Buza,1910896,46.9107086,24.1478272,46.9092506,24.1477964
Romania,RO,,Buzescu,1910914,44.0112221597321,25.2265579625768,44.0166667,25.2333333
Romania,RO,,Buzias,1910919,45.649167,21.60361,45.65,21.6
Romania,RO,,Buzoesti,1910926,44.5815316,24.918199,44.5795862,24.9212045
Romania,RO,,Bâlteni,1908199,44.8700475094257,23.2712546493111,44.8666667,23.2833333
Romania,RO,,Bâra,1908290,46.5719927607891,24.8713451941476,45.8931,21.8806
Romania,RO,,Bârca,1908388,43.9684755684716,23.6173267203358,43.976509,23.62635
Romania,RO,,Bârlad,1908436,46.2267501767622,27.6710008669776,46.229118,27.66823
Romania,RO,,Bârna,1908453,45.7203684,22.0572074,45.72,22.055
Romania,RO,,Bârsana,1908463,47.8175111614136,24.064365784351,47.815,24.0597222
Romania,RO,,Bârsa,1908462,47.3261758196657,23.2110308313407,46.383,22.067
Romania,RO,,Bârzava,1908513,46.4320255,25.8205036,46.1104382,21.9925191
Romania,RO,,Cabesti,1910931,46.7701548557709,22.3746922872706,46.7667,22.3667
Romania,RO,,Cacica,1910947,47.6381931,25.9001964,47.6333333,25.9
Romania,RO,,Caianu Mic,1910990,47.2397378227561,24.1279802994683,47.246343,24.162674
Romania,RO,,Caianu,1910985,46.784603,23.9184964,46.7823017,23.9167027
Romania,RO,,Caiuti,1911005,46.1836826777865,26.9244972660118,46.1833333,26.9333333
Romania,RO,,Cajvana,1911010,47.7016993,25.9669237,47.7,25.9666667
Romania,RO,,Calafat,1911014,43.9905608,22.9337351,43.9897523,22.934115
Romania,RO,,Calafindesti,1911015,47.8549970420246,26.1145224553791,47.8548614,26.1120987
Romania,RO,,Calan,1911018,45.7359495473663,23.0026768914796,45.7374445,22.9917568
Romania,RO,,Calarasi,1911026,47.6071751391729,27.2591465423546,44.202016,27.330039
Romania,RO,,Calarasi,1911027,47.6071751391729,27.2591465423546,44.202016,27.330039
Romania,RO,,Calarasi,1911028,47.6071751391729,27.2591465423546,44.202016,27.330039
Romania,RO,,Calarasi,1911029,47.6071751391729,27.2591465423546,44.202016,27.330039
Romania,RO,,Calatele,1911040,46.7642788,23.0098605,46.7696746,23.007481
Romania,RO,,Caldararu,1911049,44.4122238,26.2621468,44.45,24.95
Romania,RO,,Calimanesti,1911082,45.2381887660699,24.3390321608588,45.2391667,24.3433333
Romania,RO,,Calinesti-Oas,1911111,47.910573623458,23.2897620852862,47.9202778,23.2863889
Romania,RO,,Calinesti,1911089,44.8220864531507,25.049692537166,45.2391667,24.3433333
Romania,RO,,Calinesti,1911094,44.8220864531507,25.049692537166,45.2391667,24.3433333
Romania,RO,,Calinesti,1911097,44.8220864531507,25.049692537166,45.2391667,24.3433333
Romania,RO,,Calmatuiu,1911116,43.9694952,24.8652024,43.9666667,24.8666667
Romania,RO,,Calugareni,1911159,46.6315485757635,24.8798581232976,44.1833,26.0
Romania,RO,,Calvini,1911191,45.2535181107371,26.293398043966,45.2458333,26.3
Romania,RO,,Camarasu,1911194,46.7982763,24.1427948,46.7866566,24.1276028
Romania,RO,,Camarzana,1911202,47.994351,23.308737,48.0,23.3166667
Romania,RO,,Camar,1911201,47.2990430479267,22.6165847290009,47.3,22.6166667
Romania,RO,,Candesti,1911275,45.3241106764352,24.9699431201464,45.0833333,25.2166667
Romania,RO,,Canesti,1911291,45.3975777,26.6027073,46.4297222,26.45
Romania,RO,,Capalna,1911308,45.8472397369118,23.6047309046069,46.7328426,22.1054451
Romania,RO,,Capalnita,1911314,46.3571573,25.5108234,46.3594353,25.511701
Romania,RO,,Capleni,1911346,47.7073807979537,22.5000847887396,47.7059576,22.5003516
Romania,RO,,Capreni,1911356,44.7519298,23.6296223,44.761653,23.625339
Romania,RO,,Capusu Mare,1911411,46.7873332,23.2934979,46.7913715,23.2885538
Romania,RO,,Caracal,1911421,44.112167,24.3455897,44.1125,24.3472222
Romania,RO,,Carand,1911449,46.4451222,22.0885928,46.45,22.083
Romania,RO,,Caransebes,1911454,45.4158373339898,22.2172059548256,45.4213889,22.2219444
Romania,RO,,Carasova,1911467,45.1996741403978,21.8618806008169,45.2,21.8666667
Romania,RO,,Carastelec,1911470,47.2998961,22.6982096,47.3,22.7
Romania,RO,,Caraula,1911484,44.1920775286706,23.2490743568331,44.194228,23.2510732
Romania,RO,,Carbunari,1911492,44.8372565295719,21.743152093796,44.8366113,21.7467975
Romania,RO,,Carbunesti,1911498,45.2285696371956,26.2017431450628,45.5666667,25.3333333
Romania,RO,,Carcaliu,1911502,45.1866123585636,28.1464506097741,44.1125,24.3472222
Romania,RO,,Carei,1911515,47.6832492303455,22.4629047790514,47.6839667,22.4668694
Romania,RO,,Carpen,1911580,44.337213700724,23.2574330064275,44.3367305,23.257632
Romania,RO,,Carpinet,1911592,46.4559928,22.4937923,46.4585677,22.4896153
Romania,RO,,Carpinis,1911597,45.8323800105278,23.6609048195692,45.7872,20.9044
Romania,RO,,Carta,1911616,46.5327347113965,25.7603556549755,46.5305691,25.7615353
Romania,RO,,Carta,1911617,46.5327347113965,25.7603556549755,46.5305691,25.7615353
Romania,RO,,Cascioarele,1911645,44.1274371842522,26.4698561230463,44.126,26.47
Romania,RO,,Caseiu,1911649,47.1967690817832,23.8542957921232,47.1966193,23.8574123
Romania,RO,,Casimcea,1911658,44.7139884,28.379287,44.72654,28.3785
Romania,RO,,Casin,1911659,46.1970813248212,26.7420766333502,46.1959624,26.7441517
Romania,RO,,Castelu,1911677,44.2571022628707,28.3352807249101,44.255572,28.32975
Romania,RO,,Castra-Nova,1911680,,,,
Romania,RO,,Catalina,1911687,45.9672671229704,26.1583463871507,45.9666667,26.15
Romania,RO,,Cata,1911683,46.0902271,25.2811332,46.0902936,25.2800685
Romania,RO,,Catcau,1911710,47.2176494,23.789674,47.2157407,23.7881377
Romania,RO,,Cateasca,1911712,44.766667,25.083333,44.7667,25.0833
Romania,RO,,Catina,1911727,45.2910804095742,26.2567046412776,46.8444943,24.1615905
Romania,RO,,Catina,1911729,45.2910804095742,26.2567046412776,46.8444943,24.1615905
Romania,RO,,Catunele,1911739,44.859663739207,22.9203053568345,44.8638307,22.9066878
Romania,RO,,Cauas,1911754,47.5698274424165,22.5425103615429,47.5666667,22.55
Romania,RO,,Cavadinesti,1911767,46.0616651250632,28.0174362459435,46.0666667,28.0166667
Romania,RO,,Cavnic,1911771,47.6539041,23.8284706,47.6608333,23.8777778
Romania,RO,,Cazanesti,1911777,44.7234546620444,22.8904694929657,44.6192,27.01
Romania,RO,,Cazanesti,1911782,44.7234546620444,22.8904694929657,44.6192,27.01
Romania,RO,,Ceahlau,1911793,46.9963094228465,25.9229025888576,47.024429,25.93073
Romania,RO,,Ceamurlia de Jos,1911798,44.7423917952385,28.7263864492555,44.7421964,28.727481
Romania,RO,,Ceanu Mare,1911807,46.6617228,23.9597635,46.6632087,23.9576122
Romania,RO,,Ceatalchioi,1911816,45.288554,28.7936599,45.2833333,28.7833333
Romania,RO,,Cefa,1911837,46.9149165990315,21.7121320431678,46.917301,21.7114739
Romania,RO,,Cehal,1911842,47.3843237,22.5946859,47.3833333,22.6
Romania,RO,,Cehu Silvaniei,1911851,47.410902310241,23.1792106220154,47.406279,23.166455
Romania,RO,,Ceica,1911852,46.8583761,22.168755,46.8568042,22.1612739
Romania,RO,,Celaru,1911856,44.0399537000062,24.1298925857959,44.044411,24.137699
Romania,RO,,Cenade,1911867,46.0585089875157,24.0049517859325,46.0582046,24.0050622
Romania,RO,,Cenad,1911866,46.1333328,20.5833373,46.1333333,20.5833333
Romania,RO,,Cenei,1911876,45.715836,20.9038891,45.7166667,20.9
Romania,RO,,Cepari,1911885,47.2352563260281,24.4265054481669,44.7962735,24.6782232
Romania,RO,,Ceplenita,1911895,47.3772747,26.9592916,47.3826863,26.9648629
Romania,RO,,Cerasu,1911902,45.3237258899525,26.041290324608,45.3161982,26.0408873
Romania,RO,,Ceratu,1911905,45.0151679,23.4340991,45.0110489,23.434604
Romania,RO,,Cerbal,1911908,45.7805299,22.7170898,45.7803855,22.7138776
Romania,RO,,Cerchezu,1911932,43.8240928,28.0975135,43.829649,28.100416
Romania,RO,,Cermei,1911955,46.5483172,21.8456523,46.55,21.85
Romania,RO,,Cernatesti,1911972,45.2637709904053,26.7594257631603,45.263964,26.7580234
Romania,RO,,Cernatesti,1911973,45.2637709904053,26.7594257631603,45.263964,26.7580234
Romania,RO,,Cernat,1911970,45.9653034406861,26.0226994743689,45.959291,26.034927
Romania,RO,,Cernavoda,1911984,44.3424149610694,28.0349381900033,44.3380556,28.0336111
Romania,RO,,Cerna,1911957,45.0799968631989,28.3001805998122,45.085251,28.3069
Romania,RO,,Cernesti,1911991,45.2631390501155,26.0276977558179,45.5666667,25.3333333
Romania,RO,,Cernica,1911998,44.4180068,26.282049,44.434998,26.277897
Romania,RO,,Cernisoara,1912003,45.0443618,23.9632346,45.7597222,21.23
Romania,RO,,Certeju de Sus,1912012,45.9738973,22.9704433,45.9666667,22.9666667
Romania,RO,,Certesti,1912015,46.0145520020333,27.6325004923903,46.0166667,27.6333333
Romania,RO,,Certeze,1912016,47.9015739017437,23.4664137964834,47.9,23.4666667
Romania,RO,,Ceru-Bacainti,1912017,45.9736942,23.271899,45.9738112,23.271237
Romania,RO,,Cervenia,1912019,43.8335818,25.4605389,43.8333333,25.4666667
Romania,RO,,Cetariu,1912032,47.1420795854644,21.9970466790401,47.1417285,21.9978705
Romania,RO,,Cetatea de Balta,1912039,46.2502197416289,24.1748740657517,46.2466621,24.1697793
Romania,RO,,Cetateni,1912047,45.186334336514,25.2083279913466,45.1974553,25.1895437
